county,lat,lon,bubble,change,week,state,telemed
Essex,37.7681,-76.7117,16,99.5,202252,NJ,-0.32
Kearny,37.9382,-101.2713,16,8,202252,KS,-0.32
Union,29.9315,-82.4255,16,7.827586207,202252,NJ,-0.32
Hudson,40.6664,-74.1192,16,6.689655172,202252,NJ,-0.32
Berks,40.1552,-75.8998,16,5.555555556,202252,PA,-0.32
Bennington,42.7562,-73.0679,16,4.212121212,202252,VT,-0.32
Licking,39.9337,-82.4724,16,3,202252,OH,-0.32
Madison,30.3979,-83.2844,16,3,202252,LA,-0.32
Saline,34.4508,-92.6547,16,2.5625,202252,MO,-0.32
Danville,36.5779,-79.4411,16,2.189189189,202252,VA,-0.32
Clayton,33.4429,-84.3136,16,2,202252,GA,-0.32
Warren,32.3258,-90.8507,16,1.697478992,202252,OH,-0.32
Okaloosa,30.3935,-86.4958,14.306939625722,1.41509434,202252,FL,-0.32
City of Harrisonburg,38.4409,-78.8742,13.0479565199645,1.260869565,202252,VA,-0.32
Chatham,31.9268,-81.0381,12.959225,1.25,202252,GA,-0.32
Sacramento,38.157,-121.6066,12.2789500027211,1.166666667,202252,CA,-0.32
Clinton,36.6857,-85.1407,11.5157146365356,1.073170732,202252,KY,-0.32
Curry,34.3841,-103.3154,11.42860625,1.0625,202252,OR,-0.32
Ada,43.4599,-116.244,11.0367086987282,1.014492754,202252,UT,-0.32
Sullivan,36.4195,-82.304,10.9184,1,202252,NY,-0.32
Franklin,29.7255,-85.0063,10.881124657907,-0.99543379,202252,WA,-0.32
Sandoval,35.2339,-106.62,10.8692234971232,-0.993975904,202252,NM,-0.32
Wake,35.547,-78.6717,10.8632425655819,-0.993243243,202252,NC,-0.32
Penobscot,44.6991,-69.1025,10.8536119042436,-0.992063492,202252,ME,-0.32
Albemarle,37.7511,-78.6313,10.840654281827,-0.99047619,202252,VA,-0.32
Martin,27.0595,-80.1364,10.755134,-0.98,202252,MN,-0.32
Douglas,33.6634,-84.8639,10.7369933351474,-0.977777778,202252,GA,-0.32
Bay,29.9395,-85.4096,10.7007119972789,-0.973333333,202252,FL,-0.32
Arlington,38.8415,-77.0905,10.6550677379855,-0.967741935,202252,VA,-0.32
Phillips,34.1335,-90.9751,10.6369068934553,-0.965517241,202252,AR,-0.32
Massac,37.1542,-88.5334,10.5473409128015,-0.954545455,202252,IL,-0.32
Douglas,33.6634,-84.8639,10.4648833297052,0.944444444,202252,WA,-0.32
Houston,31.0507,-85.3154,10.3741799972789,0.933333333,202252,GA,-0.32
Washington,30.1669,-96.3977,10.3488674407214,-0.930232558,202252,PA,-0.32
Fort Bend,29.3327,-95.7702,10.3353071463557,-0.928571429,202252,TX,-0.32
Snyder,40.6991,-77.3758,10.3353071463557,-0.928571429,202252,PA,-0.32
Greene,31.0867,-88.7977,10.2781411727891,-0.921568627,202252,IA,-0.32
Shelby,31.7131,-93.9698,10.1409428590865,0.904761905,202252,AL,-0.32
Accomack,37.5423,-75.7412,10.1154524568752,-0.901639344,202252,VA,-0.32
Elko,40.3995,-115.2312,10.0854102067472,-0.897959184,202252,NV,-0.32
Morris,32.9252,-94.7049,9.9884037944717,-0.886075949,202252,NJ,-0.32
Leavenworth,39.0014,-95.0391,9.9472035377387,-0.881028939,202252,KS,-0.32
Clark,33.8309,-93.1263,9.8177303344187,-0.865168539,202252,WA,-0.32
Los Angeles,33.332,-118.3437,9.5946216229454,-0.837837838,202252,CA,-0.32
Rockdale,33.6111,-84.0683,9.5578499972789,-0.833333333,202252,GA,-0.32
Madison,30.3979,-83.2844,9.5578499972789,0.833333333,202252,IL,-0.32
Richmond,33.2941,-82.203,9.5189771463557,0.828571429,202252,NY,-0.32
Knox,33.4183,-99.8137,9.4341636348794,0.818181818,202252,TN,-0.32
Stephens,32.6886,-98.659,9.3140520223664,-0.803468208,202252,OK,-0.32
Wichita,33.8579,-98.8081,9.3047244153773,0.802325581,202252,TX,-0.32
McClain,34.8904,-97.0997,9.28574,-0.8,202252,OK,-0.32
Kanawha,38.0505,-81.4227,9.28574,0.8,202252,WV,-0.32
Kitsap,47.4179,-122.631,9.2221298684336,-0.792207792,202252,WA,-0.32
Morrill,41.5825,-102.8225,9.2210801986664,-0.792079208,202252,NE,-0.32
McIntosh,31.3826,-81.4312,9.1691214309038,-0.785714286,202252,OK,-0.32
Lane,38.4742,-100.4647,9.1302485718173,-0.780952381,202252,OR,-0.32
Brazoria,28.9541,-95.3597,9.0345615365777,0.769230769,202252,TX,-0.32
Adams,31.4706,-91.4044,8.9976235265306,0.764705882,202252,CO,-0.32
Westchester,40.9002,-73.781,8.877575,-0.75,202252,CT,-0.32
Pierce,31.2931,-82.2617,8.877575,0.75,202252,NE,-0.32
Cabarrus,35.2477,-80.5319,8.8429847468696,-0.745762712,202252,NC,-0.32
Hughes,34.878,-96.271,8.7415199972789,-0.733333333,202252,SD,-0.32
Jackson,28.7671,-96.6492,8.6949330727547,-0.727626459,202252,KS,-0.32
Furnas,40.1063,-99.9715,8.632676,0.72,202252,NE,-0.32
Skagit,48.34,-122.3456,8.5860285690962,-0.714285714,202252,WA,-0.32
Dodge,31.938,-83.1837,8.4914729753999,0.702702703,202252,MN,-0.32
Coshocton,40.1804,-81.8951,8.4240583297052,-0.694444444,202252,OH,-0.32
Essex,37.7681,-76.7117,8.3467626787511,-0.684975767,202252,MA,-0.32
Champaign,39.9012,-88.0753,8.3049694235795,-0.679856115,202252,IL,-0.32
Forrest,31.0591,-89.0796,8.3014569351821,-0.679425837,202252,MS,-0.32
Contra Costa,37.7562,-121.9522,8.2971568842539,-0.678899083,202252,CA,-0.32
Blount,33.8168,-86.6008,8.2262478726878,-0.670212766,202252,TN,-0.32
Faribault,43.5201,-94.0984,8.1973000027211,-0.666666667,202252,MN,-0.32
Oscoda,44.6001,-84.2931,8.1973000027211,0.666666667,202252,MI,-0.32
Virginia Beach,36.6224,-76.0249,8.1872959520408,-0.665441176,202252,VA,-0.32
Augusta,37.9705,-79.2233,8.0789913039929,0.652173913,202252,VA,-0.32
Lyon,37.0619,-88.1498,8.0677238112083,0.650793651,202252,NV,-0.32
Middlesex,37.5512,-76.3844,8.0372352979592,-0.647058824,202252,MA,-0.32
Washington,30.1669,-96.3977,8.0372352979592,-0.647058824,202252,VT,-0.32
Forsyth,34.2037,-84.1031,7.9879846151753,-0.641025641,202252,GA,-0.32
Santa Clara,37.0095,-121.5705,7.9499272697588,-0.636363636,202252,CA,-0.32
Steuben,41.5328,-85.0811,7.8295837868726,0.621621622,202252,NY,-0.32
Decatur,30.7493,-84.4846,7.7920297905341,0.617021277,202252,IA,-0.32
Travis,30.1204,-97.7433,7.7085587419061,-0.606796117,202252,TX,-0.32
Butler,31.545,-86.7356,7.6838849064305,-0.603773585,202252,IA,-0.32
Kidder,46.8336,-99.6019,7.65308,-0.6,202252,ND,-0.32
Tompkins,42.3621,-76.592,7.65308,-0.6,202252,NY,-0.32
Clark,33.8309,-93.1263,7.65308,0.6,202252,IN,-0.32
Jackson,28.7671,-96.6492,7.65308,0.6,202252,OK,-0.32
Prince William,38.5223,-77.2936,7.6258690027211,-0.596666667,202252,VA,-0.32
Rock,42.5083,-89.0318,7.569353848247,0.58974359,202252,MN,-0.32
White Pine,38.8641,-115.0069,7.5404827622801,-0.586206897,202252,NV,-0.32
Lackawanna,41.3432,-75.5301,7.5306305,-0.585,202252,PA,-0.32
Rosebud,45.2862,-106.5095,7.5170249972789,0.583333333,202252,MT,-0.32
Washington,30.1669,-96.3977,7.5170249972789,0.583333333,202252,ID,-0.32
Salt Lake,40.4954,-111.9444,7.4812210491944,0.578947368,202252,UT,-0.32
Hamilton,30.3387,-82.7765,7.4511919338161,-0.575268817,202252,OH,-0.32
Jackson,28.7671,-96.6492,7.4240377694318,-0.571942446,202252,MO,-0.32
Douglas,33.6634,-84.8639,7.410605744999,-0.57029703,202252,KS,-0.32
El Dorado,38.55,-120.7304,7.408181,-0.57,202252,CA,-0.32
Mesa,38.6784,-108.9719,7.3691391279503,-0.565217391,202252,CO,-0.32
Bernalillo,34.9073,-106.6892,7.3626067491674,-0.564417178,202252,NM,-0.32
Centre,40.71,-77.996,7.3574543191064,-0.563786008,202252,PA,-0.32
Pinellas,27.6705,-82.7119,7.3210135601522,-0.559322034,202252,FL,-0.32
Arapahoe,39.5805,-104.9011,7.3159720611749,-0.558704453,202252,CO,-0.32
Dallas,32.1899,-87.0633,7.31247610346,-0.5582762,202252,TX,-0.32
Henry,31.3534,-85.3323,7.2902666702948,-0.555555556,202252,OH,-0.32
Adams,31.4706,-91.4044,7.2589896557354,-0.551724138,202252,IN,-0.32
Chase,38.1448,-96.5541,7.2369117659864,-0.549019608,202252,NE,-0.32
Carter,34.1364,-97.4273,7.2369117659864,0.549019608,202252,OK,-0.32
King,33.6206,-100.3229,7.2169036727891,-0.546568627,202252,WA,-0.32
Calhoun,28.4101,-96.7023,7.2078090871985,-0.545454545,202252,IA,-0.32
Lake,28.5494,-81.7729,7.2078090871985,-0.545454545,202252,OH,-0.32
Seneca,41.0182,-82.9899,7.1847976751147,0.542635659,202252,OH,-0.32
San Juan,36.142,-108.7064,7.1809855446275,0.542168675,202252,NM,-0.32
San Bernardino,33.6736,-116.2951,7.163282,-0.54,202252,CA,-0.32
Audubon,41.5524,-94.974,7.163282,0.54,202252,IA,-0.32
Wayne,31.5168,-82.0397,7.1354073182678,-0.536585366,202252,KY,-0.32
Multnomah,45.4446,-122.5372,7.1134720332065,-0.533898305,202252,OR,-0.32
Dundy,40.0642,-101.9371,7.1088599972789,-0.533333333,202252,NE,-0.32
Pittsburg,34.6695,-96.0258,7.091853125,-0.53125,202252,OK,-0.32
Williamson,30.4521,-97.7688,7.0905313479539,-0.531088083,202252,TX,-0.32
Berkeley,32.9185,-80.022,7.0515736803437,0.526315789,202252,SC,-0.32
Dawes,42.4439,-103.2985,7.0068187472789,-0.520833333,202252,NE,-0.32
Fayette,29.6882,-96.9106,7.0068187472789,-0.520833333,202252,KY,-0.32
Keokuk,41.1826,-92.3097,7.0068187472789,-0.520833333,202252,IA,-0.32
Bonneville,43.3861,-111.2527,6.9957753207527,0.519480519,202252,ID,-0.32
Hanover,37.6281,-77.3395,6.9533685690962,0.514285714,202252,VA,-0.32
Rutherford,35.2247,-81.8851,6.9316720932131,-0.511627907,202252,TN,-0.32
Collin,33.0139,-96.4377,6.9045168594365,-0.508301405,202252,TX,-0.32
Allegheny,40.2373,-79.9506,6.8946457480967,-0.507092199,202252,PA,-0.32
Ada,43.4599,-116.244,6.8553876710465,-0.502283105,202252,WA,-0.32
Cherokee,31.4885,-94.9399,6.8532748947203,-0.502024291,202252,OK,-0.32
Burt,41.7715,-96.3924,6.83675,-0.5,202252,NE,-0.32
Jefferson,28.883,-81.3087,6.83675,-0.5,202252,KY,-0.32
Marion,28.9782,-81.8932,6.83675,-0.5,202252,FL,-0.32
Rankin,32.0627,-89.9929,6.83675,-0.5,202252,MS,-0.32
St. Clair,33.5296,-86.3007,6.83675,-0.5,202252,IL,-0.32
Utah,39.953,-111.9008,6.83675,-0.5,202252,UT,-0.32
Garfield,36.1962,-97.8805,6.83675,0.5,202252,NE,-0.32
Marshall,33.9517,-96.712,6.83675,0.5,202252,WV,-0.32
Oxford,43.8262,-70.9243,6.83675,0.5,202252,ME,-0.32
Mahoning,40.8957,-80.9897,6.8020125544073,-0.495744681,202252,OH,-0.32
Hunterdon,40.3731,-74.9266,6.7937852622986,-0.494736842,202252,NJ,-0.32
Stanislaus,37.3097,-121.0805,6.7480184800355,-0.489130435,202252,CA,-0.32
Becker,46.7565,-95.5212,6.7130636376005,-0.484848485,202252,MN,-0.32
Titus,33.1568,-94.9683,6.6512204523191,-0.477272727,202252,TX,-0.32
Washington,30.1669,-96.3977,6.6423857127308,0.476190476,202252,NE,-0.32
Humboldt,40.0231,-124.0139,6.6298460839274,-0.474654378,202252,NV,-0.32
Hubbard,46.9319,-94.846,6.6099916648526,-0.472222222,202252,MN,-0.32
Blue Earth,43.8903,-94.1774,6.5966529387755,-0.470588235,202252,MN,-0.32
Seminole,28.6133,-81.2581,6.5762191458098,-0.468085106,202252,FL,-0.32
Marshall,33.9517,-96.712,6.5646400027211,-0.466666667,202252,KS,-0.32
Ventura,34.0324,-119.1343,6.5646400027211,0.466666667,202252,CA,-0.32
Worcester,38.0452,-75.4108,6.5442085362959,-0.464163823,202252,MA,-0.32
Merrick,40.9856,-98.2217,6.5227769268446,-0.461538462,202252,NE,-0.32
Nolan,32.082,-100.3111,6.5227769268446,0.461538462,202252,TX,-0.32
Jefferson,28.883,-81.3087,6.428585,0.45,202252,PA,-0.32
Walton,30.2835,-86.0305,6.4145103442646,-0.448275862,202252,FL,-0.32
Breckinridge,37.6194,-86.4491,6.4025319178463,0.446808511,202252,KY,-0.32
Mecklenburg,35.0552,-80.8195,6.3946940396375,-0.445848375,202252,NC,-0.32
Essex,37.7681,-76.7117,6.3832333297052,-0.444444444,202252,ME,-0.32
Montgomery,30.1199,-95.4247,6.3832333297052,-0.444444444,202252,TN,-0.32
Cobb,33.7838,-84.5952,6.3621395339345,-0.441860465,202252,GA,-0.32
Denton,33.0033,-96.882,6.3580379654825,-0.441358025,202252,TX,-0.32
Stevens,37.1682,-101.3346,6.346952,-0.44,202252,MN,-0.32
Adair,35.6826,-94.7611,6.346952,0.44,202252,KY,-0.32
Stanly,35.2106,-80.4407,6.32654375,-0.4375,202252,NC,-0.32
Martin,27.0595,-80.1364,6.32654375,0.4375,202252,FL,-0.32
Craighead,35.7456,-90.5507,6.2944328706722,-0.433566434,202252,AR,-0.32
Chesapeake,36.6434,-76.242,6.2536571463557,-0.428571429,202252,VA,-0.32
Suffolk,40.6443,-73.1613,6.2536571463557,-0.428571429,202252,MA,-0.32
Monroe,24.5552,-81.7816,6.2484040546424,-0.427927928,202252,PA,-0.32
Harris,29.5564,-95.144,6.2286253828283,-0.425505051,202252,TX,-0.32
Rutland,43.3583,-73.0129,6.1922789508056,-0.421052632,202252,VT,-0.32
New York,40.7038,-74.0098,6.1873965871985,-0.420454545,202252,NY,-0.32
Worcester,38.0452,-75.4108,6.143639625722,-0.41509434,202252,MD,-0.32
Roseau,48.5459,-96.0879,6.1164588244898,-0.411764706,202252,MN,-0.32
Sheridan,39.3322,-100.4758,6.1164588244898,-0.411764706,202252,NE,-0.32
Goshen,41.6423,-104.1974,6.1164588244898,0.411764706,202252,WY,-0.32
Jefferson,28.883,-81.3087,6.1164588244898,0.411764706,202252,KS,-0.32
Cook,31.0403,-83.3915,6.0910860064517,-0.408656549,202252,IL,-0.32
Wyandotte,39.0668,-94.6282,6.0848671065521,-0.407894737,202252,KS,-0.32
Pottawattamie,41.1916,-95.4314,6.0757644066413,-0.406779661,202252,IA,-0.32
Benton,34.6244,-89.1862,6.0645459426365,-0.405405405,202252,IA,-0.32
Prince George's,38.5825,-76.7149,6.0617531634203,-0.405063291,202252,MD,-0.32
Rogers,36.1503,-95.5205,6.0524329442177,-0.403921569,202252,OK,-0.32
Dixon,42.2733,-96.8776,6.02042,-0.4,202252,NE,-0.32
Gregg,32.3836,-94.8653,6.02042,-0.4,202252,TX,-0.32
Lucas,40.9355,-93.4796,6.02042,-0.4,202252,OH,-0.32
Plymouth,41.6618,-70.8164,6.02042,-0.4,202252,MA,-0.32
Wood,32.6439,-95.222,6.02042,-0.4,202252,WV,-0.32
Guthrie,41.5033,-94.3186,6.02042,0.4,202252,IA,-0.32
Winneshiek,43.1339,-91.9134,6.02042,0.4,202252,IA,-0.32
St. Croix,44.9408,-92.2848,5.9910026994668,-0.396396396,202252,WI,-0.32
Nottoway,37.0916,-77.9851,5.9864062472789,-0.395833333,202252,VA,-0.32
Philadelphia,39.8893,-75.1782,5.9774552622986,-0.394736842,202252,PA,-0.32
Oklahoma,34.506,-97.1131,5.9444287709162,-0.390691114,202252,OK,-0.32
Butler,31.545,-86.7356,5.9407780451966,0.390243902,202252,NE,-0.32
Jefferson,28.883,-81.3087,5.9297166675737,0.388888889,202252,IA,-0.32
Fulton,33.5242,-84.679,5.8843649972789,-0.383333333,202252,GA,-0.32
Baxter,36.0068,-92.3917,5.8784495680568,0.382608696,202252,AR,-0.32
Pima,31.4887,-111.5421,5.8515241393385,-0.379310345,202252,AZ,-0.32
Erie,41.3111,-82.6126,5.8480273326404,-0.378881988,202252,NY,-0.32
Steele,43.8826,-93.3195,5.8163375,-0.375,202252,MN,-0.32
Manitowoc,43.9217,-87.7673,5.8163375,0.375,202252,WI,-0.32
Boone,34.7399,-92.34,5.8103701766798,-0.374269006,202252,KY,-0.32
Champaign,39.9012,-88.0753,5.7871828536443,-0.371428571,202252,OH,-0.32
Chautauqua,37.0262,-96.1783,5.778544441421,-0.37037037,202252,KS,-0.32
Oktibbeha,33.357,-89.0473,5.7703729699577,-0.369369369,202252,MS,-0.32
Carroll,33.3343,-89.757,5.7666190274729,-0.368909513,202252,IA,-0.32
Beaufort,32.1145,-80.8686,5.7610805059751,-0.368231047,202252,SC,-0.32
Hillsborough,27.6784,-82.4787,5.759995709528,-0.36809816,202252,NH,-0.32
Bexar,29.1733,-98.4723,5.7502676273675,-0.366906475,202252,TX,-0.32
Buena Vista,37.7396,-79.3523,5.7115383770546,-0.362162162,202252,IA,-0.32
Tuolumne,37.8108,-120.2988,5.692990934963,-0.35989011,202252,CA,-0.32
Morgan,33.5368,-83.3435,5.686989440069,-0.35915493,202252,AL,-0.32
Waukesha,42.8809,-88.4674,5.6730455359097,-0.357446809,202252,WI,-0.32
Fauquier,38.4674,-77.7044,5.6705642845481,-0.357142857,202252,VA,-0.32
Gallatin,37.6952,-88.2491,5.6705642845481,-0.357142857,202252,MT,-0.32
Palm Beach,26.3446,-80.2109,5.6566442988578,-0.355437666,202252,FL,-0.32
Yellow Medicine,44.631,-95.4182,5.6027627882297,0.348837209,202252,MN,-0.32
Dauphin,40.2041,-76.7331,5.5808576910518,-0.346153846,202252,PA,-0.32
Labette,37.0418,-95.0796,5.5751490871985,0.345454545,202252,KS,-0.32
Pike,31.0217,-90.479,5.5733821409135,0.345238095,202252,KY,-0.32
Murray,34.402,-97.051,5.5676655451895,-0.344537815,202252,OK,-0.32
Allen,30.4607,-92.8693,5.5574268649406,0.343283582,202252,IN,-0.32
Montgomery,30.1199,-95.4247,5.5571480555924,-0.343249428,202252,OH,-0.32
Warren,32.3258,-90.8507,5.5570647817691,-0.343239227,202252,IA,-0.32
Muskogee,35.3631,-95.2607,5.5406810386691,-0.341232227,202252,OK,-0.32
Itasca,47.0739,-93.1964,5.5340957453756,-0.340425532,202252,MN,-0.32
Garvin,34.4719,-97.3879,5.4904465966022,-0.335078534,202252,OK,-0.32
Elkhart,41.4493,-85.9945,5.4761999972789,-0.333333333,202252,IN,-0.32
Elmore,32.4995,-86.3641,5.4761999972789,-0.333333333,202252,ID,-0.32
Mercer,37.2698,-81.2223,5.4761999972789,-0.333333333,202252,OH,-0.32
DeKalb,33.6823,-84.161,5.4761999972789,0.333333333,202252,GA,-0.32
Sedgwick,37.5054,-97.3408,5.4681111139217,-0.332342449,202252,KS,-0.32
Montgomery,30.1199,-95.4247,5.4670225950098,-0.332209106,202252,MD,-0.32
Broward,25.9812,-80.1484,5.4534292882589,-0.330543933,202252,FL,-0.32
Johnson,32.2532,-97.3678,5.4427712511257,-0.329238329,202252,IA,-0.32
Chesterfield,34.4606,-80.2544,5.4417556957892,-0.329113924,202252,VA,-0.32
Douglas,33.6634,-84.8639,5.4206673449396,-0.326530612,202252,CO,-0.32
Santa Rosa,30.3571,-87.1639,5.4129186018035,-0.325581395,202252,FL,-0.32
Milwaukee,42.8892,-87.9027,5.4075287095088,-0.324921136,202252,WI,-0.32
Chester,34.5705,-80.9133,5.4006138882842,-0.324074074,202252,PA,-0.32
Otter Tail,46.153,-95.3289,5.3995492960046,-0.323943662,202252,MN,-0.32
Tazewell,36.9763,-81.628,5.3911656277211,-0.322916667,202252,IL,-0.32
Orange,28.3774,-81.1888,5.3907843036515,-0.322869955,202252,FL,-0.32
Grundy,35.2402,-85.8228,5.3735169812861,-0.320754717,202252,MO,-0.32
Dallas,32.1899,-87.0633,5.36990703125,-0.3203125,202252,IA,-0.32
St. Louis,38.4566,-90.3282,5.3694901968254,-0.320261438,202252,MO,-0.32
Fond du Lac,43.6042,-88.2729,5.367356,0.32,202252,WI,-0.32
Hillsborough,27.6784,-82.4787,5.3636733067976,-0.319548872,202252,FL,-0.32
Allamakee,43.0036,-91.5478,5.3589112049261,-0.318965517,202252,IA,-0.32
Rapides,31.0066,-92.5526,5.3552622261527,-0.318518519,202252,LA,-0.32
Pottawatomie,34.9849,-96.8763,5.3448365491907,-0.317241379,202252,OK,-0.32
James City,37.2235,-76.7833,5.3373683705123,-0.316326531,202252,VA,-0.32
Hopkins,33.0107,-95.4734,5.3291135109395,0.315315315,202252,KY,-0.32
Wicomico,38.2672,-75.9021,5.3085492929297,-0.312796209,202252,MD,-0.32
Queens,40.5594,-73.9067,5.2999344155003,-0.311740891,202252,NY,-0.32
Miami,38.4102,-94.8718,5.2995051973496,-0.311688312,202252,KS,-0.32
Kalamazoo,42.1209,-85.5024,5.2958389042169,-0.311239193,202252,MI,-0.32
Wagoner,35.8507,-95.3183,5.2908389645999,-0.310626703,202252,OK,-0.32
Denver,39.6431,-104.8987,5.2863558108527,-0.310077519,202252,CO,-0.32
Polk,26.4722,-81.8122,5.2749610930376,-0.308681672,202252,FL,-0.32
Tom Green,31.2346,-100.5203,5.2740611463557,-0.308571429,202252,TX,-0.32
Kossuth,42.9868,-94.0959,5.2718486145035,-0.308300395,202252,IA,-0.32
Grundy,35.2402,-85.8228,5.2708339652933,-0.308176101,202252,IA,-0.32
Butler,31.545,-86.7356,5.2668846178964,-0.307692308,202252,OH,-0.32
Adair,35.6826,-94.7611,5.2540693879217,0.306122449,202252,IA,-0.32
New Castle,39.3819,-75.6834,5.2487125406654,-0.305466238,202252,DE,-0.32
Cameron,25.9017,-97.4975,5.2395826079858,-0.304347826,202252,TX,-0.32
Medina,29.1404,-99.1428,5.2395826079858,-0.304347826,202252,OH,-0.32
Kings,35.9877,-120.1227,5.2230744153773,-0.302325581,202252,NY,-0.32
Platte,39.1776,-94.6321,5.21622229646,-0.3014862,202252,MO,-0.32
Ray,39.2048,-94.0259,5.20409,-0.3,202252,MO,-0.32
Kit Carson,39.3087,-102.5979,5.20409,0.3,202252,CO,-0.32
Williams,41.4425,-84.7349,5.201593581227,-0.29969419,202252,OH,-0.32
Sarasota,26.92,-82.3048,5.1938216951354,-0.298742138,202252,FL,-0.32
Sunflower,33.349,-90.6051,5.1669840871985,0.295454545,202252,MS,-0.32
Allen,30.4607,-92.8693,5.1443585379791,-0.292682927,202252,OH,-0.32
York,34.8507,-80.9342,5.1133866675737,0.288888889,202252,ME,-0.32
Franklin,29.7255,-85.0063,5.10204875,0.2875,202252,TN,-0.32
Baker,30.2041,-82.4287,5.0874714309038,0.285714286,202252,FL,-0.32
Loudoun,38.8976,-77.5092,5.07833681249,-0.2845953,202252,VA,-0.32
Payette,43.959,-116.8048,5.0706514410518,-0.283653846,202252,ID,-0.32
Kingfisher,35.7502,-97.93,5.0654679251444,-0.283018868,202252,OK,-0.32
Madison,30.3979,-83.2844,5.0546211280253,-0.281690141,202252,MS,-0.32
Washington,30.1669,-96.3977,5.0448060985565,0.280487805,202252,OK,-0.32
Baltimore,39.207,-76.4456,5.0418876208469,-0.280130293,202252,MD,-0.32
Tuscaloosa,33.0618,-87.4422,5.0365462920239,-0.279475983,202252,AL,-0.32
Allegany,39.4774,-79.0594,5.0332302289511,-0.279069767,202252,MD,-0.32
Falls Church,38.8842,-77.1718,5.0332302289511,-0.279069767,202252,VA,-0.32
Citrus,28.7304,-82.3077,5.0307101774246,-0.278761062,202252,FL,-0.32
Barnes,46.6536,-98.1943,5.0188722658892,-0.277310924,202252,ND,-0.32
Valdez-Cordova,60.5362,-145.7534,5.0070448278677,0.275862069,202252,AK,-0.32
Caldwell,29.6826,-97.6499,4.9960058829932,0.274509804,202252,KY,-0.32
Christian,36.6543,-87.4606,4.9814545476809,-0.272727273,202252,KY,-0.32
Clark,33.8309,-93.1263,4.9814545476809,0.272727273,202252,KY,-0.32
Franklin,29.7255,-85.0063,4.9814545476809,0.272727273,202252,MO,-0.32
Codington,44.8858,-97.4442,4.973388039929,-0.27173913,202252,SD,-0.32
Sac,42.2653,-95.0852,4.9659937472789,-0.270833333,202252,IA,-0.32
Jefferson,28.883,-81.3087,4.961397295091,-0.27027027,202252,AL,-0.32
Portsmouth,36.8035,-76.327,4.9529115365777,-0.269230769,202252,VA,-0.32
Big Horn,44.2507,-107.6053,4.9452536591339,-0.268292683,202252,WY,-0.32
Henry,31.3534,-85.3323,4.9319800027211,-0.266666667,202252,MO,-0.32
Thurston,42.0574,-96.4929,4.9319800027211,-0.266666667,202252,NE,-0.32
Mills,31.4458,-98.5744,4.9319800027211,0.266666667,202252,TX,-0.32
Lyon,37.0619,-88.1498,4.9303505998778,-0.266467066,202252,MN,-0.32
Oakland,42.4567,-83.659,4.9080582439112,0.263736264,202252,MI,-0.32
Hughes,34.878,-96.271,4.9033368442535,-0.263157895,202252,OK,-0.32
Jasper,30.3129,-94.0731,4.8989969727479,0.262626263,202252,MO,-0.32
Talladega,33.1717,-86.2713,4.8931071436346,0.261904762,202252,AL,-0.32
Garfield,36.1962,-97.8805,4.8870958772705,0.261168385,202252,OK,-0.32
Henry,31.3534,-85.3323,4.882157039954,-0.26056338,202252,IN,-0.32
Walworth,42.5136,-88.4843,4.8797945237909,-0.260273973,202252,WI,-0.32
Howard,32.1105,-101.3669,4.8738190861505,-0.259541985,202252,IA,-0.32
Halifax,36.0594,-77.4061,4.8715111089947,-0.259259259,202252,VA,-0.32
Clarke,31.4258,-87.6822,4.8518380131395,-0.256849315,202252,IA,-0.32
Nelson,37.5473,-78.8508,4.8433860425249,-0.255813953,202252,KY,-0.32
Sussex,36.8191,-77.4832,4.8364711886471,-0.254966887,202252,DE,-0.32
Volusia,28.7676,-81.3522,4.8243487452902,-0.253481894,202252,FL,-0.32
Tarrant,32.5773,-97.1416,4.8228962574845,-0.253303965,202252,TX,-0.32
Lee,26.3398,-81.7787,4.8061803986873,-0.251256281,202252,IA,-0.32
Cherokee,31.4885,-94.9399,4.795925,0.25,202252,TX,-0.32
Lebanon,40.2236,-76.538,4.795925,0.25,202252,PA,-0.32
McLennan,31.2533,-97.41,4.795925,0.25,202252,TX,-0.32
Canadian,35.3885,-97.7309,4.7726456275937,-0.247148289,202252,OK,-0.32
Washington,30.1669,-96.3977,4.7577073028816,0.245318352,202252,MN,-0.32
Gwinnett,33.8178,-84.0229,4.7505733297052,-0.244444444,202252,GA,-0.32
Nemaha,39.6428,-95.8231,4.7505733297052,-0.244444444,202252,NE,-0.32
Pottawatomie,34.9849,-96.8763,4.7505733297052,0.244444444,202252,KS,-0.32
Kenosha,42.5001,-88.08,4.7426860880213,-0.243478261,202252,WI,-0.32
Barton,37.3995,-94.1027,4.735545559715,-0.24260355,202252,KS,-0.32
Polk,26.4722,-81.8122,4.7328066990953,-0.242268041,202252,MN,-0.32
Miami-Dade,25.2846,-80.6246,4.7300919365372,-0.241935484,202252,FL,-0.32
Bartow,34.12,-84.757,4.725551721323,-0.24137931,202252,GA,-0.32
Essex,37.7681,-76.7117,4.714292,0.24,202252,NH,-0.32
Wood,32.6439,-95.222,4.6966416229454,-0.237837838,202252,WI,-0.32
Tate,34.6323,-89.8855,4.6885131557465,-0.236842105,202252,MS,-0.32
Maricopa,32.9306,-112.7468,4.6838663931407,-0.236272879,202252,AZ,-0.32
Cumberland,34.9536,-78.9354,4.6825458324263,0.236111111,202252,PA,-0.32
Wood,32.6439,-95.222,4.6717008720497,-0.234782609,202252,TX,-0.32
Murray,34.402,-97.051,4.6709765342774,-0.234693878,202252,GA,-0.32
Sangamon,39.5394,-89.7621,4.6692531065447,-0.234482759,202252,IL,-0.32
Guilford,35.9345,-79.7019,4.6614994001222,-0.233532934,202252,NC,-0.32
Humboldt,40.0231,-124.0139,4.6598699972789,0.233333333,202252,IA,-0.32
Lincoln,31.3795,-90.2867,4.6590766796216,-0.233236152,202252,NE,-0.32
Matanuska-Susitna Borough,61.5214,-149.9544,4.6561424630696,0.232876712,202252,AK,-0.32
Winchester,39.1676,-78.1686,4.653541864262,-0.23255814,202252,VA,-0.32
Jackson,28.7671,-96.6492,4.653541864262,0.23255814,202252,FL,-0.32
Marion,28.9782,-81.8932,4.6447527738473,-0.231481481,202252,IN,-0.32
Shelby,31.7131,-93.9698,4.6389384634223,-0.230769231,202252,OH,-0.32
Alachua,29.4536,-82.1065,4.6357589886851,-0.230379747,202252,FL,-0.32
Polk,26.4722,-81.8122,4.633954760609,-0.23015873,202252,IA,-0.32
Geary,39.0299,-96.8396,4.632659,0.23,202252,KS,-0.32
Leon,30.3193,-84.2674,4.6103954523191,-0.227272727,202252,FL,-0.32
Clay,29.7683,-81.9907,4.6103954523191,0.227272727,202252,KS,-0.32
Montgomery,30.1199,-95.4247,4.6103954523191,0.227272727,202252,KS,-0.32
St. Lucie,27.2606,-80.4771,4.6007156560781,-0.226086957,202252,FL,-0.32
Dakota,42.2852,-96.7159,4.5862511946044,-0.224315068,202252,NE,-0.32
Ada,43.4599,-116.244,4.5691666648526,-0.222222222,202252,ID,-0.32
Anderson,31.648,-95.5551,4.5691666648526,0.222222222,202252,KY,-0.32
Chester,34.5705,-80.9133,4.5691666648526,0.222222222,202252,SC,-0.32
Hamilton,30.3387,-82.7765,4.5637353274838,0.221556886,202252,IN,-0.32
Carver,44.7169,-93.6879,4.5634259465771,-0.221518987,202252,MN,-0.32
Livingston,30.2716,-90.7043,4.5558279387755,0.220588235,202252,NY,-0.32
Wayne,31.5168,-82.0397,4.5537932199239,-0.220338983,202252,MI,-0.32
Strafford,43.1174,-70.9197,4.548552275201,-0.21969697,202252,NH,-0.32
Davis,40.6941,-92.258,4.5470439014435,0.219512195,202252,IA,-0.32
Lincoln,31.3795,-90.2867,4.5452973715718,-0.219298246,202252,OK,-0.32
Boyle,37.5778,-84.9281,4.5391324474118,0.218543046,202252,KY,-0.32
Butler,31.545,-86.7356,4.5297304319432,-0.217391304,202252,PA,-0.32
Ouachita,33.4169,-92.777,4.5297304319432,-0.217391304,202252,AR,-0.32
Pierce,31.2931,-82.2617,4.5297304319432,0.217391304,202252,WI,-0.32
Richmond,33.2941,-82.203,4.5297304319432,0.217391304,202252,NC,-0.32
Howard,32.1105,-101.3669,4.525454217851,-0.21686747,202252,NE,-0.32
Chittenden,44.3113,-73.228,4.5210383705123,-0.216326531,202252,VT,-0.32
Winnebago,42.2166,-89.0512,4.5201378360728,-0.216216216,202252,IA,-0.32
Cherokee,31.4885,-94.9399,4.5161344721198,-0.215725806,202252,IA,-0.32
Franklin,29.7255,-85.0063,4.5158117687075,-0.215686275,202252,MA,-0.32
Logan,35.1304,-93.7116,4.5133492276295,0.215384615,202252,KY,-0.32
Pine,45.7575,-92.9624,4.5117594902609,-0.215189873,202252,MN,-0.32
Carlton,46.4472,-92.7466,4.5043785690962,-0.214285714,202252,MN,-0.32
Tuscarawas,40.2739,-81.594,4.5028561381361,-0.214099217,202252,OH,-0.32
Rockland,41.0103,-73.925,4.4940278067383,-0.213017751,202252,NY,-0.32
Albany,41.0528,-105.4462,4.4919723367781,-0.212765957,202252,NY,-0.32
Cowley,37.0676,-97.0357,4.4919723367781,-0.212765957,202252,KS,-0.32
Van Zandt,32.4126,-95.6371,4.4867090899196,0.212121212,202252,TX,-0.32
Ottawa,36.6296,-94.9432,4.4837988244898,0.211764706,202252,OK,-0.32
Crow Wing,46.2099,-94.2527,4.4778743503313,-0.211038961,202252,MN,-0.32
Kleberg,27.3217,-97.7787,4.4736894754028,0.210526316,202252,TX,-0.32
Providence,41.7312,-71.5468,4.4736894754028,0.210526316,202252,RI,-0.32
Putnam,25.7964,-80.3849,4.471486151753,-0.21025641,202252,OH,-0.32
Winston,32.9789,-89.1221,4.4667596745227,0.209677419,202252,AL,-0.32
Summit,39.4753,-106.0225,4.4517858802721,-0.207843137,202252,OH,-0.32
Worth,31.513,-83.7385,4.4440586229416,-0.206896552,202252,IA,-0.32
Douglas,33.6634,-84.8639,4.4390094178091,0.206278027,202252,OR,-0.32
Sarpy,41.0765,-96.1438,4.436208614069,-0.20593493,202252,NE,-0.32
Scotts Bluff,41.7469,-103.4164,4.4323681977473,-0.205464481,202252,NE,-0.32
Cedar,37.6613,-94.0129,4.4296230758765,0.205128205,202252,NE,-0.32
Linn,38.0718,-94.7008,4.4288701420643,-0.205035971,202252,IA,-0.32
Sequoyah,35.3898,-94.4462,4.4240413297052,0.204444444,202252,OK,-0.32
Highland,38.2946,-79.4353,4.4210795946689,-0.204081633,202252,OH,-0.32
Lawrence,31.4036,-90.1864,4.4179944468632,0.203703704,202252,SD,-0.32
Trempealeau,44.0218,-91.4282,4.4098229753999,-0.202702703,202252,WI,-0.32
Crawford,32.7222,-84.0451,4.4084265857918,-0.202531646,202252,IA,-0.32
Payne,35.9768,-97.0441,4.4056032758336,-0.202185792,202252,OK,-0.32
Edgar,39.5525,-87.9352,4.38776,-0.2,202252,IL,-0.32
Greene,31.0867,-88.7977,4.38776,0.2,202252,OH,-0.32
Mercer,37.2698,-81.2223,4.38776,0.2,202252,NJ,-0.32
Mobile,30.2521,-88.1096,4.38776,0.2,202252,AL,-0.32
Scott,32.2745,-89.5627,4.3742669385731,-0.198347107,202252,IA,-0.32
Columbiana,40.6171,-80.6621,4.3707531277211,-0.197916667,202252,OH,-0.32
Marquette,43.6759,-89.5803,4.3647647920667,-0.197183099,202252,MI,-0.32
McPherson,38.206,-97.5088,4.3644362845481,-0.197142857,202252,KS,-0.32
Harrison,30.3598,-89.1646,4.3586053536443,-0.196428571,202252,MO,-0.32
Hancock,30.2391,-89.4595,4.3557470557823,-0.196078431,202252,OH,-0.32
Meade,37.2701,-100.5732,4.3540969099937,0.195876289,202252,KY,-0.32
Suffolk,40.6443,-73.1613,4.3522673920142,-0.195652174,202252,NY,-0.32
Cambria,40.2799,-78.8032,4.3449561772682,-0.194756554,202252,PA,-0.32
Pulaski,32.2778,-83.4948,4.3424083297052,-0.194444444,202252,KY,-0.32
Rhea,35.4484,-85.179,4.3390238826683,0.194029851,202252,TN,-0.32
Delaware,36.1662,-94.8547,4.3350935475971,-0.193548387,202252,IA,-0.32
Scioto,38.5848,-82.8321,4.3350935475971,0.193548387,202252,OH,-0.32
McKinley,35.0684,-108.8336,4.3304736830648,0.192982456,202252,NM,-0.32
Whatcom,48.6752,-122.1914,4.3272911144369,-0.192592593,202252,WA,-0.32
Monmouth,40.1077,-74.0635,4.317031046342,-0.19133574,202252,NJ,-0.32
Mitchell,31.1272,-84.1564,4.310014281827,-0.19047619,202252,KS,-0.32
Saline,34.4508,-92.6547,4.310014281827,-0.19047619,202252,NE,-0.32
Passaic,40.8344,-74.1377,4.2953452807085,-0.188679245,202252,NJ,-0.32
Escambia,30.3511,-87.2749,4.28571875,-0.1875,202252,FL,-0.32
Kent,33.2518,-100.5825,4.28571875,-0.1875,202252,RI,-0.32
Wyoming,37.4909,-81.3226,4.28571875,-0.1875,202252,PA,-0.32
Osage,36.1576,-96.0311,4.28571875,0.1875,202252,KS,-0.32
Lake,28.5494,-81.7729,4.2789160027211,-0.186666667,202252,IN,-0.32
Kimball,41.2139,-103.9075,4.2770711867174,-0.186440678,202252,NE,-0.32
Wayne,31.5168,-82.0397,4.2711414309038,0.185714286,202252,OH,-0.32
Riley,39.1153,-96.7101,4.264978661855,0.18495935,202252,KS,-0.32
El Paso,31.4407,-106.0765,4.2600659226086,-0.184357542,202252,TX,-0.32
Mille Lacs,45.5851,-93.5961,4.2588657868958,-0.184210526,202252,MN,-0.32
Cecil,39.3662,-75.8845,4.2544816294877,0.183673469,202252,MD,-0.32
Tulsa,35.9183,-95.7988,4.2406380359588,-0.181977636,202252,OK,-0.32
Los Alamos,35.8275,-106.2039,4.2393363651206,-0.181818182,202252,NM,-0.32
Charles Mix,42.9925,-98.4251,4.2393363651206,0.181818182,202252,SD,-0.32
Crawford,32.7222,-84.0451,4.2393363651206,0.181818182,202252,KS,-0.32
Greenville,34.6578,-82.2441,4.2360526532057,-0.181415929,202252,SC,-0.32
Ramsey,44.914,-93.1727,4.233768488396,-0.18113612,202252,MN,-0.32
White,34.5839,-83.75,4.230950843768,-0.18079096,202252,AR,-0.32
St. Louis,38.4566,-90.3282,4.2297606427913,-0.180645161,202252,MN,-0.32
Noble,36.2753,-97.4526,4.224494,-0.18,202252,IN,-0.32
Bell,30.7991,-97.4263,4.2203076883307,0.179487179,202252,KY,-0.32
Kenai Peninsula,59.4495,-151.7009,4.2203076883307,0.179487179,202252,AK,-0.32
Clark,33.8309,-93.1263,4.2063533351474,-0.177777778,202252,NV,-0.32
Cherry,42.2403,-100.2595,4.1956823510204,-0.176470588,202252,NE,-0.32
Norfolk,36.8294,-76.2701,4.1926622647157,-0.176100629,202252,MA,-0.32
Kane,37.0475,-112.5263,4.1748043439219,-0.173913043,202252,IL,-0.32
Washington,30.1669,-96.3977,4.1748043439219,-0.173913043,202252,WI,-0.32
Sioux,42.6872,-103.8827,4.1722582514684,-0.173601148,202252,IA,-0.32
Nicollet,44.2172,-94.0942,4.1700719972789,-0.173333333,202252,MN,-0.32
Dunn,44.7152,-91.9822,4.1679788455259,-0.173076923,202252,WI,-0.32
Kay,36.6806,-97.3063,4.1671302704909,0.172972973,202252,OK,-0.32
Barron,45.2462,-91.9742,4.1595387116963,-0.172043011,202252,WI,-0.32
Blair,40.2711,-78.4588,4.1524216202243,0.171171171,202252,PA,-0.32
Calvert,38.3293,-76.4651,4.1423274548753,-0.169934641,202252,MD,-0.32
Orange,28.3774,-81.1888,4.1413207567193,-0.169811321,202252,IN,-0.32
Story,41.8765,-93.6812,4.1413207567193,-0.169811321,202252,IA,-0.32
Fayette,29.6882,-96.9106,4.1370759876587,-0.169291339,202252,IA,-0.32
Ohio,37.3418,-86.77,4.1348126800805,-0.169014085,202252,KY,-0.32
Spokane,47.2999,-117.1395,4.1299715819549,-0.168421053,202252,WA,-0.32
Dane,42.8669,-89.5377,4.1156500027211,-0.166666667,202252,WI,-0.32
Jessamine,37.8602,-84.6714,4.1156500027211,-0.166666667,202252,KY,-0.32
Ottawa,36.6296,-94.9432,4.1156500027211,-0.166666667,202252,KS,-0.32
Plumas,39.5645,-121.5751,4.1156500027211,-0.166666667,202252,CA,-0.32
Cache,41.56,-111.8297,4.1156500027211,0.166666667,202252,UT,-0.32
Cherokee,31.4885,-94.9399,4.1156500027211,0.166666667,202252,KS,-0.32
Granville,35.6555,-78.4611,4.1156500027211,0.166666667,202252,NC,-0.32
Douglas,33.6634,-84.8639,4.1095488829139,-0.165919283,202252,MN,-0.32
Fredericksburg,38.2995,-77.4772,4.1049370102523,-0.165354331,202252,VA,-0.32
Fairfield,34.2717,-81.2712,4.1010204303416,-0.164874552,202252,OH,-0.32
Broomfield,39.9619,-105.0148,4.0940539680812,-0.164021164,202252,CO,-0.32
Graves,36.5603,-88.5692,4.0840093049834,-0.162790698,202252,KY,-0.32
Morrison,45.5572,-94.2242,4.0744212152546,-0.161616162,202252,MN,-0.32
McHenry,42.1641,-88.3064,4.0489060374278,-0.158490566,202252,IL,-0.32
Saline,34.4508,-92.6547,4.0471330911173,-0.158273381,202252,IL,-0.32
Lamoille,44.442,-72.7188,4.0440421065521,-0.157894737,202252,VT,-0.32
Seward,37.0216,-100.938,4.0440421065521,-0.157894737,202252,KS,-0.32
Butler,31.545,-86.7356,4.0322336155499,-0.156448203,202252,KS,-0.32
McLean,37.4177,-87.2736,4.0273025986748,0.155844156,202252,KY,-0.32
Dutchess,41.5097,-73.9634,4.0109923089482,-0.153846154,202252,NY,-0.32
Howard,32.1105,-101.3669,4.0109923089482,-0.153846154,202252,MD,-0.32
Santa Fe,35.0776,-106.1872,4.0109923089482,-0.153846154,202252,NM,-0.32
Shasta,40.3691,-122.3375,4.0109923089482,-0.153846154,202252,CA,-0.32
Washington,30.1669,-96.3977,4.0109923089482,-0.153846154,202252,MS,-0.32
Fayette,29.6882,-96.9106,4.0109923089482,0.153846154,202252,PA,-0.32
Mercer,37.2698,-81.2223,4.0064087629376,-0.153284672,202252,KY,-0.32
McLean,37.4177,-87.2736,4.0003491535109,-0.152542373,202252,IL,-0.32
Humboldt,40.0231,-124.0139,4.0003491535109,0.152542373,202252,CA,-0.32
Yellowstone,45.6745,-108.769,3.9990314254616,-0.152380952,202252,MT,-0.32
New Hanover,33.9927,-77.9099,3.9973413039929,-0.152173913,202252,NC,-0.32
Ford,37.553,-99.6325,3.9947988523712,0.151862464,202252,KS,-0.32
Delaware,36.1662,-94.8547,3.9919636403216,-0.151515152,202252,NY,-0.32
Greene,31.0867,-88.7977,3.9868736595056,-0.150891632,202252,MO,-0.32
Minnehaha,43.4775,-96.7041,3.9792195045266,-0.149954002,202252,SD,-0.32
Potter,35.1751,-101.7976,3.970910636561,-0.14893617,202252,PA,-0.32
Adams,31.4706,-91.4044,3.970910636561,0.14893617,202252,OH,-0.32
Lee,26.3398,-81.7787,3.9644777765684,-0.148148148,202252,IL,-0.32
Fulton,33.5242,-84.679,3.9644777765684,0.148148148,202252,OH,-0.32
Union,29.9315,-82.4255,3.9497292649079,-0.146341463,202252,IA,-0.32
Warren,32.3258,-90.8507,3.9497292649079,0.146341463,202252,KY,-0.32
Anne Arundel,38.7361,-76.5835,3.9278557760276,-0.143661972,202252,MD,-0.32
Grant,31.5,-92.4005,3.9212857154519,-0.142857143,202252,IN,-0.32
Hays,29.8754,-97.9404,3.9212857154519,-0.142857143,202252,TX,-0.32
La Crosse,43.7989,-91.2175,3.9212857154519,-0.142857143,202252,WI,-0.32
Pitt,35.3757,-77.4193,3.9212857154519,0.142857143,202252,NC,-0.32
Lincoln,31.3795,-90.2867,3.9115675027211,-0.141666667,202252,WI,-0.32
Union,29.9315,-82.4255,3.9115675027211,-0.141666667,202252,NC,-0.32
McLeod,44.7259,-94.4516,3.8990019146237,-0.140127389,202252,MN,-0.32
Harrison,30.3598,-89.1646,3.897962,-0.14,202252,OH,-0.32
Kearney,40.3735,-99.1539,3.8962064496818,-0.139784946,202252,NE,-0.32
Cuyahoga,41.3132,-81.8285,3.8926090139846,-0.139344262,202252,OH,-0.32
Atlantic,39.3194,-74.5356,3.8888916675737,-0.138888889,202252,NJ,-0.32
Stafford,37.9433,-98.9481,3.8854030731554,-0.138461538,202252,VA,-0.32
Bucks,40.0933,-74.8991,3.8836668208784,-0.138248848,202252,PA,-0.32
Stark,40.6514,-81.3076,3.8779635558233,-0.137550201,202252,OH,-0.32
Union,29.9315,-82.4255,3.8755529414966,-0.137254902,202252,MS,-0.32
Columbia,29.9207,-82.6879,3.8682772697588,-0.136363636,202252,NY,-0.32
Rock Island,41.3277,-90.6384,3.861988132826,-0.13559322,202252,IL,-0.32
Shelby,31.7131,-93.9698,3.861988132826,-0.13559322,202252,IA,-0.32
Hennepin,44.8261,-93.3538,3.861029108342,-0.13547574,202252,MN,-0.32
Kent,33.2518,-100.5825,3.8605468777211,-0.135416667,202252,DE,-0.32
Kosciusko,41.0743,-85.8792,3.8582486475455,0.135135135,202252,IN,-0.32
Saline,34.4508,-92.6547,3.8571455,-0.135,202252,AR,-0.32
Black Hawk,42.3416,-92.1862,3.8559302948354,-0.134851138,202252,IA,-0.32
Hocking,39.4174,-82.5923,3.8526865586006,-0.134453782,202252,OH,-0.32
Lucas,40.9355,-93.4796,3.8516626848614,-0.134328358,202252,IA,-0.32
Sheboygan,43.5672,-87.9816,3.8495487411833,-0.134069401,202252,WI,-0.32
Gibson,35.8081,-88.7627,3.8435399972789,0.133333333,202252,TN,-0.32
Cass,32.8485,-94.5795,3.8403942206441,-0.132947977,202252,IA,-0.32
Davison,43.5478,-97.9881,3.8324898441935,-0.131979695,202252,SD,-0.32
Delaware,36.1662,-94.8547,3.8308837230818,-0.131782946,202252,OH,-0.32
Hancock,30.2391,-89.4595,3.8292184180451,-0.131578947,202252,IL,-0.32
Taylor,29.6739,-83.3723,3.8292184180451,-0.131578947,202252,TX,-0.32
Clay,29.7683,-81.9907,3.8276503624013,-0.131386861,202252,NE,-0.32
Montgomery,30.1199,-95.4247,3.8270484822923,-0.131313131,202252,AL,-0.32
Union,29.9315,-82.4255,3.8235947614916,-0.130890052,202252,SD,-0.32
Mills,31.4458,-98.5744,3.8235947614916,0.130890052,202252,IA,-0.32
Ness,38.4388,-99.9029,3.8198782640639,-0.130434783,202252,KS,-0.32
Antelope,41.9732,-98.0751,3.8198782640639,0.130434783,202252,NE,-0.32
Beaver,36.5996,-100.7103,3.8144595389936,-0.129770992,202252,PA,-0.32
Ellis,32.1482,-96.9612,3.8084290317314,-0.129032258,202252,KS,-0.32
Burlington,39.5923,-74.451,3.8084290317314,0.129032258,202252,NJ,-0.32
Ida,42.3327,-95.6045,3.8035972479311,-0.128440367,202252,IA,-0.32
Jasper,30.3129,-94.0731,3.7992430253441,-0.127906977,202252,IA,-0.32
Fayette,29.6882,-96.9106,3.7972234004342,-0.127659574,202252,TN,-0.32
Harlan,36.7521,-83.4629,3.7972234004342,0.127659574,202252,NE,-0.32
Jefferson,28.883,-81.3087,3.7947655695803,-0.127358491,202252,CO,-0.32
Duval,27.3849,-98.309,3.7924254126959,-0.127071823,202252,FL,-0.32
Etowah,33.8979,-86.0245,3.7907425402376,0.126865672,202252,AL,-0.32
Lawrence,31.4036,-90.1864,3.7898845039379,0.126760563,202252,PA,-0.32
St. Mary's,38.0828,-76.3477,3.7876892619551,-0.126491647,202252,MD,-0.32
Santa Barbara,34.2628,-119.8486,3.7819301925812,-0.125786164,202252,CA,-0.32
Benton,34.6244,-89.1862,3.7755125,-0.125,202252,MN,-0.32
Hardin,30.1491,-94.3733,3.7755125,-0.125,202252,IA,-0.32
Franklin,29.7255,-85.0063,3.7723727723705,-0.124615385,202252,OH,-0.32
Jefferson,28.883,-81.3087,3.7699967541092,-0.124324324,202252,TX,-0.32
Laramie,41.0428,-104.2765,3.7640471941298,-0.123595506,202252,WY,-0.32
Monona,41.9186,-95.829,3.7640471941298,-0.123595506,202252,IA,-0.32
Cleveland,33.7588,-92.1939,3.757907037422,-0.12284334,202252,OK,-0.32
Koochiching,47.844,-94.2043,3.7576105300394,0.122807018,202252,MN,-0.32
Lake,28.5494,-81.7729,3.754687758434,-0.12244898,202252,SD,-0.32
Pontotoc,34.1617,-89.1795,3.754687758434,-0.12244898,202252,OK,-0.32
Hamilton,30.3387,-82.7765,3.750624394226,-0.12195122,202252,TN,-0.32
Shelby,31.7131,-93.9698,3.750624394226,-0.12195122,202252,IN,-0.32
Hancock,30.2391,-89.4595,3.7485174628226,-0.121693122,202252,IA,-0.32
Daviess,37.6206,-87.0591,3.7457917451159,0.121359223,202252,KY,-0.32
Wright,37.0687,-92.4082,3.7445909073593,-0.121212121,202252,MN,-0.32
Harrison,30.3598,-89.1646,3.7386301228424,0.120481928,202252,IA,-0.32
Plymouth,41.6618,-70.8164,3.7294293572087,-0.119354839,202252,IA,-0.32
Columbia,29.9207,-82.6879,3.7154882367347,-0.117647059,202252,PA,-0.32
San Luis Obispo,35.0298,-120.4894,3.7154882367347,0.117647059,202252,CA,-0.32
Marion,28.9782,-81.8932,3.7108034168243,-0.117073171,202252,IA,-0.32
Lake,28.5494,-81.7729,3.7088320778339,-0.116831683,202252,IL,-0.32
Erie,41.3111,-82.6126,3.7026258963557,-0.116071429,202252,PA,-0.32
Clinton,36.6857,-85.1407,3.6989815625,-0.115625,202252,IA,-0.32
Allen,30.4607,-92.8693,3.6970192276295,-0.115384615,202252,KS,-0.32
Elmore,32.4995,-86.3641,3.6918721282034,0.114754098,202252,AL,-0.32
Litchfield,41.5287,-73.3609,3.6827477302412,-0.113636364,202252,CT,-0.32
Preble,39.5897,-84.5581,3.6749084479448,-0.112676056,202252,OH,-0.32
Hardin,30.1491,-94.3733,3.6658814054984,-0.111570248,202252,TN,-0.32
Des Moines,40.8087,-91.117,3.6651976311638,-0.111486486,202252,IA,-0.32
Chickasaw,33.8066,-89.0256,3.6621333324263,-0.111111111,202252,IA,-0.32
Covington,31.0105,-86.3497,3.6621333324263,-0.111111111,202252,AL,-0.32
Deschutes,43.7091,-121.5194,3.6621333324263,-0.111111111,202252,OR,-0.32
Washington,30.1669,-96.3977,3.6621333324263,-0.111111111,202252,AR,-0.32
Saline,34.4508,-92.6547,3.6621333324263,0.111111111,202252,KS,-0.32
Sullivan,36.4195,-82.304,3.6621333324263,0.111111111,202252,TN,-0.32
Wichita,33.8579,-98.8081,3.6621333324263,0.111111111,202252,KS,-0.32
Lancaster,34.5578,-80.5546,3.6565687128584,-0.110429448,202252,PA,-0.32
Rio Grande,37.5731,-106.1408,3.6541418535647,-0.110132159,202252,CO,-0.32
Fairfax,38.6929,-77.204,3.6519132400115,-0.109859155,202252,VA,-0.32
Lyon,37.0619,-88.1498,3.6518261376005,0.109848485,202252,KS,-0.32
Box Butte,42.1149,-102.888,3.6464948251466,0.109195402,202252,NE,-0.32
Pike,31.0217,-90.479,3.6456418174397,0.109090909,202252,OH,-0.32
Johnson,32.2532,-97.3678,3.6429248018108,-0.108758076,202252,KS,-0.32
Osceola,27.8767,-81.05,3.6424152159716,-0.108695652,202252,IA,-0.32
Campbell,36.3028,-84.203,3.6365831013893,-0.107981221,202252,KY,-0.32
Cloud,39.3481,-97.4579,3.6297392845481,-0.107142857,202252,KS,-0.32
Bell,30.7991,-97.4263,3.6269087419061,0.106796117,202252,TX,-0.32
Lee,26.3398,-81.7787,3.6152824394333,-0.105371901,202252,FL,-0.32
Delaware,36.1662,-94.8547,3.6143947377014,0.105263158,202252,PA,-0.32
Madison,30.3979,-83.2844,3.6054437527211,0.104166667,202252,OH,-0.32
La Salle,28.0405,-99.3563,3.5995793114708,-0.103448276,202252,LA,-0.32
Hockley,33.4482,-102.4898,3.5995793114708,0.103448276,202252,TX,-0.32
Wasco,44.8892,-120.7914,3.5995793114708,0.103448276,202252,OR,-0.32
Dickinson,38.6767,-96.8941,3.5893058392373,-0.102189781,202252,IA,-0.32
Oldham,35.1916,-102.2118,3.5832608666075,-0.101449275,202252,KY,-0.32
Dodge,31.938,-83.1837,3.581910697604,-0.10128388,202252,NE,-0.32
Custer,35.5115,-98.9795,3.5817632928959,0.101265823,202252,OK,-0.32
Monroe,24.5552,-81.7816,3.5777581411802,-0.100775194,202252,IA,-0.32
Henrico,37.4638,-77.398,3.57143,-0.1,202252,VA,-0.32
Jackson,28.7671,-96.6492,3.57143,-0.1,202252,IA,-0.32
Neshoba,32.6439,-89.112,3.57143,-0.1,202252,MS,-0.32
New Haven,41.2175,-73.0549,3.57143,-0.1,202252,CT,-0.32
Nassau,30.4193,-81.9724,3.5651984714753,-0.099236641,202252,NY,-0.32
Midland,31.8693,-102.0317,3.5580475431248,-0.098360656,202252,TX,-0.32
Norfolk,36.8294,-76.2701,3.5536836960071,0.097826087,202252,VA,-0.32
Kenton,38.8394,-84.5069,3.5515195153808,0.097560976,202252,KY,-0.32
Pike,31.0217,-90.479,3.5515195153808,0.097560976,202252,MS,-0.32
Chippewa,44.9226,-95.4845,3.5450967778802,0.096774194,202252,MN,-0.32
Grady,30.7462,-84.3125,3.5450967778802,0.096774194,202252,OK,-0.32
Wapello,40.9261,-92.2268,3.5414073581186,-0.096322242,202252,IA,-0.32
Fillmore,40.4065,-97.4427,3.5366925544073,-0.095744681,202252,NE,-0.32
Garland,34.4351,-93.242,3.5325571409135,-0.095238095,202252,AR,-0.32
Nacogdoches,31.3601,-94.4064,3.5325571409135,-0.095238095,202252,TX,-0.32
Worcester,38.0452,-75.4108,3.5325571409135,-0.095238095,202252,RI,-0.32
Otoe,40.5586,-96.0138,3.5314368912545,-0.095100865,202252,NE,-0.32
Madison,30.3979,-83.2844,3.5284652622986,-0.094736842,202252,KY,-0.32
Delaware,36.1662,-94.8547,3.5252226444359,-0.094339623,202252,OK,-0.32
Crawford,32.7222,-84.0451,3.5234105877551,0.094117647,202252,PA,-0.32
Knox,33.4183,-99.8137,3.520409375,0.09375,202252,IN,-0.32
Henderson,32.0797,-95.5938,3.5189175400883,-0.093567251,202252,KY,-0.32
Chisago,45.3364,-92.9675,3.518574101894,-0.09352518,202252,MN,-0.32
Johnson,32.2532,-97.3678,3.5170079972789,0.093333333,202252,MO,-0.32
Jasper,30.3129,-94.0731,3.5144767457048,-0.093023256,202252,TX,-0.32
Shelby,31.7131,-93.9698,3.5097800808461,-0.092447917,202252,TN,-0.32
Giles,35.05,-87.1522,3.5069828934479,0.092105263,202252,TN,-0.32
Palo Alto,42.9417,-94.6746,3.5045177074607,-0.091803279,202252,IA,-0.32
Eau Claire,44.5963,-90.9906,3.5034025027211,-0.091666667,202252,WI,-0.32
Orange,28.3774,-81.1888,3.5034025027211,-0.091666667,202252,CA,-0.32
Tulare,35.805,-119.1315,3.5028832025549,0.091603053,202252,CA,-0.32
Cheshire,42.7544,-72.019,3.4972181825603,-0.090909091,202252,NH,-0.32
Gray,35.2273,-100.7592,3.4972181825603,0.090909091,202252,KS,-0.32
Jones,31.4555,-89.302,3.4972181825603,0.090909091,202252,IA,-0.32
Pulaski,32.2778,-83.4948,3.4972181825603,0.090909091,202252,AR,-0.32
Anoka,45.0523,-93.2541,3.4935397750904,-0.090458488,202252,MN,-0.32
Manatee,27.3648,-82.1849,3.4807266675737,0.088888889,202252,FL,-0.32
Dubuque,42.2775,-90.7507,3.4798150718627,-0.088777219,202252,IA,-0.32
Seward,37.0216,-100.938,3.4711789453634,-0.087719298,202252,NE,-0.32
Randolph,33.1492,-85.5513,3.4588327622801,-0.086206897,202252,IL,-0.32
Washington,30.1669,-96.3977,3.4548114309038,0.085714286,202252,IA,-0.32
Tipton,35.4143,-89.8188,3.4498489363439,-0.085106383,202252,TN,-0.32
Vernon,30.9243,-93.2749,3.4498489363439,0.085106383,202252,MO,-0.32
Hamilton,30.3387,-82.7765,3.4458407723705,-0.084615385,202252,IA,-0.32
Washington,30.1669,-96.3977,3.4353749972789,-0.083333333,202252,KS,-0.32
Jefferson,28.883,-81.3087,3.4353749972789,0.083333333,202252,OK,-0.32
Waseca,43.8937,-93.4995,3.4353749972789,0.083333333,202252,MN,-0.32
Mahaska,41.2117,-92.4362,3.4242229498829,-0.081967213,202252,IA,-0.32
Madison,30.3979,-83.2844,3.4187829267629,0.081300813,202252,IN,-0.32
Platte,39.1776,-94.6321,3.4113652952381,0.080392157,202252,NE,-0.32
Twin Falls,42.218,-114.5942,3.4093907970506,-0.080150282,202252,ID,-0.32
Webster,31.8939,-84.5112,3.408164,-0.08,202252,IA,-0.32
City of Richmond,37.4955,-77.471,3.4066309894031,-0.079812207,202252,VA,-0.32
Reno,37.7783,-97.9886,3.4029809494007,0.079365079,202252,KS,-0.32
Tippecanoe,40.247,-86.725,3.4016980214993,-0.079207921,202252,IN,-0.32
Camp,32.9623,-94.9603,3.3995710491944,0.078947368,202252,TX,-0.32
Henry,31.3534,-85.3323,3.387913954754,-0.07751938,202252,IA,-0.32
Kingman,37.4344,-98.4171,3.3830461544741,-0.076923077,202252,KS,-0.32
Sheridan,39.3322,-100.4758,3.3830461544741,-0.076923077,202252,WY,-0.32
Somerset,37.9666,-76.0235,3.3830461544741,-0.076923077,202252,NJ,-0.32
Harford,39.3982,-76.2743,3.3830461544741,0.076923077,202252,MD,-0.32
Keith,41.1002,-101.9099,3.3830461544741,0.076923077,202252,NE,-0.32
Oklahoma,34.506,-97.1131,3.3830461544741,0.076923077,202252,KS,-0.32
Sumner,36.3047,-86.6211,3.3792055014167,-0.076452599,202252,KS,-0.32
Anchorage,59.8666,-158.5996,3.3770657127308,0.076190476,202252,AK,-0.32
Woods,36.5858,-98.8487,3.3735318201608,0.075757576,202252,OK,-0.32
Clay,29.7683,-81.9907,3.3673475,-0.075,202252,IA,-0.32
Osage,36.1576,-96.0311,3.3673475,0.075,202252,OK,-0.32
Cottonwood,43.8831,-95.1373,3.3643014952178,-0.074626866,202252,MN,-0.32
Brevard,27.8679,-80.5416,3.3637671092732,-0.074561404,202252,FL,-0.32
Middlesex,37.5512,-76.3844,3.3516488455259,-0.073076923,202252,NJ,-0.32
Barry,36.5276,-93.9359,3.3381928536443,-0.071428571,202252,MO,-0.32
Charleston,32.6529,-80.1829,3.3381928536443,-0.071428571,202252,SC,-0.32
Pickaway,39.5535,-82.7763,3.3381928536443,-0.071428571,202252,OH,-0.32
Luzerne,40.9448,-76.1452,3.3381928536443,0.071428571,202252,PA,-0.32
San Diego,32.5626,-117.043,3.3381928536443,0.071428571,202252,CA,-0.32
Nantucket,41.2639,-69.9626,3.3323030326943,-0.070707071,202252,MA,-0.32
Clay,29.7683,-81.9907,3.3322033832912,-0.070694864,202252,MO,-0.32
Knox,33.4183,-99.8137,3.3279631611887,0.070175439,202252,NE,-0.32
Hancock,30.2391,-89.4595,3.3246325592786,-0.069767442,202252,MS,-0.32
Muscatine,41.3486,-91.1237,3.3246325592786,-0.069767442,202252,IA,-0.32
Anderson,31.648,-95.5551,3.3229817359361,-0.069565217,202252,TX,-0.32
Owen,38.4986,-84.8086,3.3116886348794,-0.068181818,202252,KY,-0.32
Trumbull,41.1318,-80.7553,3.3026384168243,-0.067073171,202252,OH,-0.32
Marion,28.9782,-81.8932,3.2933395609778,0.065934066,202252,MD,-0.32
Dawson,32.5273,-101.716,3.2926012313093,-0.065843621,202252,NE,-0.32
St. Tammany,30.2726,-89.729,3.2817645158657,0.064516129,202252,LA,-0.32
Boone,34.7399,-92.34,3.2789481283859,-0.064171123,202252,NE,-0.32
Saint Johns,29.7051,-81.4909,3.2761617002171,-0.063829787,202252,FL,-0.32
Steele,43.8826,-93.3195,3.2741537569895,0.063583815,202252,NE,-0.32
Bronx,40.8085,-73.9198,3.26530625,-0.0625,202252,NY,-0.32
Powhatan,37.5421,-77.9189,3.26530625,-0.0625,202252,VA,-0.32
Queen Anne's,38.9394,-76.3371,3.26530625,-0.0625,202252,MD,-0.32
Brown,31.5176,-99.1277,3.2622388736984,-0.062124248,202252,WI,-0.32
Clermont,38.7926,-84.1382,3.2593965269246,0.061776062,202252,OH,-0.32
Daviess,37.6206,-87.0591,3.2590074069035,-0.061728395,202252,MO,-0.32
Carroll,33.3343,-89.757,3.254893879217,-0.06122449,202252,MD,-0.32
Hernando,28.4409,-82.4612,3.254893879217,-0.06122449,202252,FL,-0.32
Marshall,33.9517,-96.712,3.2477129344124,-0.060344828,202252,KY,-0.32
Christian,36.6543,-87.4606,3.2429466121148,-0.059760956,202252,MO,-0.32
Galveston,29.2205,-94.9444,3.241010718173,0.05952381,202252,TX,-0.32
Marshall,33.9517,-96.712,3.2393635601522,-0.059322034,202252,IA,-0.32
Richardson,40.0536,-95.4292,3.2352941142857,-0.058823529,202252,NE,-0.32
Roanoke,37.1549,-80.1215,3.2352941142857,-0.058823529,202252,VA,-0.32
Pennington,43.7994,-102.5353,3.2255274605327,0.057627119,202252,SD,-0.32
York,34.8507,-80.9342,3.2240101806149,-0.057441253,202252,NE,-0.32
Outagamie,44.2425,-88.3564,3.214285625,0.05625,202252,WI,-0.32
Marion,28.9782,-81.8932,3.2137123572575,-0.056179775,202252,KY,-0.32
Valley,41.4293,-99.1205,3.2128551372878,0.056074766,202252,NE,-0.32
Pasco,27.8633,-82.3499,3.2086166702948,-0.055555556,202252,FL,-0.32
Racine,42.666,-88.2749,3.1860073333892,-0.052785924,202252,WI,-0.32
Caddo Parish,32.3161,-93.8881,3.1847473688507,-0.052631579,202252,LA,-0.32
Taylor,29.6739,-83.3723,3.1791675328916,-0.051948052,202252,WI,-0.32
Franklin,29.7255,-85.0063,3.1773396557354,-0.051724138,202252,VT,-0.32
Ross,39.2039,-82.812,3.1735025047337,0.051254089,202252,OH,-0.32
Phelps,37.6158,-91.9064,3.1701830538914,0.050847458,202252,NE,-0.32
Olmsted,43.8555,-92.4885,3.1665129974774,-0.050397878,202252,MN,-0.32
Carroll,33.3343,-89.757,3.163265,-0.05,202252,IL,-0.32
Okfuskee,35.3416,-96.1136,3.163265,0.05,202252,OK,-0.32
Wood,32.6439,-95.222,3.163265,0.05,202252,OH,-0.32
Madison,30.3979,-83.2844,3.160241558579,0.04962963,202252,NE,-0.32
Lycoming,41.1788,-76.8839,3.1438285745384,0.047619048,202252,PA,-0.32
Woodward,36.214,-99.1145,3.1401613181363,0.047169811,202252,OK,-0.32
Scott,32.2745,-89.5627,3.1370087741258,-0.046783626,202252,MN,-0.32
Salem,37.2853,-80.0692,3.1304241338963,0.045977011,202252,VA,-0.32
Cleburne,33.5616,-85.3786,3.1261590871985,0.045454545,202252,AL,-0.32
Finney,37.906,-100.7523,3.1228162158485,-0.045045045,202252,KS,-0.32
Richland,32.3331,-91.7976,3.119783509082,-0.04467354,202252,OH,-0.32
Washington,30.1669,-96.3977,3.1179133297052,-0.044444444,202252,MD,-0.32
O'Brien,42.9444,-95.5515,3.1149148761455,-0.044077135,202252,IA,-0.32
Boyd,38.3089,-82.7476,3.1144905641381,0.044025157,202252,KY,-0.32
Fayette,29.6882,-96.9106,3.1100260880213,0.043478261,202252,OH,-0.32
Goodhue,44.211,-92.6613,3.1062096799649,-0.043010753,202252,MN,-0.32
Franklin,29.7255,-85.0063,3.1010025394673,-0.042372881,202252,IA,-0.32
Custer,35.5115,-98.9795,3.1000281679793,0.042253521,202252,NE,-0.32
Butler,31.545,-86.7356,3.0952375027211,0.041666667,202252,KY,-0.32
Addison,43.7837,-73.2949,3.0860445983453,-0.040540541,202252,VT,-0.32
Douglas,33.6634,-84.8639,3.0827388863369,-0.040135593,202252,NE,-0.32
Hamilton,30.3387,-82.7765,3.081632,-0.04,202252,NE,-0.32
Lincoln,31.3795,-90.2867,3.07397890625,-0.0390625,202252,SD,-0.32
Washington,30.1669,-96.3977,3.0725616675737,-0.038888889,202252,RI,-0.32
Carroll,33.3343,-89.757,3.071506977377,-0.03875969,202252,OH,-0.32
Arkansas,34.0893,-91.2437,3.0690730731554,-0.038461538,202252,AR,-0.32
Dakota,42.2852,-96.7159,3.0635127474833,-0.037780401,202252,MN,-0.32
Red Willow,40.0377,-100.4242,3.0609296834441,-0.037463977,202252,NE,-0.32
Phelps,37.6158,-91.9064,3.0574444441421,-0.037037037,202252,MO,-0.32
Cumberland,34.9536,-78.9354,3.0574444441421,0.037037037,202252,ME,-0.32
Muskegon,43.1443,-86.1388,3.0574444441421,0.037037037,202252,MI,-0.32
Shawnee,38.9045,-95.7015,3.0574444441421,0.037037037,202252,KS,-0.32
Washington,30.1669,-96.3977,3.0519472697588,0.036363636,202252,OH,-0.32
Franklin,29.7255,-85.0063,3.0501590335874,-0.036144578,202252,KY,-0.32
Lancaster,34.5578,-80.5546,3.0473746870601,-0.035803497,202252,NE,-0.32
Kennebec,44.1634,-69.9581,3.0445787241569,0.035460993,202252,ME,-0.32
Franklin,29.7255,-85.0063,3.042091015625,-0.03515625,202252,PA,-0.32
Clay,29.7683,-81.9907,3.0365931065447,-0.034482759,202252,FL,-0.32
Cuming,41.845,-96.7318,3.0353849789612,0.034334764,202252,NE,-0.32
Holt,39.9809,-95.1234,3.0322490717561,-0.033950617,202252,NE,-0.32
Burleigh,46.6757,-100.2975,3.0318220332065,-0.033898305,202252,ND,-0.32
Neosho,37.4527,-95.4671,3.0308871639272,-0.033783784,202252,KS,-0.32
Fall River,43.1551,-103.2162,3.0290362417751,-0.033557047,202252,SD,-0.32
Bergen,40.7898,-74.1343,3.0272099972789,0.033333333,202252,NJ,-0.32
Gage,40.0451,-96.8019,3.0258562200968,0.033167496,202252,NE,-0.32
Hall,34.1819,-83.9024,3.0248642240441,0.033045977,202252,NE,-0.32
Graham,32.797,-109.7522,3.010203125,-0.03125,202252,KS,-0.32
Manassas,38.7447,-77.4872,3.010203125,-0.03125,202252,VA,-0.32
Jefferson,28.883,-81.3087,3.010203125,0.03125,202252,OH,-0.32
Canyon,43.3784,-116.5489,3.0049969396085,-0.030612245,202252,ID,-0.32
Monterey,35.8093,-120.9728,3,0.029850746,202252,CA,-0.32
San Mateo,37.2065,-122.3649,3,-0.029411765,202252,CA,-0.32
Weld,40.0597,-105.0686,3,-0.028846154,202252,CO,-0.32
Lehigh,40.4734,-75.5261,3,-0.028571429,202252,PA,-0.32
Avoyelles,30.8641,-92.1466,3,0.028571429,202252,LA,-0.32
Roberts,35.7193,-100.7027,3,0.028571429,202252,SD,-0.32
Cass,32.8485,-94.5795,3,-0.028301887,202252,ND,-0.32
Guernsey,39.852,-81.6576,3,0.02739726,202252,OH,-0.32
Chippewa,44.9226,-95.4845,3,-0.027227723,202252,WI,-0.32
Montgomery,30.1199,-95.4247,3,0.027027027,202252,PA,-0.32
Stearns,45.3436,-94.3028,3,-0.026910657,202252,MN,-0.32
Muskingum,39.8,-81.891,3,-0.026315789,202252,OH,-0.32
Cass,32.8485,-94.5795,3,0.025974026,202252,MO,-0.32
Saratoga,42.81,-73.6995,3,0.025862069,202252,NY,-0.32
Ashland,40.6361,-82.2356,3,0.025316456,202252,OH,-0.32
Saunders,41.0541,-96.3904,3,0.025157233,202252,NE,-0.32
Boise,43.6498,-116.4306,3,-0.024390244,202252,ID,-0.32
Stanton,37.5451,-101.9109,3,-0.024390244,202252,NE,-0.32
McCracken,37.0368,-88.5934,3,-0.023809524,202252,KY,-0.32
Montgomery,30.1199,-95.4247,3,-0.023529412,202252,IL,-0.32
Jefferson,28.883,-81.3087,3,0.022727273,202252,NE,-0.32
Westmoreland,38.0181,-76.6861,3,-0.022271715,202252,PA,-0.32
Norman,47.1588,-96.1309,3,0.02173913,202252,MN,-0.32
Buffalo,40.6861,-99.0693,3,-0.021026072,202252,NE,-0.32
Comanche,31.7629,-98.3695,3,0.020887728,202252,OK,-0.32
Gregory,43.0351,-98.8308,3,0.020833333,202252,SD,-0.32
Venango,41.2002,-79.8734,3,0.020408163,202252,PA,-0.32
Douglas,33.6634,-84.8639,3,-0.02,202252,WI,-0.32
Wayne,31.5168,-82.0397,3,-0.01984127,202252,NE,-0.32
Smith,31.8394,-89.4049,3,0.019480519,202252,TX,-0.32
Will,41.2657,-88.2231,3,-0.019354839,202252,IL,-0.32
DuPage,41.7074,-87.9756,3,-0.019230769,202252,IL,-0.32
Harvey,37.9167,-97.4225,3,0.018907563,202252,KS,-0.32
Maury,35.4749,-87.0005,3,0.018867925,202252,TN,-0.32
York,34.8507,-80.9342,3,-0.017857143,202252,SC,-0.32
Defiance,41.2799,-84.3626,3,-0.017582418,202252,OH,-0.32
Erie,41.3111,-82.6126,3,0.017374517,202252,OH,-0.32
Fannin,33.3796,-96.2475,3,-0.016806723,202252,TX,-0.32
Anderson,31.648,-95.5551,3,-0.016393443,202252,KS,-0.32
Cerro Gordo,42.9137,-93.4773,3,-0.01607717,202252,IA,-0.32
Spotsylvania,38.0641,-77.6586,3,-0.015873016,202252,VA,-0.32
Clayton,33.4429,-84.3136,3,0.015873016,202252,IA,-0.32
Tillman,34.2282,-98.6867,3,0.014492754,202252,OK,-0.32
Lawrence,31.4036,-90.1864,3,-0.013333333,202252,AL,-0.32
Winona,43.9148,-91.394,3,0.013245033,202252,MN,-0.32
Auglaize,40.391,-84.3729,3,-0.01285347,202252,OH,-0.32
Westchester,40.9002,-73.781,3,0.012820513,202252,NY,-0.32
Creek,35.7551,-96.5658,3,-0.012578616,202252,OK,-0.32
Buchanan,37.1134,-82.1501,3,0.011560694,202252,IA,-0.32
Russell,32.1468,-85.0738,3,-0.010869565,202252,KY,-0.32
Boone,34.7399,-92.34,3,-0.010830325,202252,IA,-0.32
Iron,37.2955,-90.6279,3,-0.010309278,202252,UT,-0.32
Clay,29.7683,-81.9907,3,0.010309278,202252,MN,-0.32
Hardin,30.1491,-94.3733,3,0.009950249,202252,KY,-0.32
Dodge,31.938,-83.1837,3,0.009345794,202252,WI,-0.32
Poweshiek,41.5656,-92.6987,3,0.009259259,202252,IA,-0.32
Cedar,37.6613,-94.0129,3,0.00877193,202252,IA,-0.32
Nassau,30.4193,-81.9724,3,-0.008695652,202252,FL,-0.32
Sherburne,45.3136,-93.5814,3,-0.008695652,202252,MN,-0.32
Bristol,36.595,-82.1819,3,-0.008368201,202252,VA,-0.32
Cheyenne,38.804,-102.8198,3,-0.007936508,202252,NE,-0.32
Lawrence,31.4036,-90.1864,3,0.00617284,202252,OH,-0.32
Ottawa,36.6296,-94.9432,3,-0.006160164,202252,MI,-0.32
Adams,31.4706,-91.4044,3,0.005747126,202252,NE,-0.32
Madison,30.3979,-83.2844,3,-0.004424779,202252,IA,-0.32
Androscoggin,43.9684,-70.1846,3,0,202252,ME,-0.32
Benton,34.6244,-89.1862,3,0,202252,OK,-0.32
Berrien,31.0825,-83.2143,3,0,202252,MI,-0.32
Bonner,48.0223,-116.9909,3,0,202252,ID,-0.32
Camden,30.7305,-81.5465,3,0,202252,NJ,-0.32
Colfax,36.35,-104.7931,3,0,202252,NE,-0.32
Franklin,29.7255,-85.0063,3,0,202252,VA,-0.32
Grand Isle,44.6031,-72.9527,3,0,202252,VT,-0.32
Grant,31.5,-92.4005,3,0,202252,WA,-0.32
Holmes,30.7041,-85.9546,3,0,202252,FL,-0.32
Island,47.9508,-122.3916,3,0,202252,WA,-0.32
Monroe,24.5552,-81.7816,3,0,202252,FL,-0.32
Montgomery,30.1199,-95.4247,3,0,202252,IA,-0.32
Mower,43.5309,-92.9328,3,0,202252,MN,-0.32
Onondaga,42.807,-76.1394,3,0,202252,NY,-0.32
Ottawa,36.6296,-94.9432,3,0,202252,OH,-0.32
Perkins,40.8073,-101.9839,3,0,202252,NE,-0.32
Portage,41.0328,-81.2484,3,0,202252,OH,-0.32
St. Lawrence,44.1408,-74.9125,3,0,202252,NY,-0.32
Terrebonne,29.3695,-90.697,3,0,202252,LA,-0.32
Teton,43.4528,-110.7393,3,0,202252,ID,-0.32
Winnebago,42.2166,-89.0512,3,0,202252,WI,-0.32
Woodbury,42.2408,-95.9486,3,0,202252,IA,-0.32
