county,lat,lon,bubble,change,week,state,telemed
Dauphin,40.2041,-76.7331,16,8.545454545,202227,PA,0.03
Hamilton,30.3387,-82.7765,16,71,202227,IN,0.03
Carroll,33.3343,-89.757,16,19,202227,IL,0.03
Providence,41.7312,-71.5468,16,15,202227,RI,0.03
Walton,30.2835,-86.0305,16,1.954545455,202227,FL,0.03
Benton,34.6244,-89.1862,16,1.875,202227,WA,0.03
Washington,30.1669,-96.3977,16,1.818181818,202227,KS,0.03
Fannin,33.3796,-96.2475,16,1.783333333,202227,TX,0.03
Galveston,29.2205,-94.9444,16,1.591836735,202227,TX,0.03
Charleston,32.6529,-80.1829,15.00005,1.5,202227,SC,0.03
Noble,36.2753,-97.4526,13.9796375,1.375,202227,OH,0.03
Forrest,31.0591,-89.0796,13.4431319627183,1.309278351,202227,MS,0.03
Mendocino,38.8251,-123.5399,12.6190874972789,1.208333333,202227,CA,0.03
Haines,59.2519,-135.542,12.2789500027211,1.166666667,202227,AK,0.03
Sandoval,35.2339,-106.62,11.978568832229,1.12987013,202227,NM,0.03
San Luis Obispo,35.0298,-120.4894,10.9184,1,202227,CA,0.03
Washington,30.1669,-96.3977,10.9184,1,202227,OR,0.03
Okmulgee,35.4551,-95.9498,10.5782624972789,-0.958333333,202227,OK,0.03
Mobile,30.2521,-88.1096,10.2085478239574,-0.913043478,202227,AL,0.03
Eau Claire,44.5963,-90.9906,10.1720411463557,-0.908571429,202227,WI,0.03
Plymouth,41.6618,-70.8164,10.153090625,-0.90625,202227,MA,0.03
Boulder,39.9205,-105.0867,10.10207,0.9,202227,CO,0.03
Douglas,33.6634,-84.8639,9.9012476036513,0.875399361,202227,KS,0.03
Middlesex,37.5512,-76.3844,9.8152513524545,0.864864865,202227,MA,0.03
Boyd,38.3089,-82.7476,9.7655675576258,-0.858778626,202227,KY,0.03
Will,41.2657,-88.2231,9.693905,-0.85,202227,IL,0.03
McKinley,35.0684,-108.8336,9.6862037754332,0.849056604,202227,NM,0.03
Franklin,29.7255,-85.0063,9.6003671902211,-0.838541667,202227,WA,0.03
Benton,34.6244,-89.1862,9.5578499972789,0.833333333,202227,OK,0.03
Norfolk,36.8294,-76.2701,9.3996465085904,-0.813953488,202227,MA,0.03
Westchester,40.9002,-73.781,9.3684063268406,-0.810126582,202227,NY,0.03
Wayne,31.5168,-82.0397,9.28574,0.8,202227,MI,0.03
Rowan,35.5435,-80.6129,8.877575,-0.75,202227,NC,0.03
Santa Cruz,31.377,-110.9435,8.877575,0.75,202227,CA,0.03
Houston,31.0507,-85.3154,8.795942,-0.74,202227,GA,0.03
Poweshiek,41.5656,-92.6987,8.7264027738473,0.731481481,202227,IA,0.03
New Hanover,33.9927,-77.9099,8.5374374972789,0.708333333,202227,NC,0.03
Knox,33.4183,-99.8137,8.4949203125,0.703125,202227,NE,0.03
Putnam,25.7964,-80.3849,8.46941,-0.7,202227,FL,0.03
Dawes,42.4439,-103.2985,8.3116319335277,0.680672269,202227,NE,0.03
Luzerne,40.9448,-76.1452,8.2331039508056,0.671052632,202227,PA,0.03
Cumberland,34.9536,-78.9354,8.2293129387755,0.670588235,202227,PA,0.03
Utah,39.953,-111.9008,8.1973000027211,0.666666667,202227,UT,0.03
Washington,30.1669,-96.3977,8.1346018423775,-0.658986175,202227,VT,0.03
Ohio,37.3418,-86.77,8.1309317043305,0.658536585,202227,KY,0.03
Ottawa,36.6296,-94.9432,8.1195542845481,-0.657142857,202227,OH,0.03
McLean,37.4177,-87.2736,8.0926423089482,0.653846154,202227,KY,0.03
Pima,31.4887,-111.5421,8.061245,-0.65,202227,AZ,0.03
Siskiyou,41.2124,-122.2734,8.0372352979592,-0.647058824,202227,CA,0.03
Montgomery,30.1199,-95.4247,8.0029357154519,-0.642857143,202227,TN,0.03
Bay,29.9395,-85.4096,8.0029357154519,0.642857143,202227,FL,0.03
Henry,31.3534,-85.3323,7.9742590139846,-0.639344262,202227,MO,0.03
Pottawatomie,34.9849,-96.8763,7.9705416675737,0.638888889,202227,KS,0.03
DeKalb,33.6823,-84.161,7.8571625,-0.625,202227,GA,0.03
Stafford,37.9433,-98.9481,7.7971382367347,-0.617647059,202227,VA,0.03
Saline,34.4508,-92.6547,7.7643977302412,0.613636364,202227,MO,0.03
Garfield,36.1962,-97.8805,7.65308,0.6,202227,NE,0.03
Shasta,40.3691,-122.3375,7.6216826910518,-0.596153846,202227,CA,0.03
Christian,36.6543,-87.4606,7.5170249972789,0.583333333,202227,KY,0.03
Windsor,43.2831,-72.6031,7.4950806427913,-0.580645161,202227,VT,0.03
Graham,32.797,-109.7522,7.4446553182805,-0.574468085,202227,KS,0.03
Nolan,32.082,-100.3111,7.2902666702948,0.555555556,202227,TX,0.03
Arlington,38.8415,-77.0905,7.2726543668714,-0.553398058,202227,VA,0.03
Santa Fe,35.0776,-106.1872,7.2648951012416,0.552447552,202227,NM,0.03
Dorchester,32.9336,-80.1026,7.2078090871985,0.545454545,202227,SC,0.03
Ray,39.2048,-94.0259,7.1968955877551,0.544117647,202227,MO,0.03
Lincoln,31.3795,-90.2867,7.1154168659618,-0.534136546,202227,OK,0.03
Rockland,41.0103,-73.925,7.091853125,-0.53125,202227,NY,0.03
Knox,33.4183,-99.8137,7.0895955725483,-0.530973451,202227,TN,0.03
Madison,30.3979,-83.2844,7.0768470612245,-0.529411765,202227,IL,0.03
Hanover,37.6281,-77.3395,7.0635083351474,0.527777778,202227,VA,0.03
Rutland,43.3583,-73.0129,7.0087735637501,-0.521072797,202227,VT,0.03
Creek,35.7551,-96.5658,6.9755816349299,-0.517006803,202227,OK,0.03
Franklin,29.7255,-85.0063,6.9441618442535,0.513157895,202227,KY,0.03
Martin,27.0595,-80.1364,6.9235936180634,-0.510638298,202227,FL,0.03
Saratoga,42.81,-73.6995,6.8788288645487,0.505154639,202227,NY,0.03
Colfax,36.35,-104.7931,6.83675,-0.5,202227,NE,0.03
Essex,37.7681,-76.7117,6.83675,-0.5,202227,MO,0.03
Kit Carson,39.3087,-102.5979,6.83675,-0.5,202227,CO,0.03
Lake,28.5494,-81.7729,6.83675,-0.5,202227,OH,0.03
Salt Lake,40.4954,-111.9444,6.83675,-0.5,202227,UT,0.03
Sullivan,36.4195,-82.304,6.83675,-0.5,202227,NY,0.03
Bourbon,37.7175,-94.6613,6.83675,0.5,202227,KY,0.03
St. Clair,33.5296,-86.3007,6.83675,0.5,202227,IL,0.03
Walworth,42.5136,-88.4843,6.83675,0.5,202227,WI,0.03
Seneca,41.0182,-82.9899,6.7937852622986,-0.494736842,202227,OH,0.03
Fayette,29.6882,-96.9106,6.7167014734694,-0.485294118,202227,OH,0.03
Clinton,36.6857,-85.1407,6.6777246792473,-0.480519481,202227,OH,0.03
Chester,34.5705,-80.9133,6.6666812527211,-0.479166667,202227,SC,0.03
Cottonwood,43.8831,-95.1373,6.6652521037901,-0.478991597,202227,MN,0.03
Williams,41.4425,-84.7349,6.6126976110467,-0.472553699,202227,OH,0.03
Seward,37.0216,-100.938,6.6099916648526,-0.472222222,202227,KS,0.03
Cook,31.0403,-83.3915,6.5837969739338,-0.469013386,202227,IL,0.03
Norfolk,36.8294,-76.2701,6.5452035690962,-0.464285714,202227,VA,0.03
Hamilton,30.3387,-82.7765,6.5241129815024,-0.461702128,202227,OH,0.03
Burt,41.7715,-96.3924,6.5227769268446,-0.461538462,202227,NE,0.03
Miami,38.4102,-94.8718,6.4880663303456,-0.457286432,202227,KS,0.03
Jessamine,37.8602,-84.6714,6.4840148110859,-0.456790123,202227,KY,0.03
Anderson,31.648,-95.5551,6.4239988743866,-0.449438202,202227,KS,0.03
Cleburne,33.5616,-85.3786,6.4071026311493,-0.447368421,202227,AL,0.03
Beaufort,32.1145,-80.8686,6.4045752979592,-0.447058824,202227,SC,0.03
Warren,32.3258,-90.8507,6.389085158657,0.44516129,202227,OH,0.03
Addison,43.7837,-73.2949,6.32654375,0.4375,202227,VT,0.03
San Mateo,37.2065,-122.3649,6.3043608720497,-0.434782609,202227,CA,0.03
Adams,31.4706,-91.4044,6.2851756721456,-0.432432432,202227,CO,0.03
Jefferson,28.883,-81.3087,6.2851756721456,-0.432432432,202227,KS,0.03
Clayton,33.4429,-84.3136,6.2605170612245,-0.429411765,202227,IA,0.03
Calhoun,28.4101,-96.7023,6.2536571463557,-0.428571429,202227,IA,0.03
Nassau,30.4193,-81.9724,6.2536571463557,0.428571429,202227,FL,0.03
Randolph,33.1492,-85.5513,6.2141254273262,-0.423728814,202227,IL,0.03
Stephens,32.6886,-98.659,6.2121558679352,-0.423487544,202227,OK,0.03
City of Alexandria,38.8013,-77.0707,6.2088038455259,-0.423076923,202227,VA,0.03
Allegheny,40.2373,-79.9506,6.1722953475083,-0.418604651,202227,PA,0.03
Dixon,42.2733,-96.8776,6.1564750027211,-0.416666667,202227,NE,0.03
York,34.8507,-80.9342,6.1098808210232,-0.410958904,202227,ME,0.03
Olmsted,43.8555,-92.4885,6.1081142175968,-0.410742496,202227,MN,0.03
Allegany,39.4774,-79.0594,6.1078839309038,-0.410714286,202227,MD,0.03
Sussex,36.8191,-77.4832,6.1078839309038,-0.410714286,202227,DE,0.03
Houston,31.0507,-85.3154,6.0258261617516,-0.400662252,202227,AL,0.03
Lehigh,40.4734,-75.5261,6.02042,0.4,202227,PA,0.03
Valley,41.4293,-99.1205,6.0053027765684,0.398148148,202227,NE,0.03
Leavenworth,39.0014,-95.0391,5.9527059897677,0.391705069,202227,KS,0.03
Berks,40.1552,-75.8998,5.9174594562971,-0.387387387,202227,PA,0.03
Shawnee,38.9045,-95.7015,5.9131649645762,-0.386861314,202227,KS,0.03
Litchfield,41.5287,-73.3609,5.8948307723705,0.384615385,202227,CT,0.03
Delaware,36.1662,-94.8547,5.857154,-0.38,202227,IA,0.03
Rankin,32.0627,-89.9929,5.8515241393385,-0.379310345,202227,MS,0.03
Fulton,33.5242,-84.679,5.8390133351474,-0.377777778,202227,OH,0.03
Bristol,36.595,-82.1819,5.8355905695803,-0.377358491,202227,VA,0.03
Hardin,30.1491,-94.3733,5.8311260853002,-0.376811594,202227,TX,0.03
Brazoria,28.9541,-95.3597,5.8163375,0.375,202227,TX,0.03
Washington,30.1669,-96.3977,5.8163375,0.375,202227,VA,0.03
Rock,42.5083,-89.0318,5.7990423734348,-0.372881356,202227,MN,0.03
Rockingham,36.3432,-79.6642,5.778544441421,-0.37037037,202227,NH,0.03
York,34.8507,-80.9342,5.778544441421,-0.37037037,202227,SC,0.03
Gallatin,37.6952,-88.2491,5.778544441421,0.37037037,202227,MT,0.03
Sunflower,33.349,-90.6051,5.7626315819549,-0.368421053,202227,MS,0.03
Dutchess,41.5097,-73.9634,5.7563132367347,-0.367647059,202227,NY,0.03
Licking,39.9337,-82.4724,5.7336013524545,-0.364864865,202227,OH,0.03
Harrison,30.3598,-89.1646,5.7235727302412,-0.363636364,202227,OH,0.03
Sagadahoc,43.7688,-69.815,5.7235727302412,-0.363636364,202227,ME,0.03
Simpson,31.8277,-90.0088,5.7235727302412,-0.363636364,202227,KY,0.03
Faribault,43.5201,-94.0984,5.693888,-0.36,202227,MN,0.03
Douglas,33.6634,-84.8639,5.693888,0.36,202227,GA,0.03
Keith,41.1002,-101.9099,5.6910236857859,-0.359649123,202227,NE,0.03
Washington,30.1669,-96.3977,5.6910236857859,0.359649123,202227,OK,0.03
Custer,35.5115,-98.9795,5.6427979624601,-0.353741497,202227,NE,0.03
Saline,34.4508,-92.6547,5.6427979624601,-0.353741497,202227,NE,0.03
Jefferson,28.883,-81.3087,5.6411151553082,0.353535354,202227,CO,0.03
Okfuskee,35.3416,-96.1136,5.6295014079908,-0.352112676,202227,OK,0.03
Dallas,32.1899,-87.0633,5.6199037508744,-0.350936968,202227,TX,0.03
Washington,30.1669,-96.3977,5.612255,-0.35,202227,IA,0.03
Baker,30.2041,-82.4287,5.6027627882297,-0.348837209,202227,FL,0.03
Mitchell,31.1272,-84.1564,5.5998863596784,0.348484848,202227,KS,0.03
Marquette,43.6759,-89.5803,5.5907726311493,-0.347368421,202227,MI,0.03
Howard,32.1105,-101.3669,5.5223203402283,0.338983051,202227,NE,0.03
Bell,30.7991,-97.4263,5.4761999972789,-0.333333333,202227,TX,0.03
Essex,37.7681,-76.7117,5.4761999972789,-0.333333333,202227,NJ,0.03
Hampshire,39.1362,-78.4845,5.4761999972789,-0.333333333,202227,MA,0.03
Hughes,34.878,-96.271,5.4761999972789,-0.333333333,202227,SD,0.03
Linn,38.0718,-94.7008,5.4761999972789,-0.333333333,202227,OR,0.03
Madison,30.3979,-83.2844,5.4761999972789,-0.333333333,202227,LA,0.03
Oklahoma,34.506,-97.1131,5.4761999972789,-0.333333333,202227,KS,0.03
Cherry,42.2403,-100.2595,5.4761999972789,0.333333333,202227,NE,0.03
Deschutes,43.7091,-121.5194,5.4761999972789,0.333333333,202227,OR,0.03
Hardin,30.1491,-94.3733,5.4497815503071,-0.330097087,202227,IA,0.03
Winston,32.9789,-89.1221,5.4497815503071,-0.330097087,202227,AL,0.03
Rio Arriba,35.9866,-106.0654,5.4373271463557,-0.328571429,202227,NM,0.03
Cedar,37.6613,-94.0129,5.4304672233236,-0.327731092,202227,NE,0.03
Medina,29.1404,-99.1428,5.4253383198932,-0.327102804,202227,OH,0.03
Union,29.9315,-82.4255,5.4238711544741,-0.326923077,202227,IA,0.03
Labette,37.0418,-95.0796,5.4170456560781,-0.326086957,202227,KS,0.03
Phelps,37.6158,-91.9064,5.4045921092732,-0.324561404,202227,NE,0.03
Mesa,38.6784,-108.9719,5.4026567541092,0.324324324,202227,CO,0.03
Potter,35.1751,-101.7976,5.3911656277211,-0.322916667,202227,PA,0.03
O'Brien,42.9444,-95.5515,5.3729858606615,0.320689655,202227,IA,0.03
Indian River,27.5885,-80.3923,5.3628208297052,-0.319444444,202227,FL,0.03
Neosho,37.4527,-95.4671,5.3622272271824,-0.319371728,202227,KS,0.03
Marion,28.9782,-81.8932,5.3612239412858,-0.319248826,202227,MD,0.03
Marshall,33.9517,-96.712,5.3604085092488,-0.319148936,202227,WV,0.03
Lawrence,31.4036,-90.1864,5.3481482367347,-0.317647059,202227,SD,0.03
Decatur,30.7493,-84.4846,5.3434634168243,-0.317073171,202227,IA,0.03
Oktibbeha,33.357,-89.0473,5.3434634168243,-0.317073171,202227,MS,0.03
Pasco,27.8633,-82.3499,5.3420612639264,-0.316901408,202227,FL,0.03
Clark,33.8309,-93.1263,5.3250277792895,-0.314814815,202227,WA,0.03
Antelope,41.9732,-98.0751,5.3207085690962,-0.314285714,202227,NE,0.03
Monroe,24.5552,-81.7816,5.3207085690962,-0.314285714,202227,FL,0.03
Frederick,39.0367,-78.2815,5.3100259522667,-0.312977099,202227,MD,0.03
Tompkins,42.3621,-76.592,5.30613125,-0.3125,202227,NY,0.03
Elmore,32.4995,-86.3641,5.3014504627598,-0.311926606,202227,AL,0.03
Howard,32.1105,-101.3669,5.2947933324263,-0.311111111,202227,MD,0.03
Franklin,29.7255,-85.0063,5.2885379344124,0.310344828,202227,MO,0.03
Lackawanna,41.3432,-75.5301,5.2885379344124,0.310344828,202227,PA,0.03
Winnebago,42.2166,-89.0512,5.2783018174397,0.309090909,202227,IA,0.03
Saline,34.4508,-92.6547,5.2723135470917,-0.308357349,202227,KS,0.03
Allen,30.4607,-92.8693,5.2668846178964,-0.307692308,202227,IN,0.03
Cabarrus,35.2477,-80.5319,5.2668846178964,0.307692308,202227,NC,0.03
Mahoning,40.8957,-80.9897,5.2444579674815,-0.304945055,202227,OH,0.03
Rockdale,33.6111,-84.0683,5.2230744153773,-0.302325581,202227,GA,0.03
Vernon,30.9243,-93.2749,5.20409,-0.3,202227,MO,0.03
Waller,29.8072,-95.9755,5.20409,-0.3,202227,TX,0.03
La Crosse,43.7989,-91.2175,5.20409,0.3,202227,WI,0.03
Carver,44.7169,-93.6879,5.1952168439219,-0.298913043,202227,MN,0.03
Rogers,36.1503,-95.5205,5.1901752878015,-0.298295455,202227,OK,0.03
Guilford,35.9345,-79.7019,5.1886875508664,-0.298113208,202227,NC,0.03
Middlesex,37.5512,-76.3844,5.1886875508664,-0.298113208,202227,NJ,0.03
Mille Lacs,45.5851,-93.5961,5.1798425744999,-0.297029703,202227,MN,0.03
Chickasaw,33.8066,-89.0256,5.1496679972789,-0.293333333,202227,IA,0.03
Sangamon,39.5394,-89.7621,5.1360625027211,-0.291666667,202227,IL,0.03
Thurston,42.0574,-96.4929,5.1360625027211,-0.291666667,202227,NE,0.03
Lucas,40.9355,-93.4796,5.1186832125329,-0.289537713,202227,OH,0.03
Gloucester,37.2585,-76.4959,5.1181605245972,-0.289473684,202227,VA,0.03
Livingston,30.2716,-90.7043,5.1133866675737,-0.288888889,202227,NY,0.03
Cheyenne,38.804,-102.8198,5.1045375605774,-0.287804878,202227,NE,0.03
Kosciusko,41.0743,-85.8792,5.1008758633826,-0.287356322,202227,IN,0.03
Granville,35.6555,-78.4611,5.0874714309038,-0.285714286,202227,NC,0.03
Henry,31.3534,-85.3323,5.0874714309038,-0.285714286,202227,OH,0.03
Matanuska-Susitna Borough,61.5214,-149.9544,5.0874714309038,-0.285714286,202227,AK,0.03
Suffolk,40.6443,-73.1613,5.0874714309038,-0.285714286,202227,MA,0.03
Tillman,34.2282,-98.6867,5.0874714309038,-0.285714286,202227,OK,0.03
Pulaski,32.2778,-83.4948,5.0874714309038,0.285714286,202227,AR,0.03
St. Lucie,27.2606,-80.4771,5.0525556906758,-0.281437126,202227,FL,0.03
Covington,31.0105,-86.3497,5.0481617944508,-0.280898876,202227,AL,0.03
Grady,30.7462,-84.3125,5.0284240534229,-0.278481013,202227,OK,0.03
Garvin,34.4719,-97.3879,5.0245651472267,-0.278008299,202227,OK,0.03
Maury,35.4749,-87.0005,5.0107486803437,-0.276315789,202227,TN,0.03
Audubon,41.5524,-94.974,5.0070448278677,-0.275862069,202227,IA,0.03
Anchorage,59.8666,-158.5996,5.0052403875458,-0.275641026,202227,AK,0.03
Hernando,28.4409,-82.4612,5.0050554806375,-0.275618375,202227,FL,0.03
McHenry,42.1641,-88.3064,4.9991944189934,0.274900398,202227,IL,0.03
Logan,35.1304,-93.7116,4.9960058829932,-0.274509804,202227,OK,0.03
Harrison,30.3598,-89.1646,4.9814545476809,-0.272727273,202227,MO,0.03
Grant,31.5,-92.4005,4.9814545476809,0.272727273,202227,WA,0.03
Montgomery,30.1199,-95.4247,4.9708528536443,-0.271428571,202227,PA,0.03
Camp,32.9623,-94.9603,4.9688762738153,-0.271186441,202227,TX,0.03
Clay,29.7683,-81.9907,4.961397295091,-0.27027027,202227,KS,0.03
Hubbard,46.9319,-94.846,4.957895239391,-0.26984127,202227,MN,0.03
Marion,28.9782,-81.8932,4.9550401660325,-0.269491525,202227,FL,0.03
Titus,33.1568,-94.9683,4.9529115365777,-0.269230769,202227,TX,0.03
Strafford,43.1174,-70.9197,4.9319800027211,-0.266666667,202227,ME,0.03
Polk,26.4722,-81.8122,4.9296034946618,-0.266375546,202227,MN,0.03
Gwinnett,33.8178,-84.0229,4.9261904270951,-0.265957447,202227,GA,0.03
Lee,26.3398,-81.7787,4.9182955527257,-0.264990329,202227,FL,0.03
Auglaize,40.391,-84.3729,4.9114433929919,-0.264150943,202227,OH,0.03
Monroe,24.5552,-81.7816,4.9064389880498,-0.263537906,202227,PA,0.03
Nicollet,44.2172,-94.0942,4.9033368442535,-0.263157895,202227,MN,0.03
Wake,35.547,-78.6717,4.9033368442535,-0.263157895,202227,NC,0.03
Douglas,33.6634,-84.8639,4.8958255225346,-0.262237762,202227,MN,0.03
Santa Clara,37.0095,-121.5705,4.8931071436346,-0.261904762,202227,CA,0.03
Dallas,32.1899,-87.0633,4.8873993806012,-0.261205564,202227,IA,0.03
Moultrie,39.4796,-88.5242,4.8766355960798,-0.259887006,202227,IL,0.03
Butler,31.545,-86.7356,4.8701908258325,-0.259097525,202227,KS,0.03
Sarasota,26.92,-82.3048,4.8577681852814,-0.257575758,202227,FL,0.03
Wayne,31.5168,-82.0397,4.8565435678319,-0.257425743,202227,OH,0.03
Clay,29.7683,-81.9907,4.8482538428048,-0.256410256,202227,FL,0.03
Orangeburg,33.2628,-80.8059,4.8482538428048,-0.256410256,202227,SC,0.03
Arkansas,34.0893,-91.2437,4.8457012197113,-0.256097561,202227,AR,0.03
Queens,40.5594,-73.9067,4.8437908279187,-0.255863539,202227,NY,0.03
Mower,43.5309,-92.9328,4.8393468090317,-0.255319149,202227,MN,0.03
Augusta,37.9705,-79.2233,4.8359411782313,-0.254901961,202227,VA,0.03
Washington,30.1669,-96.3977,4.8359411782313,0.254901961,202227,PA,0.03
Oklahoma,34.506,-97.1131,4.8240699930851,-0.253447747,202227,OK,0.03
Arapahoe,39.5805,-104.9011,4.8226606972997,-0.253275109,202227,CO,0.03
Madison,30.3979,-83.2844,4.8025726364156,-0.250814332,202227,MS,0.03
Jackson,28.7671,-96.6492,4.7980800458936,-0.250263992,202227,MO,0.03
Dane,42.8669,-89.5377,4.795925,-0.25,202227,WI,0.03
Greenville,34.6578,-82.2441,4.795925,-0.25,202227,SC,0.03
Jackson,28.7671,-96.6492,4.795925,-0.25,202227,GA,0.03
Perkins,40.8073,-101.9839,4.795925,-0.25,202227,NE,0.03
Cheshire,42.7544,-72.019,4.795925,0.25,202227,NH,0.03
Morrill,41.5825,-102.8225,4.7772018347126,-0.247706422,202227,NE,0.03
Reno,37.7783,-97.9886,4.7734983495851,-0.247252747,202227,KS,0.03
Franklin,29.7255,-85.0063,4.7624688496487,-0.245901639,202227,MA,0.03
Lake,28.5494,-81.7729,4.7601210519155,-0.245614035,202227,CA,0.03
Allen,30.4607,-92.8693,4.7461487802887,-0.243902439,202227,KS,0.03
Carroll,33.3343,-89.757,4.7271331484522,-0.241573034,202227,IA,0.03
McLennan,31.2533,-97.41,4.7221602375215,-0.240963855,202227,TX,0.03
Curry,34.3841,-103.3154,4.7203388910053,-0.240740741,202227,OR,0.03
Pierce,31.2931,-82.2617,4.7203388910053,-0.240740741,202227,WI,0.03
McPherson,38.206,-97.5088,4.7169980686436,-0.240331492,202227,KS,0.03
Union,29.9315,-82.4255,4.7163034942631,-0.240246407,202227,SD,0.03
Passaic,40.8344,-74.1377,4.7031602302412,-0.238636364,202227,NJ,0.03
Kingman,37.4344,-98.4171,4.6987428563654,-0.238095238,202227,KS,0.03
Massac,37.1542,-88.5334,4.6987428563654,-0.238095238,202227,IL,0.03
Worth,31.513,-83.7385,4.6987428563654,-0.238095238,202227,IA,0.03
Monroe,24.5552,-81.7816,4.6966416229454,-0.237837838,202227,IA,0.03
Inyo,35.9021,-116.1544,4.689754916126,-0.23699422,202227,CA,0.03
Muscatine,41.3486,-91.1237,4.6894471760426,-0.236956522,202227,IA,0.03
Ventura,34.0324,-119.1343,4.6885131557465,-0.236842105,202227,CA,0.03
Montgomery,30.1199,-95.4247,4.6834385790776,-0.236220472,202227,IL,0.03
Red Willow,40.0377,-100.4242,4.6804066070081,-0.235849057,202227,NE,0.03
Crawford,32.7222,-84.0451,4.6758764734694,-0.235294118,202227,PA,0.03
Fulton,33.5242,-84.679,4.6758764734694,-0.235294118,202227,GA,0.03
Hamilton,30.3387,-82.7765,4.6758764734694,-0.235294118,202227,NE,0.03
Scott,32.2745,-89.5627,4.6726536924257,-0.234899329,202227,MN,0.03
Lawrence,31.4036,-90.1864,4.6598699972789,-0.233333333,202227,OH,0.03
Cass,32.8485,-94.5795,4.653541864262,-0.23255814,202227,IA,0.03
Shelby,31.7131,-93.9698,4.653541864262,0.23255814,202227,IN,0.03
Allamakee,43.0036,-91.5478,4.6501517845481,0.232142857,202227,IA,0.03
Winnebago,42.2166,-89.0512,4.6465963408661,-0.231707317,202227,WI,0.03
McLean,37.4177,-87.2736,4.6455484180451,-0.231578947,202227,IL,0.03
Boone,34.7399,-92.34,4.6441281018047,-0.231404959,202227,NE,0.03
Sac,42.2653,-95.0852,4.6436246302772,-0.231343284,202227,IA,0.03
Muskogee,35.3631,-95.2607,4.6389384634223,-0.230769231,202227,OK,0.03
Pottawatomie,34.9849,-96.8763,4.6374379917392,-0.230585424,202227,OK,0.03
McCracken,37.0368,-88.5934,4.6286442645701,-0.229508197,202227,KY,0.03
Manatee,27.3648,-82.1849,4.6274165124134,-0.229357798,202227,FL,0.03
El Paso,31.4407,-106.0765,4.6209971463557,0.228571429,202227,CO,0.03
Gray,35.2273,-100.7592,4.6169052595775,-0.228070175,202227,KS,0.03
Albemarle,37.7511,-78.6313,4.6140693046676,-0.227722772,202227,VA,0.03
Dodge,31.938,-83.1837,4.6140693046676,-0.227722772,202227,WI,0.03
Webster,31.8939,-84.5112,4.6103954523191,0.227272727,202227,IA,0.03
Garfield,36.1962,-97.8805,4.6094266318751,0.227154047,202227,OK,0.03
Cherokee,31.4885,-94.9399,4.6089171276689,-0.227091633,202227,IA,0.03
Baxter,36.0068,-92.3917,4.6027604974217,-0.226337449,202227,AR,0.03
Weld,40.0597,-105.0686,4.5984258096116,0.225806452,202227,CO,0.03
Taylor,29.6739,-83.3723,4.5958441170068,-0.225490196,202227,WI,0.03
Hancock,30.2391,-89.4595,4.5953815027958,-0.225433526,202227,IA,0.03
Essex,37.7681,-76.7117,4.5932696489225,-0.225174825,202227,MA,0.03
Sheridan,39.3322,-100.4758,4.5918425,-0.225,202227,WY,0.03
Chatham,31.9268,-81.0381,4.5827044774901,-0.223880597,202227,GA,0.03
Cherokee,31.4885,-94.9399,4.5811013196563,-0.223684211,202227,KS,0.03
Boone,34.7399,-92.34,4.5803095856792,-0.223587224,202227,IA,0.03
Washington,30.1669,-96.3977,4.5731275143392,-0.222707424,202227,RI,0.03
Alamance,35.9066,-79.4279,4.5691666648526,-0.222222222,202227,NC,0.03
Lincoln,31.3795,-90.2867,4.5691666648526,-0.222222222,202227,ME,0.03
Valdez-Cordova,60.5362,-145.7534,4.5691666648526,-0.222222222,202227,AK,0.03
Holmes,30.7041,-85.9546,4.5691666648526,0.222222222,202227,FL,0.03
Albany,41.0528,-105.4462,4.5644912409005,-0.221649485,202227,NY,0.03
Greene,31.0867,-88.7977,4.5622427497118,-0.221374046,202227,MO,0.03
Hocking,39.4174,-82.5923,4.5573870147893,-0.220779221,202227,OH,0.03
Osage,36.1576,-96.0311,4.5558279387755,-0.220588235,202227,KS,0.03
Tulare,35.805,-119.1315,4.5550822947902,-0.220496894,202227,CA,0.03
Roanoke,37.1549,-80.1215,4.5496185327938,-0.219827586,202227,VA,0.03
Union,29.9315,-82.4255,4.5443164367906,-0.219178082,202227,NC,0.03
Plumas,39.5645,-121.5751,4.540821875,-0.21875,202227,CA,0.03
Steele,43.8826,-93.3195,4.5361836348794,-0.218181818,202227,MN,0.03
Hays,29.8754,-97.9404,4.5342807696494,-0.217948718,202227,TX,0.03
Prince George's,38.5825,-76.7149,4.5164759347955,-0.215767635,202227,MD,0.03
Delaware,36.1662,-94.8547,4.5117594902609,-0.215189873,202227,OK,0.03
Garland,34.4351,-93.242,4.5043785690962,-0.214285714,202227,AR,0.03
Columbia,29.9207,-82.6879,4.4978269657418,-0.213483146,202227,PA,0.03
Lyon,37.0619,-88.1498,4.4940278067383,-0.213017751,202227,KS,0.03
Grundy,35.2402,-85.8228,4.4919723367781,0.212765957,202227,MO,0.03
Twin Falls,42.218,-114.5942,4.4786633414396,-0.211135612,202227,ID,0.03
Clark,33.8309,-93.1263,4.4736894754028,0.210526316,202227,KY,0.03
Marion,28.9782,-81.8932,4.4736894754028,0.210526316,202227,KY,0.03
Whatcom,48.6752,-122.1914,4.4709528678539,0.210191083,202227,WA,0.03
Edgar,39.5525,-87.9352,4.4667596745227,-0.209677419,202227,IL,0.03
Jasper,30.3129,-94.0731,4.4619718174397,-0.209090909,202227,IA,0.03
Sullivan,36.4195,-82.304,4.4557874972789,0.208333333,202227,TN,0.03
Avoyelles,30.8641,-92.1466,4.4524198013336,-0.207920792,202227,LA,0.03
Stevens,37.1682,-101.3346,4.449369812861,-0.20754717,202227,MN,0.03
Tate,34.6323,-89.8855,4.4482288855631,-0.207407407,202227,MS,0.03
James City,37.2235,-76.7833,4.4469756475838,-0.207253886,202227,VA,0.03
Hillsborough,27.6784,-82.4787,4.4454803024531,-0.207070707,202227,FL,0.03
Minnehaha,43.4775,-96.7041,4.4415839593631,-0.206593407,202227,SD,0.03
Waseca,43.8937,-93.4995,4.4357794122449,-0.205882353,202227,MN,0.03
Lucas,40.9355,-93.4796,4.4194621347335,-0.203883495,202227,IA,0.03
Pike,31.0217,-90.479,4.4154322074023,0.203389831,202227,MS,0.03
Centre,40.71,-77.996,4.4145249219137,-0.203278689,202227,PA,0.03
Pike,31.0217,-90.479,4.4098229753999,0.202702703,202227,OH,0.03
Hardin,30.1491,-94.3733,4.4018752191731,-0.201729107,202227,TN,0.03
Davison,43.5478,-97.9881,4.3963984122233,-0.201058201,202227,SD,0.03
Kearney,40.3735,-99.1539,4.38776,-0.2,202227,NE,0.03
Rush,38.4372,-99.4234,4.38776,-0.2,202227,KS,0.03
DeSoto,27.0675,-81.9855,4.38776,0.2,202227,MS,0.03
Westchester,40.9002,-73.781,4.38776,0.2,202227,CT,0.03
Lee,26.3398,-81.7787,4.3802013882842,-0.199074074,202227,IA,0.03
Wagoner,35.8507,-95.3183,4.3752969429506,-0.198473282,202227,OK,0.03
Scioto,38.5848,-82.8321,4.3620488213402,-0.196850394,202227,OH,0.03
Richland,32.3331,-91.7976,4.3574453568776,-0.196286472,202227,OH,0.03
Keokuk,41.1826,-92.3097,4.3522673920142,-0.195652174,202227,IA,0.03
Marshall,33.9517,-96.712,4.3509330843026,-0.195488722,202227,IA,0.03
Manassas,38.7447,-77.4872,4.3479390225983,0.195121951,202227,VA,0.03
Boyle,37.5778,-84.9281,4.3458969241235,0.194871795,202227,KY,0.03
Androscoggin,43.9684,-70.1846,4.3453532483435,-0.194805195,202227,ME,0.03
Chautauqua,37.0262,-96.1783,4.3424083297052,-0.194444444,202227,KS,0.03
Merrick,40.9856,-98.2217,4.3424083297052,-0.194444444,202227,NE,0.03
Tuscarawas,40.2739,-81.594,4.336739375,-0.19375,202227,OH,0.03
Adams,31.4706,-91.4044,4.3350935475971,-0.193548387,202227,IA,0.03
Hillsborough,27.6784,-82.4787,4.3325492755595,-0.193236715,202227,NH,0.03
Russell,32.1468,-85.0738,4.3249653821036,-0.192307692,202227,KY,0.03
Cloud,39.3481,-97.4579,4.3249653821036,0.192307692,202227,KS,0.03
Cherokee,31.4885,-94.9399,4.323942667553,-0.19218241,202227,OK,0.03
Humboldt,40.0231,-124.0139,4.3157308857143,-0.191176471,202227,CA,0.03
Hunterdon,40.3731,-74.9266,4.3135481825603,0.190909091,202227,NJ,0.03
Cuming,41.845,-96.7318,4.3129816821935,-0.190839695,202227,NE,0.03
Johnson,32.2532,-97.3678,4.3115268515207,-0.190661479,202227,IA,0.03
Mills,31.4458,-98.5744,4.310014281827,-0.19047619,202227,TX,0.03
Lake,28.5494,-81.7729,4.310014281827,0.19047619,202227,SD,0.03
Maricopa,32.9306,-112.7468,4.2992012481167,-0.189151599,202227,AZ,0.03
Ellis,32.1482,-96.9612,4.2953452807085,-0.188679245,202227,KS,0.03
Lane,38.4742,-100.4647,4.294082785547,-0.18852459,202227,OR,0.03
Comanche,31.7629,-98.3695,4.2900794869004,-0.188034188,202227,OK,0.03
McIntosh,31.3826,-81.4312,4.28571875,-0.1875,202227,OK,0.03
Phelps,37.6158,-91.9064,4.28571875,-0.1875,202227,MO,0.03
Nantucket,41.2639,-69.9626,4.28571875,0.1875,202227,MA,0.03
Polk,26.4722,-81.8122,4.2770711867174,-0.186440678,202227,FL,0.03
Santa Rosa,30.3571,-87.1639,4.2738534914096,-0.186046512,202227,FL,0.03
Christian,36.6543,-87.4606,4.2726365392988,-0.185897436,202227,MO,0.03
Washington,30.1669,-96.3977,4.2722600723927,-0.185851319,202227,MN,0.03
Shelby,31.7131,-93.9698,4.269939172733,-0.18556701,202227,OH,0.03
Ottawa,36.6296,-94.9432,4.2692604841343,-0.185483871,202227,OK,0.03
Nassau,30.4193,-81.9724,4.2658405838855,-0.185064935,202227,NY,0.03
Orange,28.3774,-81.1888,4.265406092243,-0.18501171,202227,FL,0.03
Ida,42.3327,-95.6045,4.261423218173,-0.18452381,202227,IA,0.03
Kossuth,42.9868,-94.0959,4.2594479689619,-0.184281843,202227,IA,0.03
St. Mary's,38.0828,-76.3477,4.2580902489059,-0.184115523,202227,MD,0.03
Accomack,37.5423,-75.7412,4.2517049972789,0.183333333,202227,VA,0.03
Fall River,43.1551,-103.2162,4.233958693286,0.18115942,202227,SD,0.03
Fairfield,34.2717,-81.2712,4.2328620518906,-0.181025082,202227,OH,0.03
Beaver,36.5996,-100.7103,4.2281766932024,0.180451128,202227,PA,0.03
Bexar,29.1733,-98.4723,4.221323782445,-0.17961165,202227,TX,0.03
White Pine,38.8641,-115.0069,4.2128321463557,-0.178571429,202227,NV,0.03
Wyandotte,39.0668,-94.6282,4.2067722838667,-0.177829099,202227,KS,0.03
DuPage,41.7074,-87.9756,4.2063533351474,-0.177777778,202227,IL,0.03
St. Croix,44.9408,-92.2848,4.2034274206715,-0.177419355,202227,WI,0.03
Monterey,35.8093,-120.9728,4.1993761544741,0.176923077,202227,CA,0.03
Sharp,35.9517,-91.5444,4.1956823510204,-0.176470588,202227,AR,0.03
Wood,32.6439,-95.222,4.1880196817195,-0.175531915,202227,TX,0.03
Pittsburg,34.6695,-96.0258,4.1872578907268,-0.175438596,202227,OK,0.03
Daviess,37.6206,-87.0591,4.1853277600748,-0.175202156,202227,KY,0.03
Smith,31.8394,-89.4049,4.1807480834684,-0.174641148,202227,TX,0.03
Yellow Medicine,44.631,-95.4182,4.1804380984775,0.174603175,202227,MN,0.03
Otter Tail,46.153,-95.3289,4.1770941903884,-0.174193548,202227,MN,0.03
Cochise,31.3373,-109.9413,4.1748043439219,-0.173913043,202227,AZ,0.03
Tazewell,36.9763,-81.628,4.1748043439219,0.173913043,202227,IL,0.03
Phillips,34.1335,-90.9751,4.1711826550604,-0.173469388,202227,AR,0.03
Prince William,38.5223,-77.2936,4.1605032953876,-0.172161172,202227,VA,0.03
Talladega,33.1717,-86.2713,4.1581671875,-0.171875,202227,AL,0.03
Goshen,41.6423,-104.1974,4.1581671875,0.171875,202227,WY,0.03
Davis,40.6941,-92.258,4.1545228536443,-0.171428571,202227,IA,0.03
Halifax,36.0594,-77.4061,4.1545228536443,-0.171428571,202227,VA,0.03
Ottawa,36.6296,-94.9432,4.1540526230744,-0.171370968,202227,MI,0.03
Greene,31.0867,-88.7977,4.1520283450835,-0.171122995,202227,IA,0.03
Chisago,45.3364,-92.9675,4.1445978726878,-0.170212766,202227,MN,0.03
Forsyth,34.2037,-84.1031,4.1445978726878,-0.170212766,202227,GA,0.03
Suffolk,40.6443,-73.1613,4.1277977686346,-0.168154762,202227,NY,0.03
Douglas,33.6634,-84.8639,4.1235871629845,-0.167638965,202227,NE,0.03
Albany,41.0528,-105.4462,4.1156500027211,-0.166666667,202227,WY,0.03
Doï¿½a Ana,31.8186,-106.5997,4.1156500027211,-0.166666667,202227,NM,0.03
Elkhart,41.4493,-85.9945,4.1156500027211,-0.166666667,202227,IN,0.03
Fairfield,34.2717,-81.2712,4.1156500027211,-0.166666667,202227,CT,0.03
Mercer,37.2698,-81.2223,4.1156500027211,-0.166666667,202227,NJ,0.03
Onondaga,42.807,-76.1394,4.1156500027211,-0.166666667,202227,NY,0.03
Roseau,48.5459,-96.0879,4.1156500027211,-0.166666667,202227,MN,0.03
Tippecanoe,40.247,-86.725,4.1156500027211,-0.166666667,202227,IN,0.03
Washington,30.1669,-96.3977,4.1156500027211,-0.166666667,202227,MS,0.03
Oscoda,44.6001,-84.2931,4.1156500027211,0.166666667,202227,MI,0.03
Sumner,36.3047,-86.6211,4.1078754309038,-0.165714286,202227,KS,0.03
Boone,34.7399,-92.34,4.1073791757335,-0.165653495,202227,KY,0.03
Murray,34.402,-97.051,4.1069840801768,-0.165605096,202227,OK,0.03
Linn,38.0718,-94.7008,4.1033373299843,-0.165158371,202227,IA,0.03
Lowndes,30.6906,-83.1753,4.1024407792352,-0.165048544,202227,MS,0.03
Cuyahoga,41.3132,-81.8285,4.0975093297052,-0.164444444,202227,OH,0.03
Lycoming,41.1788,-76.8839,4.097387582249,-0.16442953,202227,PA,0.03
Baltimore,39.207,-76.4456,4.0916966519402,-0.163732394,202227,MD,0.03
Jasper,30.3129,-94.0731,4.0909127302412,0.163636364,202227,TX,0.03
Duval,27.3849,-98.309,4.0899792487229,-0.163522013,202227,FL,0.03
Story,41.8765,-93.6812,4.0841921955566,-0.162813102,202227,IA,0.03
Goodhue,44.211,-92.6613,4.0840093049834,0.162790698,202227,MN,0.03
Hancock,30.2391,-89.4595,4.0788783770546,-0.162162162,202227,IL,0.03
Martin,27.0595,-80.1364,4.0756338244898,-0.161764706,202227,MN,0.03
St. Landry,30.3884,-92.0934,4.0737869268446,-0.161538462,202227,LA,0.03
Clinton,36.6857,-85.1407,4.0693727856356,-0.160997732,202227,IA,0.03
Richardson,40.0536,-95.4292,4.068734480882,-0.16091954,202227,NE,0.03
Kings,35.9877,-120.1227,4.0643084865614,-0.160377358,202227,NY,0.03
Montgomery,30.1199,-95.4247,4.0643084865614,-0.160377358,202227,KS,0.03
White,34.5839,-83.75,4.0628131087775,-0.160194175,202227,AR,0.03
Henderson,32.0797,-95.5938,4.0596467279735,-0.159806295,202227,KY,0.03
Muskingum,39.8,-81.891,4.0492817043305,-0.158536585,202227,OH,0.03
Elko,40.3995,-115.2312,4.0482960429986,-0.158415842,202227,NV,0.03
Bernalillo,34.9073,-106.6892,4.0440421065521,-0.157894737,202227,NM,0.03
Fayette,29.6882,-96.9106,4.0440421065521,-0.157894737,202227,PA,0.03
Cumberland,34.9536,-78.9354,4.0414381852814,-0.157575758,202227,ME,0.03
Lake,28.5494,-81.7729,4.0379042845481,-0.157142857,202227,IN,0.03
Ness,38.4388,-99.9029,4.030615625,-0.15625,202227,KS,0.03
Furnas,40.1063,-99.9715,4.030615625,0.15625,202227,NE,0.03
Hancock,30.2391,-89.4595,4.0296672862757,-0.156133829,202227,OH,0.03
Palo Alto,42.9417,-94.6746,4.0254094396085,-0.155612245,202227,IA,0.03
Custer,35.5115,-98.9795,4.0167009128015,-0.154545455,202227,OK,0.03
Benton,34.6244,-89.1862,4.0109923089482,-0.153846154,202227,AR,0.03
Camden,30.7305,-81.5465,4.0109923089482,-0.153846154,202227,NJ,0.03
Morgan,33.5368,-83.3435,4.0109923089482,-0.153846154,202227,AL,0.03
Terrebonne,29.3695,-90.697,4.0109923089482,-0.153846154,202227,LA,0.03
Barron,45.2462,-91.9742,3.9973413039929,-0.152173913,202227,WI,0.03
Bannock,42.3195,-111.9781,3.9919636403216,-0.151515152,202227,ID,0.03
Giles,35.05,-87.1522,3.9919636403216,-0.151515152,202227,TN,0.03
Kingfisher,35.7502,-97.93,3.9890872117703,-0.151162791,202227,OK,0.03
Jefferson,28.883,-81.3087,3.9870614317322,-0.150914634,202227,AL,0.03
Ross,39.2039,-82.812,3.9867294384845,-0.150873965,202227,OH,0.03
Seminole,28.6133,-81.2581,3.9857482424777,-0.150753769,202227,FL,0.03
Crawford,32.7222,-84.0451,3.977412296846,-0.14973262,202227,KS,0.03
Mecklenburg,35.0552,-80.8195,3.9700392940823,-0.148829431,202227,NC,0.03
Thurston,42.0574,-96.4929,3.9694752100523,-0.148760331,202227,WA,0.03
Washington,30.1669,-96.3977,3.9685635163817,-0.148648649,202227,UT,0.03
Chester,34.5705,-80.9133,3.9674712831683,-0.148514851,202227,PA,0.03
Lyon,37.0619,-88.1498,3.9674712831683,-0.148514851,202227,NV,0.03
Campbell,36.3028,-84.203,3.96683984375,-0.1484375,202227,KY,0.03
Union,29.9315,-82.4255,3.9644777765684,-0.148148148,202227,NJ,0.03
Carter,34.1364,-97.4273,3.9606506337725,-0.147679325,202227,OK,0.03
Northampton,36.2773,-77.2969,3.9595213146872,0.147540984,202227,PA,0.03
Bucks,40.0933,-74.8991,3.9568784544755,-0.147217235,202227,PA,0.03
Codington,44.8858,-97.4442,3.9507348446918,-0.146464646,202227,SD,0.03
Sequoyah,35.3898,-94.4462,3.9466375782989,-0.145962733,202227,OK,0.03
Lancaster,34.5578,-80.5546,3.9444274627835,-0.145691995,202227,NE,0.03
Wayne,31.5168,-82.0397,3.9424890871985,-0.145454545,202227,KY,0.03
Chippewa,44.9226,-95.4845,3.9353361425129,0.144578313,202227,MN,0.03
Chittenden,44.3113,-73.228,3.9326520494729,-0.144249513,202227,VT,0.03
Jefferson,28.883,-81.3087,3.9311686472501,0.144067797,202227,NE,0.03
Miami-Dade,25.2846,-80.6246,3.9212857154519,-0.142857143,202227,FL,0.03
Logan,35.1304,-93.7116,3.9212857154519,0.142857143,202227,KY,0.03
Polk,26.4722,-81.8122,3.9168256638437,-0.142310789,202227,IA,0.03
Mahaska,41.2117,-92.4362,3.9137619365372,-0.141935484,202227,IA,0.03
Volusia,28.7676,-81.3522,3.9111742765601,-0.141618497,202227,FL,0.03
Harvey,37.9167,-97.4225,3.911056014833,-0.14160401,202227,KS,0.03
Nemaha,39.6428,-95.8231,3.9063346151753,-0.141025641,202227,NE,0.03
Franklin,29.7255,-85.0063,3.9030640625,0.140625,202227,TN,0.03
Burleigh,46.6757,-100.2975,3.8994878513828,-0.140186916,202227,ND,0.03
Grand Isle,44.6031,-72.9527,3.897962,-0.14,202227,VT,0.03
Mayes,36.1669,-95.3416,3.8917620226298,-0.139240506,202227,OK,0.03
Anderson,31.648,-95.5551,3.8912293836314,-0.139175258,202227,TX,0.03
Anderson,31.648,-95.5551,3.8888916675737,-0.138888889,202227,SC,0.03
Chase,38.1448,-96.5541,3.8854030731554,-0.138461538,202227,NE,0.03
Tulsa,35.9183,-95.7988,3.8836249268228,-0.138243716,202227,OK,0.03
Madison,30.3979,-83.2844,3.8824128563654,0.138095238,202227,IA,0.03
Woodbury,42.2408,-95.9486,3.8774441495342,-0.137486574,202227,IA,0.03
Delaware,36.1662,-94.8547,3.8755529414966,-0.137254902,202227,NY,0.03
Geary,39.0299,-96.8396,3.8714487199721,-0.136752137,202227,KS,0.03
Clermont,38.7926,-84.1382,3.8701899472754,-0.136597938,202227,OH,0.03
Riley,39.1153,-96.7101,3.869860737713,-0.13655761,202227,KS,0.03
Owen,38.4986,-84.8086,3.8682772697588,-0.136363636,202227,KY,0.03
Highland,38.2946,-79.4353,3.8582486475455,0.135135135,202227,OH,0.03
Sheboygan,43.5672,-87.9816,3.8578347110924,0.135084428,202227,WI,0.03
Osceola,27.8767,-81.05,3.8540057723705,0.134615385,202227,IA,0.03
Summit,39.4753,-106.0225,3.8517779588207,-0.134342479,202227,OH,0.03
Guernsey,39.852,-81.6576,3.8491505190827,-0.134020619,202227,OH,0.03
Fayette,29.6882,-96.9106,3.8453127068537,-0.133550489,202227,IA,0.03
Monmouth,40.1077,-74.0635,3.8452301269109,-0.133540373,202227,NJ,0.03
Lancaster,34.5578,-80.5546,3.8435399972789,-0.133333333,202227,SC,0.03
Virginia Beach,36.6224,-76.0249,3.8435399972789,-0.133333333,202227,VA,0.03
Worcester,38.0452,-75.4108,3.839448118664,-0.13283208,202227,MA,0.03
Anne Arundel,38.7361,-76.5835,3.8365628166056,-0.132478632,202227,MD,0.03
Kleberg,27.3217,-97.7787,3.8332717005776,-0.132075472,202227,TX,0.03
Shelby,31.7131,-93.9698,3.8268461385752,0.131288344,202227,TN,0.03
Worcester,38.0452,-75.4108,3.8241035718173,-0.130952381,202227,MD,0.03
Morris,32.9252,-94.7049,3.8226084634223,-0.130769231,202227,NJ,0.03
Anoka,45.0523,-93.2541,3.8194537071575,0.130382775,202227,MN,0.03
Crow Wing,46.2099,-94.2527,3.813305558579,-0.12962963,202227,MN,0.03
Kitsap,47.4179,-122.631,3.813305558579,-0.12962963,202227,WA,0.03
Midland,31.8693,-102.0317,3.8115270612245,0.129411765,202227,TX,0.03
Pulaski,32.2778,-83.4948,3.8109211321187,-0.129337539,202227,KY,0.03
Cambria,40.2799,-78.8032,3.8023654631042,-0.128289474,202227,PA,0.03
Norman,47.1588,-96.1309,3.8016769214024,-0.128205128,202227,MN,0.03
Pinellas,27.6705,-82.7119,3.7976419246619,-0.127710843,202227,FL,0.03
Blue Earth,43.8903,-94.1774,3.7950108277655,-0.127388535,202227,MN,0.03
Rutherford,35.2247,-81.8851,3.7940654523191,0.127272727,202227,TN,0.03
Lamoille,44.442,-72.7188,3.7898845039379,-0.126760563,202227,VT,0.03
Adams,31.4706,-91.4044,3.7888139687759,-0.126629423,202227,NE,0.03
Fairfax,38.6929,-77.204,3.7858196948258,-0.126262626,202227,VA,0.03
Defiance,41.2799,-84.3626,3.7848398539268,-0.126142596,202227,OH,0.03
Bonner,48.0223,-116.9909,3.7755125,-0.125,202227,ID,0.03
Kidder,46.8336,-99.6019,3.7755125,-0.125,202227,ND,0.03
San Bernardino,33.6736,-116.2951,3.7755125,-0.125,202227,CA,0.03
Wichita,33.8579,-98.8081,3.7755125,0.125,202227,KS,0.03
Blair,40.2711,-78.4588,3.7686640953842,-0.124161074,202227,PA,0.03
Escambia,30.3511,-87.2749,3.7657942872692,-0.123809524,202227,FL,0.03
Douglas,33.6634,-84.8639,3.764992781822,0.12371134,202227,WA,0.03
Falls Church,38.8842,-77.1718,3.762914813807,-0.12345679,202227,VA,0.03
Wayne,31.5168,-82.0397,3.7601909899859,-0.123123123,202227,NE,0.03
Bartow,34.12,-84.757,3.754687758434,-0.12244898,202227,GA,0.03
Alachua,29.4536,-82.1065,3.7515591573824,-0.122065728,202227,FL,0.03
Cowley,37.0676,-97.0357,3.750624394226,-0.12195122,202227,KS,0.03
Howard,32.1105,-101.3669,3.7485174628226,-0.121693122,202227,IA,0.03
Saunders,41.0541,-96.3904,3.7485174628226,-0.121693122,202227,NE,0.03
Caledonia,44.1978,-72.1104,3.7457917451159,-0.121359223,202227,VT,0.03
Noble,36.2753,-97.4526,3.7430152843364,-0.121019108,202227,IN,0.03
Big Horn,44.2507,-107.6053,3.7403258606615,-0.120689655,202227,WY,0.03
Spokane,47.2999,-117.1395,3.7390691940962,-0.120535714,202227,WA,0.03
Winneshiek,43.1339,-91.9134,3.7218065819549,-0.118421053,202227,IA,0.03
Johnson,32.2532,-97.3678,3.7154882367347,-0.117647059,202227,MO,0.03
Itasca,47.0739,-93.1964,3.7003242131042,0.115789474,202227,MN,0.03
Tom Green,31.2346,-100.5203,3.7000479098891,-0.115755627,202227,TX,0.03
Tuscaloosa,33.0618,-87.4422,3.6989815625,-0.115625,202227,AL,0.03
Greenup,38.4322,-82.8094,3.6970192276295,-0.115384615,202227,KY,0.03
Lawrence,31.4036,-90.1864,3.6970192276295,-0.115384615,202227,AL,0.03
Roberts,35.7193,-100.7027,3.6970192276295,-0.115384615,202227,SD,0.03
Henrico,37.4638,-77.398,3.6923677792895,-0.114814815,202227,VA,0.03
Koochiching,47.844,-94.2043,3.6880485690962,-0.114285714,202227,MN,0.03
Box Butte,42.1149,-102.888,3.6867809800355,-0.114130435,202227,NE,0.03
El Dorado,38.55,-120.7304,3.6850962055283,0.113924051,202227,CA,0.03
Carroll,33.3343,-89.757,3.67347125,-0.1125,202227,OH,0.03
Erie,41.3111,-82.6126,3.6647586088898,-0.111432706,202227,OH,0.03
Schuylkill,40.5545,-76.2038,3.6621333324263,-0.111111111,202227,PA,0.03
Tipton,35.4143,-89.8188,3.6621333324263,0.111111111,202227,TN,0.03
Clay,29.7683,-81.9907,3.6559371020108,-0.110352076,202227,MO,0.03
Kent,33.2518,-100.5825,3.653063,-0.11,202227,DE,0.03
Henry,31.3534,-85.3323,3.6487156835648,-0.109467456,202227,IA,0.03
Lawrence,31.4036,-90.1864,3.643334713757,-0.10880829,202227,PA,0.03
Travis,30.1204,-97.7433,3.6404156319632,-0.108450704,202227,TX,0.03
Hancock,30.2391,-89.4595,3.6402771089255,-0.108433735,202227,MS,0.03
Brown,31.5176,-99.1277,3.6391121815256,-0.108291032,202227,WI,0.03
Bell,30.7991,-97.4263,3.6360316541477,-0.107913669,202227,KY,0.03
Coshocton,40.1804,-81.8951,3.621999112877,-0.10619469,202227,OH,0.03
Sedgwick,37.5054,-97.3408,3.6083322956096,-0.104520512,202227,KS,0.03
Trumbull,41.1318,-80.7553,3.6046742065934,-0.104072398,202227,OH,0.03
Lincoln,31.3795,-90.2867,3.6022349064305,0.103773585,202227,SD,0.03
St. Tammany,30.2726,-89.729,3.5995793114708,-0.103448276,202227,LA,0.03
Cedar,37.6613,-94.0129,3.5989467455171,-0.103370787,202227,IA,0.03
Warren,32.3258,-90.8507,3.5979185860454,-0.103244838,202227,IA,0.03
Charles Mix,42.9925,-98.4251,3.5880897932528,-0.102040816,202227,SD,0.03
Fredericksburg,38.2995,-77.4772,3.5865472234316,0.101851852,202227,VA,0.03
Adair,35.6826,-94.7611,3.5852660996195,-0.101694915,202227,IA,0.03
Barnes,46.6536,-98.1943,3.58418515625,0.1015625,202227,ND,0.03
Kenton,38.8394,-84.5069,3.5824614836183,-0.101351351,202227,KY,0.03
Douglas,33.6634,-84.8639,3.5817632928959,-0.101265823,202227,CO,0.03
Kimball,41.2139,-103.9075,3.5817632928959,-0.101265823,202227,NE,0.03
Franklin,29.7255,-85.0063,3.5811482127308,-0.101190476,202227,IA,0.03
Ada,43.4599,-116.244,3.5768056473362,-0.100658514,202227,ID,0.03
St. Louis,38.4566,-90.3282,3.5762603552228,0.100591716,202227,MO,0.03
Ocean,39.5881,-74.3646,3.57143,-0.1,202227,NJ,0.03
Jackson,28.7671,-96.6492,3.57143,0.1,202227,OK,0.03
Los Angeles,33.332,-118.3437,3.57143,0.1,202227,CA,0.03
Spotsylvania,38.0641,-77.6586,3.57143,0.1,202227,VA,0.03
Waukesha,42.8809,-88.4674,3.5677361965463,-0.099547511,202227,WI,0.03
Rio Grande,37.5731,-106.1408,3.5660238382484,0.099337748,202227,CO,0.03
Caldwell,29.6826,-97.6499,3.565640424374,-0.09929078,202227,KY,0.03
Ashland,40.6361,-82.2356,3.5637287754332,-0.099056604,202227,OH,0.03
New Haven,41.2175,-73.0549,3.5629265597789,-0.098958333,202227,CT,0.03
Kennebec,44.1634,-69.9581,3.5619377882297,0.098837209,202227,ME,0.03
Gage,40.0451,-96.8019,3.5578450851215,-0.098335855,202227,NE,0.03
Hamilton,30.3387,-82.7765,3.5515195153808,0.097560976,202227,IA,0.03
Columbiana,40.6171,-80.6621,3.5450967778802,-0.096774194,202227,OH,0.03
Larimer,40.2993,-105.1055,3.5419240950086,0.096385542,202227,CO,0.03
Washington,30.1669,-96.3977,3.5400326910518,-0.096153846,202227,MD,0.03
Boise,43.6498,-116.4306,3.5400326910518,0.096153846,202227,ID,0.03
Richmond,33.2941,-82.203,3.5400326910518,0.096153846,202227,NC,0.03
Bryan,31.8962,-81.294,3.5366925544073,-0.095744681,202227,OK,0.03
Anderson,31.648,-95.5551,3.5359373920142,-0.095652174,202227,KY,0.03
Portsmouth,36.8035,-76.327,3.5325571409135,-0.095238095,202227,VA,0.03
Washington,30.1669,-96.3977,3.5325571409135,-0.095238095,202227,WI,0.03
Benton,34.6244,-89.1862,3.5325571409135,0.095238095,202227,MN,0.03
Wasco,44.8892,-120.7914,3.5325571409135,0.095238095,202227,OR,0.03
Dodge,31.938,-83.1837,3.5286795489236,-0.094763092,202227,NE,0.03
Barton,37.3995,-94.1027,3.5269879662242,0.094555874,202227,KS,0.03
McClain,34.8904,-97.0997,3.5264354332637,0.094488189,202227,OK,0.03
Harford,39.3982,-76.2743,3.520409375,-0.09375,202227,MD,0.03
Lincoln,31.3795,-90.2867,3.520409375,-0.09375,202227,MS,0.03
Dubuque,42.2775,-90.7507,3.5184215624702,-0.093506494,202227,IA,0.03
Wright,37.0687,-92.4082,3.5109611144369,-0.092592593,202227,MN,0.03
Payne,35.9768,-97.0441,3.5106867540872,-0.092558984,202227,OK,0.03
Clark,33.8309,-93.1263,3.5077446844406,-0.092198582,202227,NV,0.03
Rosebud,45.2862,-106.5095,3.5057482759559,0.091954023,202227,MT,0.03
Westmoreland,38.0181,-76.6861,3.5035475482355,-0.091684435,202227,PA,0.03
Leon,30.3193,-84.2674,3.5028832025549,-0.091603053,202227,FL,0.03
Butler,31.545,-86.7356,3.5017432956695,-0.091463415,202227,PA,0.03
Franklin,29.7255,-85.0063,3.4972181825603,-0.090909091,202227,VT,0.03
Haskell,33.0771,-99.959,3.4972181825603,-0.090909091,202227,OK,0.03
Kenai Peninsula,59.4495,-151.7009,3.4972181825603,-0.090909091,202227,AK,0.03
Mercer,37.2698,-81.2223,3.4972181825603,-0.090909091,202227,OH,0.03
Strafford,43.1174,-70.9197,3.4911352424222,0.090163934,202227,NH,0.03
Tuolumne,37.8108,-120.2988,3.4867165134386,-0.089622642,202227,CA,0.03
Champaign,39.9012,-88.0753,3.4828360479671,-0.089147287,202227,IL,0.03
Marion,28.9782,-81.8932,3.4825227731663,-0.089108911,202227,OH,0.03
Lebanon,40.2236,-76.538,3.4807266675737,-0.088888889,202227,PA,0.03
Jefferson,28.883,-81.3087,3.4753911755102,-0.088235294,202227,TX,0.03
Jefferson,28.883,-81.3087,3.4753911755102,0.088235294,202227,IA,0.03
Grundy,35.2402,-85.8228,3.4741471538966,-0.088082902,202227,IA,0.03
Van Zandt,32.4126,-95.6371,3.4711789453634,-0.087719298,202227,TX,0.03
Scotts Bluff,41.7469,-103.4164,3.4658350777541,-0.087064677,202227,NE,0.03
Santa Barbara,34.2628,-119.8486,3.4649521760426,-0.086956522,202227,CA,0.03
Somerset,37.9666,-76.0235,3.4649521760426,-0.086956522,202227,NJ,0.03
Blount,33.8168,-86.6008,3.4649521760426,0.086956522,202227,TN,0.03
Madison,30.3979,-83.2844,3.4621574784509,-0.086614173,202227,IN,0.03
Steele,43.8826,-93.3195,3.4605703696649,-0.086419753,202227,NE,0.03
Buena Vista,37.7396,-79.3523,3.4588327622801,-0.086206897,202227,IA,0.03
Morrison,45.5572,-94.2242,3.4588327622801,-0.086206897,202227,MN,0.03
Davidson,35.6196,-80.0959,3.4573193517665,-0.086021505,202227,TN,0.03
Tarrant,32.5773,-97.1416,3.4528179448805,-0.085470085,202227,TX,0.03
Graves,36.5603,-88.5692,3.4469050870979,-0.084745763,202227,KY,0.03
Stark,40.6514,-81.3076,3.4438784375,-0.084375,202227,OH,0.03
Fauquier,38.4674,-77.7044,3.441732714095,-0.08411215,202227,VA,0.03
Mercer,37.2698,-81.2223,3.441732714095,-0.08411215,202227,KY,0.03
Harris,29.5564,-95.144,3.4396003131956,-0.083850932,202227,TX,0.03
Harrison,30.3598,-89.1646,3.4353749972789,0.083333333,202227,IA,0.03
Chippewa,44.9226,-95.4845,3.4267639239473,-0.082278481,202227,WI,0.03
Crawford,32.7222,-84.0451,3.4249092303506,-0.082051282,202227,IA,0.03
York,34.8507,-80.9342,3.4197961800488,-0.081424936,202227,NE,0.03
Contra Costa,37.7562,-121.9522,3.4169891885273,0.081081081,202227,CA,0.03
Kent,33.2518,-100.5825,3.4157138688215,-0.080924855,202227,MI,0.03
Finney,37.906,-100.7523,3.4157138688215,0.080924855,202227,KS,0.03
Pierce,31.2931,-82.2617,3.4134306427913,-0.080645161,202227,NE,0.03
Comal,29.6643,-98.3118,3.4125469818929,-0.080536913,202227,TX,0.03
Bonneville,43.3861,-111.2527,3.4099101625232,-0.080213904,202227,ID,0.03
Craighead,35.7456,-90.5507,3.4061607343433,-0.079754601,202227,AR,0.03
Bennington,42.7562,-73.0679,3.4040652723764,0.079497908,202227,VT,0.03
Kanawha,38.0505,-81.4227,3.4029809494007,0.079365079,202227,WV,0.03
Muskegon,43.1443,-86.1388,3.3935703951203,-0.078212291,202227,MI,0.03
Pine,45.7575,-92.9624,3.3912012993374,-0.077922078,202227,MN,0.03
Cameron,25.9017,-97.4975,3.3884594836031,0.077586207,202227,TX,0.03
Seward,37.0216,-100.938,3.3842265023477,0.077067669,202227,NE,0.03
Pickaway,39.5535,-82.7763,3.3830461544741,-0.076923077,202227,OH,0.03
Cass,32.8485,-94.5795,3.3830461544741,0.076923077,202227,NE,0.03
Hall,34.1819,-83.9024,3.3830461544741,0.076923077,202227,GA,0.03
Jefferson,28.883,-81.3087,3.3830461544741,0.076923077,202227,OK,0.03
Portage,41.0328,-81.2484,3.3830461544741,0.076923077,202227,OH,0.03
Sacramento,38.157,-121.6066,3.3735318201608,0.075757576,202227,CA,0.03
St. Lawrence,44.1408,-74.9125,3.3673475,-0.075,202227,NY,0.03
Jackson,28.7671,-96.6492,3.3643014952178,-0.074626866,202227,FL,0.03
Montgomery,30.1199,-95.4247,3.3643014952178,-0.074626866,202227,OH,0.03
Grant,31.5,-92.4005,3.3597888882842,-0.074074074,202227,IN,0.03
Worcester,38.0452,-75.4108,3.3597888882842,-0.074074074,202227,RI,0.03
Platte,39.1776,-94.6321,3.3585472258643,-0.073921971,202227,MO,0.03
Outagamie,44.2425,-88.3564,3.3573106573436,-0.073770492,202227,WI,0.03
Dakota,42.2852,-96.7159,3.3566063196563,-0.073684211,202227,MN,0.03
Calvert,38.3293,-76.4651,3.3524146365356,-0.073170732,202227,MD,0.03
Kay,36.6806,-97.3063,3.3481602592709,-0.072649573,202227,OK,0.03
Canadian,35.3885,-97.7309,3.3473899049765,-0.072555205,202227,OK,0.03
Jackson,28.7671,-96.6492,3.3381928536443,-0.071428571,202227,KS,0.03
Madison,30.3979,-83.2844,3.3381928536443,-0.071428571,202227,OH,0.03
Citrus,28.7304,-82.3077,3.333032741918,-0.07079646,202227,FL,0.03
Collin,33.0139,-96.4377,3.3293459344124,-0.070344828,202227,TX,0.03
Stanislaus,37.3097,-121.0805,3.3279631611887,0.070175439,202227,CA,0.03
Yellowstone,45.6745,-108.769,3.3246325592786,-0.069767442,202227,MT,0.03
Adams,31.4706,-91.4044,3.3202515365777,0.069230769,202227,OH,0.03
Chesapeake,36.6434,-76.242,3.3180862049261,-0.068965517,202227,VA,0.03
Pocahontas,38.1109,-80.2641,3.3180862049261,-0.068965517,202227,IA,0.03
Wichita,33.8579,-98.8081,3.3180862049261,-0.068965517,202227,TX,0.03
Williamson,30.4521,-97.7688,3.3168754814132,-0.068817204,202227,TX,0.03
Black Hawk,42.3416,-92.1862,3.3054999310265,-0.067423705,202227,IA,0.03
Denton,33.0033,-96.882,3.3045528821036,-0.067307692,202227,TX,0.03
Queen Anne's,38.9394,-76.3371,3.3038932793003,-0.067226891,202227,MD,0.03
Essex,37.7681,-76.7117,3.2993200027211,0.066666667,202227,NH,0.03
Los Alamos,35.8275,-106.2039,3.2993200027211,0.066666667,202227,NM,0.03
Cass,32.8485,-94.5795,3.2963132634119,0.066298343,202227,MO,0.03
Bergen,40.7898,-74.1343,3.2945251088735,-0.066079295,202227,NJ,0.03
Broward,25.9812,-80.1484,3.2836589892233,-0.064748201,202227,FL,0.03
Kent,33.2518,-100.5825,3.2817645158657,-0.064516129,202227,RI,0.03
Pottawattamie,41.1916,-95.4314,3.2740726790939,-0.063573883,202227,IA,0.03
Trempealeau,44.0218,-91.4282,3.2734047578879,0.063492063,202227,WI,0.03
Becker,46.7565,-95.5212,3.2717645549987,0.063291139,202227,MN,0.03
Warren,32.3258,-90.8507,3.2713561287731,-0.063241107,202227,KY,0.03
Carroll,33.3343,-89.757,3.26530625,-0.0625,202227,MD,0.03
Nelson,37.5473,-78.8508,3.2574569268446,-0.061538462,202227,KY,0.03
Saline,34.4508,-92.6547,3.2541663740843,-0.061135371,202227,AR,0.03
Lake,28.5494,-81.7729,3.2475842808044,-0.060329068,202227,IL,0.03
Kalamazoo,42.1209,-85.5024,3.2402573680325,-0.059431525,202227,MI,0.03
Clay,29.7683,-81.9907,3.2393635601522,0.059322034,202227,MN,0.03
Greene,31.0867,-88.7977,3.2352941142857,0.058823529,202227,OH,0.03
Manitowoc,43.9217,-87.7673,3.2352941142857,0.058823529,202227,WI,0.03
Marion,28.9782,-81.8932,3.2323897182686,-0.058467742,202227,IA,0.03
Hennepin,44.8261,-93.3538,3.2316602131274,-0.058378378,202227,MN,0.03
Franklin,29.7255,-85.0063,3.2272252065236,-0.057835092,202227,OH,0.03
Lyon,37.0619,-88.1498,3.2215742845481,0.057142857,202227,MN,0.03
Madison,30.3979,-83.2844,3.2196780479177,-0.056910569,202227,KY,0.03
Penobscot,44.6991,-69.1025,3.2189238651206,-0.056818182,202227,ME,0.03
New York,40.7038,-74.0098,3.2186312271422,-0.056782334,202227,NY,0.03
Orange,28.3774,-81.1888,3.2171735882942,0.056603774,202227,IN,0.03
Dawson,32.5273,-101.716,3.2154364625441,-0.056390977,202227,NE,0.03
Clinton,36.6857,-85.1407,3.2150042239724,-0.056338028,202227,KY,0.03
Monroe,24.5552,-81.7816,3.2150042239724,0.056338028,202227,IN,0.03
Gregg,32.3836,-94.8653,3.2096267235671,0.055679287,202227,TX,0.03
Teton,43.4528,-110.7393,3.2086166702948,-0.055555556,202227,ID,0.03
Winona,43.9148,-91.394,3.2086166702948,-0.055555556,202227,MN,0.03
Marshall,33.9517,-96.712,3.2086166702948,0.055555556,202227,KS,0.03
City of Harrisonburg,38.4409,-78.8742,3.205045667363,-0.05511811,202227,VA,0.03
Lee,26.3398,-81.7787,3.2003709128015,-0.054545455,202227,IL,0.03
Taylor,29.6739,-83.3723,3.1963594590182,0.054054054,202227,TX,0.03
Ramsey,44.914,-93.1727,3.1918197499286,0.053497942,202227,MN,0.03
Guthrie,41.5033,-94.3186,3.1904759972789,0.053333333,202227,IA,0.03
Ouachita,33.4169,-92.777,3.1847473688507,0.052631579,202227,AR,0.03
Clarke,31.4258,-87.6822,3.1768202984261,0.051660517,202227,IA,0.03
Delaware,36.1662,-94.8547,3.1745581010567,-0.051383399,202227,OH,0.03
Fillmore,40.4065,-97.4427,3.1715948966264,-0.051020408,202227,NE,0.03
El Paso,31.4407,-106.0765,3.1706861825603,-0.050909091,202227,TX,0.03
Cass,32.8485,-94.5795,3.1701830538914,0.050847458,202227,ND,0.03
Fayette,29.6882,-96.9106,3.163265,0.05,202227,TN,0.03
Cleveland,33.7588,-92.1939,3.1610476354742,-0.049728374,202227,OK,0.03
Saint Johns,29.7051,-81.4909,3.1565737715624,0.049180328,202227,FL,0.03
Hopkins,33.0107,-95.4734,3.1463692792139,0.047930283,202227,KY,0.03
Brevard,27.8679,-80.5416,3.1455186960071,0.047826087,202227,FL,0.03
Jefferson,28.883,-81.3087,3.1438285745384,-0.047619048,202227,PA,0.03
Okaloosa,30.3935,-86.4958,3.1438285745384,-0.047619048,202227,FL,0.03
Ottawa,36.6296,-94.9432,3.1438285745384,-0.047619048,202227,KS,0.03
Pontotoc,34.1617,-89.1795,3.1438285745384,-0.047619048,202227,OK,0.03
Wapello,40.9261,-92.2268,3.1358300425856,-0.046639232,202227,IA,0.03
Platte,39.1776,-94.6321,3.1334347589363,-0.046345811,202227,NE,0.03
Benton,34.6244,-89.1862,3.1333992649079,-0.046341463,202227,IA,0.03
Otoe,40.5586,-96.0138,3.1322089659716,-0.046195652,202227,NE,0.03
Kearny,37.9382,-101.2713,3.1261590871985,-0.045454545,202227,KS,0.03
Lincoln,31.3795,-90.2867,3.1203838544906,-0.044747082,202227,NE,0.03
Saline,34.4508,-92.6547,3.1195330345481,0.044642857,202227,IL,0.03
Plymouth,41.6618,-70.8164,3.1191579798929,0.044596913,202227,IA,0.03
Rock Island,41.3277,-90.6384,3.111749025956,0.04368932,202227,IL,0.03
Cerro Gordo,42.9137,-93.4773,3.1108854712655,-0.043583535,202227,IA,0.03
Ada,43.4599,-116.244,3.1100260880213,-0.043478261,202227,UT,0.03
Allen,30.4607,-92.8693,3.1100260880213,0.043478261,202227,OH,0.03
Daviess,37.6206,-87.0591,3.1100260880213,0.043478261,202227,MO,0.03
Douglas,33.6634,-84.8639,3.1043320883117,-0.042780749,202227,OR,0.03
Delaware,36.1662,-94.8547,3.1024744640903,0.042553191,202227,PA,0.03
Powhatan,37.5421,-77.9189,3.0952375027211,0.041666667,202227,VA,0.03
Rhea,35.4484,-85.179,3.0952375027211,0.041666667,202227,TN,0.03
Monona,41.9186,-95.829,3.0860445983453,-0.040540541,202227,IA,0.03
City of Richmond,37.4955,-77.471,3.0845605348952,-0.040358744,202227,VA,0.03
Sioux,42.6872,-103.8827,3.0825676203029,-0.040114613,202227,IA,0.03
Chesterfield,34.4606,-80.2544,3.081632,-0.04,202227,VA,0.03
Butler,31.545,-86.7356,3.0773355245972,0.039473684,202227,NE,0.03
Champaign,39.9012,-88.0753,3.0773355245972,0.039473684,202227,OH,0.03
Hockley,33.4482,-102.4898,3.0731506496687,-0.038961039,202227,TX,0.03
Hamilton,30.3387,-82.7765,3.0690730731554,-0.038461538,202227,TN,0.03
Washington,30.1669,-96.3977,3.0690730731554,-0.038461538,202227,OH,0.03
Woods,36.5858,-98.8487,3.0690730731554,0.038461538,202227,OK,0.03
Kenosha,42.5001,-88.08,3.0597007476089,0.037313433,202227,WI,0.03
Montgomery,30.1199,-95.4247,3.0550295522462,0.036741214,202227,MD,0.03
Putnam,25.7964,-80.3849,3.0479538078887,0.035874439,202227,OH,0.03
Harlan,36.7521,-83.4629,3.0466464309038,0.035714286,202227,NE,0.03
Payette,43.959,-116.8048,3.0432164734694,-0.035294118,202227,ID,0.03
San Juan,36.142,-108.7064,3.0409743170015,0.035019455,202227,NM,0.03
Stanly,35.2106,-80.4407,3.0365931065447,-0.034482759,202227,NC,0.03
Dundy,40.0642,-101.9371,3.0365931065447,0.034482759,202227,NE,0.03
Mills,31.4458,-98.5744,3.0365931065447,0.034482759,202227,IA,0.03
Johnson,32.2532,-97.3678,3.0303257656229,-0.033715013,202227,KS,0.03
Horry,33.6211,-78.9632,3.0184322620145,0.032258065,202227,SC,0.03
Cecil,39.3662,-75.8845,3.0142523830256,-0.031746032,202227,MD,0.03
Dakota,42.2852,-96.7159,3.0123184074593,0.031509121,202227,NE,0.03
Canyon,43.3784,-116.5489,3.010203125,-0.03125,202227,ID,0.03
Gregory,43.0351,-98.8308,3.010203125,-0.03125,202227,SD,0.03
Jefferson,28.883,-81.3087,3.0086186366333,0.031055901,202227,OH,0.03
Wyoming,37.4909,-81.3226,3.0075731954555,0.030927835,202227,PA,0.03
Clay,29.7683,-81.9907,3.0049969396085,-0.030612245,202227,IA,0.03
Knox,33.4183,-99.8137,3.0035482640639,-0.030434783,202227,IN,0.03
Atlantic,39.3194,-74.5356,3.002472724799,0.03030303,202227,NJ,0.03
Neshoba,32.6439,-89.112,3,-0.029850746,202227,MS,0.03
Hall,34.1819,-83.9024,3,-0.029831933,202227,NE,0.03
Adair,35.6826,-94.7611,3,-0.029411765,202227,KY,0.03
Orange,28.3774,-81.1888,3,0.028571429,202227,CA,0.03
Rapides,31.0066,-92.5526,3,0.028571429,202227,LA,0.03
Hardin,30.1491,-94.3733,3,-0.027777778,202227,KY,0.03
La Salle,28.0405,-99.3563,3,-0.027777778,202227,LA,0.03
Wood,32.6439,-95.222,3,-0.027777778,202227,OH,0.03
Humboldt,40.0231,-124.0139,3,0.027522936,202227,IA,0.03
Cobb,33.7838,-84.5952,3,-0.027027027,202227,GA,0.03
Union,29.9315,-82.4255,3,-0.027027027,202227,MS,0.03
Butler,31.545,-86.7356,3,-0.026315789,202227,KY,0.03
Clark,33.8309,-93.1263,3,0.026315789,202227,IN,0.03
Burlington,39.5923,-74.451,3,-0.025641026,202227,NJ,0.03
Washington,30.1669,-96.3977,3,0.025641026,202227,NE,0.03
Shelby,31.7131,-93.9698,3,0.025531915,202227,IA,0.03
Jefferson,28.883,-81.3087,3,-0.025492468,202227,KY,0.03
Wicomico,38.2672,-75.9021,3,0.024316109,202227,MD,0.03
Buffalo,40.6861,-99.0693,3,-0.023809524,202227,NE,0.03
New Castle,39.3819,-75.6834,3,-0.023728814,202227,DE,0.03
Jones,31.4555,-89.302,3,-0.023668639,202227,IA,0.03
Iron,37.2955,-90.6279,3,0.023255814,202227,UT,0.03
Loudoun,38.8976,-77.5092,3,0.022727273,202227,VA,0.03
Sherburne,45.3136,-93.5814,3,0.022508039,202227,MN,0.03
Sarpy,41.0765,-96.1438,3,0.02215478,202227,NE,0.03
Lincoln,31.3795,-90.2867,3,-0.020942408,202227,WI,0.03
Buchanan,37.1134,-82.1501,3,-0.020512821,202227,IA,0.03
Oakland,42.4567,-83.659,3,-0.020408163,202227,MI,0.03
Montgomery,30.1199,-95.4247,3,0.020408163,202227,AL,0.03
Winchester,39.1676,-78.1686,3,0.020408163,202227,VA,0.03
Laramie,41.0428,-104.2765,3,-0.019607843,202227,WY,0.03
St. Louis,38.4566,-90.3282,3,-0.019543974,202227,MN,0.03
Racine,42.666,-88.2749,3,-0.018561485,202227,WI,0.03
Berrien,31.0825,-83.2143,3,0.018181818,202227,MI,0.03
Douglas,33.6634,-84.8639,3,-0.017857143,202227,WI,0.03
Sheridan,39.3322,-100.4758,3,0.016949153,202227,NE,0.03
Salem,37.2853,-80.0692,3,-0.016528926,202227,VA,0.03
Holt,39.9809,-95.1234,3,-0.016129032,202227,NE,0.03
San Diego,32.5626,-117.043,3,0.016129032,202227,CA,0.03
Venango,41.2002,-79.8734,3,-0.015873016,202227,PA,0.03
Butler,31.545,-86.7356,3,-0.015625,202227,IA,0.03
Adams,31.4706,-91.4044,3,-0.015384615,202227,IN,0.03
Jackson,28.7671,-96.6492,3,-0.015151515,202227,IA,0.03
Fayette,29.6882,-96.9106,3,-0.014925373,202227,KY,0.03
Major,36.2341,-98.3374,3,-0.014925373,202227,OK,0.03
Tolland,41.629,-72.3646,3,0.014705882,202227,CT,0.03
Palm Beach,26.3446,-80.2109,3,-0.014367816,202227,FL,0.03
Richmond,33.2941,-82.203,3,-0.014285714,202227,NY,0.03
Marshall,33.9517,-96.712,3,-0.013986014,202227,KY,0.03
Erie,41.3111,-82.6126,3,-0.013888889,202227,NY,0.03
Wood,32.6439,-95.222,3,-0.0125,202227,WI,0.03
Shelby,31.7131,-93.9698,3,-0.011627907,202227,AL,0.03
Jasper,30.3129,-94.0731,3,0.011299435,202227,MO,0.03
Murray,34.402,-97.051,3,-0.010204082,202227,GA,0.03
Pennington,43.7994,-102.5353,3,-0.010050251,202227,SD,0.03
Stearns,45.3436,-94.3028,3,-0.009045226,202227,MN,0.03
Barry,36.5276,-93.9359,3,0.008928571,202227,MO,0.03
Nacogdoches,31.3601,-94.4064,3,0.007936508,202227,TX,0.03
Lancaster,34.5578,-80.5546,3,-0.007751938,202227,PA,0.03
Philadelphia,39.8893,-75.1782,3,-0.007751938,202227,PA,0.03
Oldham,35.1916,-102.2118,3,-0.006993007,202227,KY,0.03
Ford,37.553,-99.6325,3,0.006651885,202227,KS,0.03
Kane,37.0475,-112.5263,3,-0.006507592,202227,IL,0.03
Etowah,33.8979,-86.0245,3,0.005988024,202227,AL,0.03
Franklin,29.7255,-85.0063,3,-0.005698006,202227,PA,0.03
Des Moines,40.8087,-91.117,3,-0.005571031,202227,IA,0.03
McLeod,44.7259,-94.4516,3,-0.005464481,202227,MN,0.03
Denver,39.6431,-104.8987,3,-0.005181347,202227,CO,0.03
Erie,41.3111,-82.6126,3,0.005167959,202227,PA,0.03
Milwaukee,42.8892,-87.9027,3,0.004761905,202227,WI,0.03
Scott,32.2745,-89.5627,3,0.004539559,202227,IA,0.03
Woodward,36.214,-99.1145,3,-0.004149378,202227,OK,0.03
Madison,30.3979,-83.2844,3,-0.001495886,202227,NE,0.03
Ada,43.4599,-116.244,3,0,202227,WA,0.03
Belmont,39.8679,-80.8168,3,0,202227,OH,0.03
Bronx,40.8085,-73.9198,3,0,202227,NY,0.03
Broomfield,39.9619,-105.0148,3,0,202227,CO,0.03
Cache,41.56,-111.8297,3,0,202227,UT,0.03
Cherokee,31.4885,-94.9399,3,0,202227,TX,0.03
Clay,29.7683,-81.9907,3,0,202227,NE,0.03
Clayton,33.4429,-84.3136,3,0,202227,GA,0.03
Danville,36.5779,-79.4411,3,0,202227,VA,0.03
Dickinson,38.6767,-96.8941,3,0,202227,IA,0.03
Dunn,44.7152,-91.9822,3,0,202227,WI,0.03
Elmore,32.4995,-86.3641,3,0,202227,ID,0.03
Essex,37.7681,-76.7117,3,0,202227,ME,0.03
Fond du Lac,43.6042,-88.2729,3,0,202227,WI,0.03
Fort Bend,29.3327,-95.7702,3,0,202227,TX,0.03
Franklin,29.7255,-85.0063,3,0,202227,VA,0.03
Gibson,35.8081,-88.7627,3,0,202227,TN,0.03
King,33.6206,-100.3229,3,0,202227,WA,0.03
Knox,33.4183,-99.8137,3,0,202227,ME,0.03
Marion,28.9782,-81.8932,3,0,202227,IN,0.03
Montgomery,30.1199,-95.4247,3,0,202227,IA,0.03
Osage,36.1576,-96.0311,3,0,202227,OK,0.03
Steuben,41.5328,-85.0811,3,0,202227,NY,0.03
Wood,32.6439,-95.222,3,0,202227,WV,0.03
