county,lat,lon,bubble,change,week,state,telemed
Caddo Parish,32.3161,-93.8881,16,8,202247,LA,0.02
Elmore,32.4995,-86.3641,16,2,202247,ID,0.02
Washington,30.1669,-96.3977,16,2,202247,ID,0.02
Winneshiek,43.1339,-91.9134,14.5778103442646,1.448275862,202247,IA,0.02
Tompkins,42.3621,-76.592,10.9184,1,202247,NY,0.02
Washington,30.1669,-96.3977,10.9184,1,202247,OR,0.02
Haines,59.2519,-135.542,10.5782624972789,-0.958333333,202247,AK,0.02
Logan,35.1304,-93.7116,10.5259336544741,-0.951923077,202247,OK,0.02
Cameron,25.9017,-97.4975,10.3023018877166,0.924528302,202247,TX,0.02
Pierce,31.2931,-82.2617,10.2085478239574,-0.913043478,202247,WI,0.02
Union,29.9315,-82.4255,10.1762818174397,0.909090909,202247,MS,0.02
Kearny,37.9382,-101.2713,10.1409428590865,-0.904761905,202247,KS,0.02
Weld,40.0597,-105.0686,9.4778176489796,-0.823529412,202247,CO,0.02
Gwinnett,33.8178,-84.0229,9.0476437472789,-0.770833333,202247,GA,0.02
Jefferson,28.883,-81.3087,9.0345615365777,-0.769230769,202247,IA,0.02
Bay,29.9395,-85.4096,9.0136300027211,0.766666667,202247,FL,0.02
Benton,34.6244,-89.1862,8.9976235265306,-0.764705882,202247,AR,0.02
Dodge,31.938,-83.1837,8.8383283678964,-0.745192308,202247,WI,0.02
Murray,34.402,-97.051,8.8108813696145,-0.741830065,202247,OK,0.02
Calumet,43.9446,-88.0911,8.7415199972789,-0.733333333,202247,WI,0.02
Stanislaus,37.3097,-121.0805,8.6857025600558,-0.726495726,202247,CA,0.02
Elmore,32.4995,-86.3641,8.6757351625925,-0.725274725,202247,AL,0.02
Tipton,35.4143,-89.8188,8.5436218174397,-0.709090909,202247,TN,0.02
Talladega,33.1717,-86.2713,8.4167435475971,-0.693548387,202247,AL,0.02
Baxter,36.0068,-92.3917,8.3816735944688,-0.689252336,202247,AR,0.02
Bronx,40.8085,-73.9198,8.36736875,-0.6875,202247,NY,0.02
Cherry,42.2403,-100.2595,8.3405157868958,-0.684210526,202247,NE,0.02
McIntosh,31.3826,-81.4312,8.2850774206715,-0.677419355,202247,OK,0.02
Lancaster,34.5578,-80.5546,8.1973000027211,-0.666666667,202247,SC,0.02
Mendocino,38.8251,-123.5399,8.1973000027211,-0.666666667,202247,CA,0.02
Mercer,37.2698,-81.2223,8.1973000027211,-0.666666667,202247,OH,0.02
Utah,39.953,-111.9008,8.1973000027211,-0.666666667,202247,UT,0.02
Westchester,40.9002,-73.781,8.1973000027211,0.666666667,202247,CT,0.02
Wood,32.6439,-95.222,8.1639122689871,-0.662576687,202247,TX,0.02
Cobb,33.7838,-84.5952,8.1374956016147,-0.659340659,202247,GA,0.02
Delaware,36.1662,-94.8547,8.0707372117703,-0.651162791,202247,NY,0.02
McHenry,42.1641,-88.3064,8.0400109832252,-0.647398844,202247,IL,0.02
Kit Carson,39.3087,-102.5979,8.0372352979592,-0.647058824,202247,CO,0.02
Fayette,29.6882,-96.9106,7.979612,-0.64,202247,TN,0.02
Antelope,41.9732,-98.0751,7.9499272697588,-0.636363636,202247,NE,0.02
Santa Fe,35.0776,-106.1872,7.8833269214024,-0.628205128,202247,NM,0.02
Mesa,38.6784,-108.9719,7.877170585034,-0.62745098,202247,CO,0.02
Muskingum,39.8,-81.891,7.8571625,-0.625,202247,OH,0.02
Sullivan,36.4195,-82.304,7.7786692276295,-0.615384615,202247,NY,0.02
Pierce,31.2931,-82.2617,7.7786692276295,0.615384615,202247,NE,0.02
Grant,31.5,-92.4005,7.7676526338704,-0.614035088,202247,IN,0.02
Franklin,29.7255,-85.0063,7.7437833324263,-0.611111111,202247,MA,0.02
Madison,30.3979,-83.2844,7.7143743992756,-0.607508532,202247,MS,0.02
Butler,31.545,-86.7356,7.6910488389179,-0.604651163,202247,KY,0.02
Dundy,40.0642,-101.9371,7.65308,-0.6,202247,NE,0.02
Santa Cruz,31.377,-110.9435,7.65308,-0.6,202247,CA,0.02
Snyder,40.6991,-77.3758,7.65308,-0.6,202247,PA,0.02
Vermilion,29.9466,-92.2416,7.65308,-0.6,202247,LA,0.02
Windsor,43.2831,-72.6031,7.65308,-0.6,202247,VT,0.02
Curry,34.3841,-103.3154,7.6244368415324,-0.596491228,202247,OR,0.02
Noble,36.2753,-97.4526,7.602059375,-0.59375,202247,OH,0.02
Hughes,34.878,-96.271,7.5977355933587,-0.593220339,202247,SD,0.02
Fulton,33.5242,-84.679,7.569353848247,-0.58974359,202247,OH,0.02
McLennan,31.2533,-97.41,7.545135541238,-0.58677686,202247,TX,0.02
Pike,31.0217,-90.479,7.5431894268446,-0.586538462,202247,OH,0.02
Titus,33.1568,-94.9683,7.4986391885273,-0.581081081,202247,TX,0.02
Carter,34.1364,-97.4273,7.489814,-0.58,202247,OK,0.02
Orangeburg,33.2628,-80.8059,7.4812210491944,-0.578947368,202247,SC,0.02
Washington,30.1669,-96.3977,7.4610023510204,-0.576470588,202247,NE,0.02
Madison,30.3979,-83.2844,7.4198428536443,-0.571428571,202247,IL,0.02
Oscoda,44.6001,-84.2931,7.4198428536443,-0.571428571,202247,MI,0.02
Pottawatomie,34.9849,-96.8763,7.4036458297052,-0.569444444,202247,KS,0.02
Fort Bend,29.3327,-95.7702,7.3691391279503,-0.565217391,202247,TX,0.02
Manatee,27.3648,-82.1849,7.3649635265306,-0.564705882,202247,FL,0.02
Washington,30.1669,-96.3977,7.326548,-0.56,202247,AR,0.02
Rankin,32.0627,-89.9929,7.2902666702948,-0.555555556,202247,MS,0.02
Benton,34.6244,-89.1862,7.2902666702948,0.555555556,202247,MN,0.02
Contra Costa,37.7562,-121.9522,7.2826445399417,-0.554621849,202247,CA,0.02
Oktibbeha,33.357,-89.0473,7.2218113181363,0.547169811,202247,MS,0.02
Finney,37.906,-100.7523,7.2154597972649,-0.546391753,202247,KS,0.02
Cheshire,42.7544,-72.019,7.2078090871985,-0.545454545,202247,NH,0.02
Anderson,31.648,-95.5551,7.1787877067153,-0.541899441,202247,TX,0.02
Powhatan,37.5421,-77.9189,7.1768875027211,-0.541666667,202247,VA,0.02
Creek,35.7551,-96.5658,7.1755430806808,-0.541501976,202247,OK,0.02
Suffolk,40.6443,-73.1613,7.1507230731554,-0.538461538,202247,MA,0.02
Walton,30.2835,-86.0305,7.1507230731554,-0.538461538,202247,FL,0.02
Polk,26.4722,-81.8122,7.1395430256404,-0.537091988,202247,FL,0.02
Duval,27.3849,-98.309,7.1250449803505,-0.535315985,202247,FL,0.02
Saint Johns,29.7051,-81.4909,7.1235686475455,-0.535135135,202247,FL,0.02
Chittenden,44.3113,-73.228,7.1223903323336,-0.534990792,202247,VT,0.02
Wichita,33.8579,-98.8081,7.1088599972789,-0.533333333,202247,KS,0.02
Jefferson,28.883,-81.3087,7.0954461280253,-0.531690141,202247,AL,0.02
Leon,30.3193,-84.2674,7.0872483788993,-0.530685921,202247,FL,0.02
DeKalb,33.6823,-84.161,7.0515736803437,-0.526315789,202247,GA,0.02
Humboldt,40.0231,-124.0139,7.0311142872692,-0.523809524,202247,CA,0.02
Rowan,35.5435,-80.6129,7.0311142872692,-0.523809524,202247,NC,0.02
Washington,30.1669,-96.3977,7.014213039929,-0.52173913,202247,IA,0.02
Jefferson,28.883,-81.3087,7.0101019285793,-0.521235521,202247,CO,0.02
Spotsylvania,38.0641,-77.6586,7.0044890394185,-0.520547945,202247,VA,0.02
Canadian,35.3885,-97.7309,7.0035749294111,-0.520435967,202247,OK,0.02
Comanche,31.7629,-98.3695,6.9978677622986,-0.519736842,202247,OK,0.02
Greenup,38.4322,-82.8094,6.9808082367347,-0.517647059,202247,KY,0.02
Stafford,37.9433,-98.9481,6.9604363623995,-0.515151515,202247,VA,0.02
Hamilton,30.3387,-82.7765,6.9305810355149,-0.511494253,202247,IA,0.02
Russell,32.1468,-85.0738,6.9261291961865,-0.510948905,202247,KY,0.02
Lamoille,44.442,-72.7188,6.908357896169,-0.50877193,202247,VT,0.02
Anderson,31.648,-95.5551,6.887140744772,-0.50617284,202247,SC,0.02
Kimball,41.2139,-103.9075,6.887140744772,-0.50617284,202247,NE,0.02
Tuscaloosa,33.0618,-87.4422,6.887140744772,-0.50617284,202247,AL,0.02
Guthrie,41.5033,-94.3186,6.8847694122449,-0.505882353,202247,IA,0.02
Williamson,30.4521,-97.7688,6.878314666445,-0.50509165,202247,TX,0.02
Columbia,29.9207,-82.6879,6.8756228590865,-0.504761905,202247,PA,0.02
Matanuska-Susitna Borough,61.5214,-149.9544,6.8722426079858,-0.504347826,202247,AK,0.02
Dixon,42.2733,-96.8776,6.83675,-0.5,202247,NE,0.02
Essex,37.7681,-76.7117,6.83675,-0.5,202247,ME,0.02
Knox,33.4183,-99.8137,6.83675,-0.5,202247,ME,0.02
Madison,30.3979,-83.2844,6.83675,-0.5,202247,LA,0.02
Middlesex,37.5512,-76.3844,6.83675,-0.5,202247,MA,0.02
Okmulgee,35.4551,-95.9498,6.83675,-0.5,202247,OK,0.02
Washington,30.1669,-96.3977,6.83675,-0.5,202247,OH,0.02
Lake,28.5494,-81.7729,6.83675,0.5,202247,OH,0.02
Franklin,29.7255,-85.0063,6.7892889574751,-0.494186047,202247,TN,0.02
Pine,45.7575,-92.9624,6.7887305877551,-0.494117647,202247,MN,0.02
Cabarrus,35.2477,-80.5319,6.786359255228,-0.49382716,202247,NC,0.02
Manassas,38.7447,-77.4872,6.7460466675737,-0.488888889,202247,VA,0.02
Dane,42.8669,-89.5377,6.7432770966194,-0.488549618,202247,WI,0.02
Santa Barbara,34.2628,-119.8486,6.708396230009,-0.48427673,202247,CA,0.02
Palm Beach,26.3446,-80.2109,6.7065660426389,-0.484052533,202247,FL,0.02
Jefferson,28.883,-81.3087,6.7050838730744,-0.483870968,202247,OK,0.02
St. Lucie,27.2606,-80.4771,6.6917167550399,-0.482233503,202247,FL,0.02
Carroll,33.3343,-89.757,6.673484,-0.48,202247,IL,0.02
Jessamine,37.8602,-84.6714,6.673484,-0.48,202247,KY,0.02
Johnson,32.2532,-97.3678,6.673484,-0.48,202247,NE,0.02
Lee,26.3398,-81.7787,6.6636765052571,-0.478798587,202247,FL,0.02
Lowndes,30.6906,-83.1753,6.6460186914362,-0.476635514,202247,MS,0.02
Jackson,28.7671,-96.6492,6.6423857127308,-0.476190476,202247,GA,0.02
Clark,33.8309,-93.1263,6.6369489549308,-0.475524476,202247,WA,0.02
Travis,30.1204,-97.7433,6.6369489549308,-0.475524476,202247,TX,0.02
El Paso,31.4407,-106.0765,6.6326675,-0.475,202247,CO,0.02
Grady,30.7462,-84.3125,6.6300841747352,-0.474683544,202247,OK,0.02
Big Horn,44.2507,-107.6053,6.6292084730543,-0.474576271,202247,WY,0.02
Muskogee,35.3631,-95.2607,6.6289569128015,-0.474545455,202247,OK,0.02
Custer,35.5115,-98.9795,6.6256301721323,-0.474137931,202247,OK,0.02
Lawrence,31.4036,-90.1864,6.6157220239004,-0.472924188,202247,OH,0.02
Bexar,29.1733,-98.4723,6.6099916648526,-0.472222222,202247,TX,0.02
Greene,31.0867,-88.7977,6.6088406068994,-0.472081218,202247,IA,0.02
Chippewa,44.9226,-95.4845,6.6076345119776,-0.471933472,202247,WI,0.02
Osage,36.1576,-96.0311,6.6035128536443,-0.471428571,202247,KS,0.02
Woodward,36.214,-99.1145,6.6001326107069,-0.471014493,202247,OK,0.02
Kleberg,27.3217,-97.7787,6.5966529387755,-0.470588235,202247,TX,0.02
McKinley,35.0684,-108.8336,6.5855715365777,-0.469230769,202247,NM,0.02
San Mateo,37.2065,-122.3649,6.581646875,-0.46875,202247,CA,0.02
Carroll,33.3343,-89.757,6.5432980426304,-0.464052288,202247,OH,0.02
Lake,28.5494,-81.7729,6.538819346045,-0.46350365,202247,CA,0.02
Burlington,39.5923,-74.451,6.5227769268446,-0.461538462,202247,NJ,0.02
Granville,35.6555,-78.4611,6.5227769268446,-0.461538462,202247,NC,0.02
Holmes,30.7041,-85.9546,6.5227769268446,-0.461538462,202247,FL,0.02
Nolan,32.082,-100.3111,6.5227769268446,-0.461538462,202247,TX,0.02
Stanly,35.2106,-80.4407,6.5227769268446,0.461538462,202247,NC,0.02
Neshoba,32.6439,-89.112,6.5035540778009,-0.459183673,202247,MS,0.02
Lawrence,31.4036,-90.1864,6.5030301898601,-0.459119497,202247,PA,0.02
Jefferson,28.883,-81.3087,6.4966124972789,-0.458333333,202247,PA,0.02
Monroe,24.5552,-81.7816,6.4966124972789,-0.458333333,202247,FL,0.02
Hardin,30.1491,-94.3733,6.4746681427913,-0.455645161,202247,KY,0.02
Marion,28.9782,-81.8932,6.4540953125,-0.453125,202247,KY,0.02
Osceola,27.8767,-81.05,6.4417516110599,-0.451612903,202247,IA,0.02
Ouachita,33.4169,-92.777,6.4417516110599,-0.451612903,202247,AR,0.02
Wayne,31.5168,-82.0397,6.4352762284376,-0.450819672,202247,OH,0.02
Saline,34.4508,-92.6547,6.4343337999425,0.450704225,202247,IL,0.02
City of Richmond,37.4955,-77.471,6.428585,-0.45,202247,VA,0.02
Martin,27.0595,-80.1364,6.3994303536443,-0.446428571,202247,MN,0.02
Roberts,35.7193,-100.7027,6.3994303536443,-0.446428571,202247,SD,0.02
Mercer,37.2698,-81.2223,6.3832333297052,-0.444444444,202247,NJ,0.02
Arkansas,34.0893,-91.2437,6.3746764117058,-0.443396226,202247,AR,0.02
Pinellas,27.6705,-82.7119,6.3735220557794,-0.443254818,202247,FL,0.02
Hernando,28.4409,-82.4612,6.3665138219129,-0.442396313,202247,FL,0.02
Barron,45.2462,-91.9742,6.3605575027211,-0.441666667,202247,WI,0.02
Lincoln,31.3795,-90.2867,6.3550645977437,-0.440993789,202247,OK,0.02
Douglas,33.6634,-84.8639,6.346952,-0.44,202247,GA,0.02
Okaloosa,30.3935,-86.4958,6.3446361697496,-0.439716312,202247,FL,0.02
Clark,33.8309,-93.1263,6.338987802887,-0.43902439,202247,KY,0.02
Stanton,37.5451,-101.9109,6.338987802887,-0.43902439,202247,NE,0.02
Jackson,28.7671,-96.6492,6.3193577439494,-0.436619718,202247,FL,0.02
Sunflower,33.349,-90.6051,6.3085364734694,-0.435294118,202247,MS,0.02
Maricopa,32.9306,-112.7468,6.2806127711207,-0.431873479,202247,AZ,0.02
Loudoun,38.8976,-77.5092,6.2801613651206,-0.431818182,202247,VA,0.02
Volusia,28.7676,-81.3522,6.2761378296533,-0.431325301,202247,FL,0.02
Kitsap,47.4179,-122.631,6.2726195126597,-0.430894309,202247,WA,0.02
Forrest,31.0591,-89.0796,6.2536571463557,-0.428571429,202247,MS,0.02
Garfield,36.1962,-97.8805,6.2536571463557,-0.428571429,202247,NE,0.02
Gloucester,37.2585,-76.4959,6.2536571463557,0.428571429,202247,VA,0.02
Ness,38.4388,-99.9029,6.2288446817195,-0.425531915,202247,KS,0.02
Houston,31.0507,-85.3154,6.2183181798392,-0.424242424,202247,GA,0.02
Lebanon,40.2236,-76.538,6.2183181798392,-0.424242424,202247,PA,0.02
Escambia,30.3511,-87.2749,6.2156293439219,-0.423913043,202247,FL,0.02
Medina,29.1404,-99.1428,6.2088038455259,-0.423076923,202247,OH,0.02
Ottawa,36.6296,-94.9432,6.2088038455259,-0.423076923,202247,OK,0.02
Mecklenburg,35.0552,-80.8195,6.2078165107175,-0.422955975,202247,NC,0.02
Butler,31.545,-86.7356,6.1922789508056,-0.421052632,202247,IA,0.02
Kenton,38.8394,-84.5069,6.1854228726878,-0.420232766,202247,KY,0.02
Shelby,31.7131,-93.9698,6.1784193572087,-0.419354839,202247,OH,0.02
Arlington,38.8415,-77.0905,6.1748608114727,-0.418918919,202247,VA,0.02
Hanover,37.6281,-77.3395,6.1666283601584,-0.417910448,202247,VA,0.02
Clark,33.8309,-93.1263,6.1564750027211,-0.416666667,202247,IN,0.02
Pottawatomie,34.9849,-96.8763,6.1564750027211,-0.416666667,202247,OK,0.02
Harlan,36.7521,-83.4629,6.143639625722,-0.41509434,202247,NE,0.02
San Juan,36.142,-108.7064,6.1398829240418,-0.414634146,202247,NM,0.02
Rogers,36.1503,-95.5205,6.1370385690962,-0.414285714,202247,OK,0.02
San Luis Obispo,35.0298,-120.4894,6.1330172377199,-0.413793103,202247,CA,0.02
Koochiching,47.844,-94.2043,6.1240809548429,-0.412698413,202247,MN,0.02
Pima,31.4887,-111.5421,6.1240809548429,-0.412698413,202247,AZ,0.02
Garfield,36.1962,-97.8805,6.12246125,-0.4125,202247,OK,0.02
Manitowoc,43.9217,-87.7673,6.1164588244898,-0.411764706,202247,WI,0.02
Marshall,33.9517,-96.712,6.1164588244898,-0.411764706,202247,WV,0.02
Washington,30.1669,-96.3977,6.1164588244898,0.411764706,202247,KS,0.02
Wasco,44.8892,-120.7914,6.104146151753,-0.41025641,202247,OR,0.02
Kenai Peninsula,59.4495,-151.7009,6.0894056319632,-0.408450704,202247,AK,0.02
Garvin,34.4719,-97.3879,6.0889667974451,-0.408396947,202247,OK,0.02
Potter,35.1751,-101.7976,6.0870591811745,-0.408163265,202247,PA,0.02
Bryan,31.8962,-81.294,6.0848671065521,-0.407894737,202247,OK,0.02
Carroll,33.3343,-89.757,6.0808888855631,-0.407407407,202247,MD,0.02
Pike,31.0217,-90.479,6.0808888855631,-0.407407407,202247,KY,0.02
Worcester,38.0452,-75.4108,6.0787292845481,-0.407142857,202247,MA,0.02
Winston,32.9789,-89.1221,6.0742439593631,-0.406593407,202247,AL,0.02
Jasper,30.3129,-94.0731,6.0677434745933,-0.405797101,202247,TX,0.02
Kings,35.9877,-120.1227,6.0602409774017,-0.404878049,202247,NY,0.02
Randolph,33.1492,-85.5513,6.0571089885806,-0.404494382,202247,IL,0.02
Saratoga,42.81,-73.6995,6.0539678078837,-0.404109589,202247,NY,0.02
Shasta,40.3691,-122.3375,6.0518173089482,-0.403846154,202247,CA,0.02
Monterey,35.8093,-120.9728,6.0381663039929,-0.402173913,202247,CA,0.02
Fayette,29.6882,-96.9106,6.0356785056647,-0.401869159,202247,KY,0.02
Fairfield,34.2717,-81.2712,6.02042,-0.4,202247,CT,0.02
Union,29.9315,-82.4255,6.02042,-0.4,202247,NC,0.02
St. Clair,33.5296,-86.3007,6.02042,0.4,202247,IL,0.02
Boone,34.7399,-92.34,6.0126944814524,-0.399053628,202247,KY,0.02
Davidson,35.6196,-80.0959,6.0074107610375,-0.398406375,202247,TN,0.02
Midland,31.8693,-102.0317,6.0053027765684,-0.398148148,202247,TX,0.02
Addison,43.7837,-73.2949,6.0007493939513,-0.397590361,202247,VT,0.02
Covington,31.0105,-86.3497,6.0007493939513,-0.397590361,202247,AL,0.02
Indian River,27.5885,-80.3923,5.9922706885292,-0.396551724,202247,FL,0.02
Etowah,33.8979,-86.0245,5.9813143725773,-0.395209581,202247,AL,0.02
White Pine,38.8641,-115.0069,5.9774552622986,-0.394736842,202247,NV,0.02
Milwaukee,42.8892,-87.9027,5.9709454550402,-0.393939394,202247,WI,0.02
Canyon,43.3784,-116.5489,5.9677535475971,-0.393548387,202247,ID,0.02
Morrison,45.5572,-94.2242,5.9599511144369,-0.392592593,202247,MN,0.02
Fauquier,38.4674,-77.7044,5.9593859773412,-0.392523364,202247,VA,0.02
Clay,29.7683,-81.9907,5.9563941197279,-0.392156863,202247,FL,0.02
Hardin,30.1491,-94.3733,5.9542310819636,-0.391891892,202247,TX,0.02
Pickaway,39.5535,-82.7763,5.9494347840284,0.391304348,202247,OH,0.02
Hancock,30.2391,-89.4595,5.9463376933148,-0.390924956,202247,OH,0.02
Dorchester,32.9336,-80.1026,5.9453551748534,-0.390804598,202247,SC,0.02
Madison,30.3979,-83.2844,5.9423645417351,-0.390438247,202247,IA,0.02
Marion,28.9782,-81.8932,5.9374033859564,-0.389830508,202247,MD,0.02
Ottawa,36.6296,-94.9432,5.9297166675737,-0.388888889,202247,KS,0.02
Warren,32.3258,-90.8507,5.9277362428304,-0.388646288,202247,KY,0.02
Halifax,36.0594,-77.4061,5.9191697656067,-0.387596899,202247,VA,0.02
Onondaga,42.807,-76.1394,5.9150870951942,-0.387096774,202247,NY,0.02
Rockdale,33.6111,-84.0683,5.8948307723705,-0.384615385,202247,GA,0.02
Comal,29.6643,-98.3118,5.887529067869,-0.38372093,202247,TX,0.02
Broward,25.9812,-80.1484,5.8858279585985,-0.383512545,202247,FL,0.02
Wright,37.0687,-92.4082,5.8843649972789,-0.383333333,202247,MN,0.02
Valley,41.4293,-99.1205,5.8825980509939,-0.383116883,202247,NE,0.02
Tom Green,31.2346,-100.5203,5.8715735061806,-0.381766382,202247,TX,0.02
Montgomery,30.1199,-95.4247,5.8683444638858,-0.381370826,202247,OH,0.02
Knox,33.4183,-99.8137,5.859453519977,-0.38028169,202247,NE,0.02
Hubbard,46.9319,-94.846,5.857154,-0.38,202247,MN,0.02
Livingston,30.2716,-90.7043,5.854130558579,-0.37962963,202247,NY,0.02
Falls Church,38.8842,-77.1718,5.8515241393385,-0.379310345,202247,VA,0.02
Bannock,42.3195,-111.9781,5.848225390625,-0.37890625,202247,ID,0.02
Fredericksburg,38.2995,-77.4772,5.8439162131274,-0.378378378,202247,VA,0.02
Van Zandt,32.4126,-95.6371,5.8404417330548,-0.377952756,202247,TX,0.02
Douglas,33.6634,-84.8639,5.8390133351474,-0.377777778,202247,WA,0.02
Delaware,36.1662,-94.8547,5.8355905695803,-0.377358491,202247,PA,0.02
Hamilton,30.3387,-82.7765,5.8355905695803,-0.377358491,202247,TN,0.02
Ida,42.3327,-95.6045,5.8245008,-0.376,202247,IA,0.02
Sarasota,26.92,-82.3048,5.8196398079123,-0.375404531,202247,FL,0.02
Henry,31.3534,-85.3323,5.8163375,-0.375,202247,MO,0.02
Valdez-Cordova,60.5362,-145.7534,5.8163375,0.375,202247,AK,0.02
Henry,31.3534,-85.3323,5.808041464742,-0.37398374,202247,IN,0.02
Caledonia,44.1978,-72.1104,5.8074643439219,-0.373913043,202247,VT,0.02
Boyd,38.3089,-82.7476,5.8071445956242,-0.373873874,202247,KY,0.02
Carver,44.7169,-93.6879,5.8051241788742,-0.373626374,202247,MN,0.02
Pittsburg,34.6695,-96.0258,5.8051241788742,-0.373626374,202247,OK,0.02
Montgomery,30.1199,-95.4247,5.7896251334117,-0.371727749,202247,KS,0.02
Sandoval,35.2339,-106.62,5.7857862273005,-0.371257485,202247,NM,0.02
Keokuk,41.1826,-92.3097,5.7834209682686,-0.370967742,202247,IA,0.02
Box Butte,42.1149,-102.888,5.7828028187027,-0.370892019,202247,NE,0.02
Brevard,27.8679,-80.5416,5.7804763598357,-0.370607029,202247,FL,0.02
York,34.8507,-80.9342,5.778544441421,-0.37037037,202247,ME,0.02
Kingman,37.4344,-98.4171,5.7719717359361,-0.369565217,202247,KS,0.02
Allegheny,40.2373,-79.9506,5.7556643278544,-0.367567568,202247,PA,0.02
Kearney,40.3735,-99.1539,5.7517544336864,-0.367088608,202247,NE,0.02
Monroe,24.5552,-81.7816,5.7483100027211,-0.366666667,202247,IN,0.02
Salt Lake,40.4954,-111.9444,5.7416731745147,-0.365853659,202247,UT,0.02
Trempealeau,44.0218,-91.4282,5.7416731745147,-0.365853659,202247,WI,0.02
Elko,40.3995,-115.2312,5.7235727302412,-0.363636364,202247,NV,0.02
Teton,43.4528,-110.7393,5.7235727302412,-0.363636364,202247,ID,0.02
Bell,30.7991,-97.4263,5.7175879048058,-0.362903226,202247,TX,0.02
Geary,39.0299,-96.8396,5.7136114062731,-0.362416107,202247,KS,0.02
Fannin,33.3796,-96.2475,5.7089256557465,-0.361842105,202247,TX,0.02
Okfuskee,35.3416,-96.1136,5.7077829815024,-0.361702128,202247,OK,0.02
Ada,43.4599,-116.244,5.7063529182818,-0.361526946,202247,ID,0.02
Simpson,31.8277,-90.0088,5.7029583324263,-0.361111111,202247,KY,0.02
Sequoyah,35.3898,-94.4462,5.7003815378015,-0.360795455,202247,OK,0.02
City of Harrisonburg,38.4409,-78.8742,5.6992409860154,-0.360655738,202247,VA,0.02
Payne,35.9768,-97.0441,5.6964046229405,-0.360308285,202247,OK,0.02
St. Lawrence,44.1408,-74.9125,5.6887859375,-0.359375,202247,NY,0.02
Boone,34.7399,-92.34,5.6860720729049,-0.359042553,202247,IA,0.02
Kosciusko,41.0743,-85.8792,5.682628278677,-0.35862069,202247,IN,0.02
Vernon,30.9243,-93.2749,5.6792671623515,-0.358208955,202247,MO,0.02
Clayton,33.4429,-84.3136,5.6705642845481,-0.357142857,202247,IA,0.02
La Crosse,43.7989,-91.2175,5.6705642845481,0.357142857,202247,WI,0.02
Alachua,29.4536,-82.1065,5.6618614067447,-0.356076759,202247,FL,0.02
Keith,41.1002,-101.9099,5.6561074394333,-0.355371901,202247,NE,0.02
Lycoming,41.1788,-76.8839,5.6496565712009,-0.354581673,202247,PA,0.02
Washington,30.1669,-96.3977,5.6398751908547,-0.353383459,202247,OK,0.02
Bernalillo,34.9073,-106.6892,5.6376211894385,-0.353107345,202247,NM,0.02
Hall,34.1819,-83.9024,5.6362647020408,-0.352941176,202247,GA,0.02
Muscatine,41.3486,-91.1237,5.6330705088737,-0.352549889,202247,IA,0.02
Seneca,41.0182,-82.9899,5.6325850537493,-0.352490421,202247,OH,0.02
Madison,30.3979,-83.2844,5.6273722234316,-0.351851852,202247,OH,0.02
Los Angeles,33.332,-118.3437,5.6232864836183,-0.351351351,202247,CA,0.02
Clinton,36.6857,-85.1407,5.6207387993213,-0.351039261,202247,IA,0.02
Lawrence,31.4036,-90.1864,5.6194157896169,-0.350877193,202247,SD,0.02
Lincoln,31.3795,-90.2867,5.6175558470183,-0.350649351,202247,SD,0.02
Charleston,32.6529,-80.1829,5.612255,-0.35,202247,SC,0.02
Grundy,35.2402,-85.8228,5.612255,-0.35,202247,MO,0.02
Skagit,48.34,-122.3456,5.612255,-0.35,202247,WA,0.02
Kenosha,42.5001,-88.08,5.607337346447,-0.34939759,202247,WI,0.02
Denton,33.0033,-96.882,5.6032292391917,-0.348894349,202247,TX,0.02
Shelby,31.7131,-93.9698,5.6022455043986,-0.348773842,202247,TN,0.02
Racine,42.666,-88.2749,5.5990883889401,-0.348387097,202247,WI,0.02
Taylor,29.6739,-83.3723,5.5945086960071,-0.347826087,202247,WI,0.02
Essex,37.7681,-76.7117,5.5926673167527,-0.347600519,202247,MA,0.02
Bell,30.7991,-97.4263,5.5915008464891,-0.347457627,202247,KY,0.02
Grand Isle,44.6031,-72.9527,5.5872653101208,-0.346938776,202247,VT,0.02
Washington,30.1669,-96.3977,5.5872653101208,-0.346938776,202247,MD,0.02
Steuben,41.5328,-85.0811,5.5751490871985,-0.345454545,202247,NY,0.02
Highland,38.2946,-79.4353,5.561234375,-0.34375,202247,OH,0.02
Wagoner,35.8507,-95.3183,5.561234375,-0.34375,202247,OK,0.02
Passaic,40.8344,-74.1377,5.5599261571952,-0.343589744,202247,NJ,0.02
Butler,31.545,-86.7356,5.5562323537415,-0.343137255,202247,KS,0.02
Bristol,36.595,-82.1819,5.5425682956695,-0.341463415,202247,VA,0.02
Hopkins,33.0107,-95.4734,5.5376243807804,-0.340857788,202247,KY,0.02
Hamilton,30.3387,-82.7765,5.5372112116775,-0.340807175,202247,NE,0.02
Peoria,40.5571,-89.7685,5.5372112116775,-0.340807175,202247,IL,0.02
Tuolumne,37.8108,-120.2988,5.5351214558573,-0.340551181,202247,CA,0.02
New York,40.7038,-74.0098,5.5314507627059,-0.340101523,202247,NY,0.02
Brown,31.5176,-99.1277,5.5292946310934,-0.339837398,202247,WI,0.02
Chester,34.5705,-80.9133,5.5223203402283,-0.338983051,202247,SC,0.02
Lake,28.5494,-81.7729,5.5180630731554,-0.338461538,202247,IN,0.02
Allen,30.4607,-92.8693,5.5089843406934,-0.337349398,202247,KS,0.02
Riley,39.1153,-96.7101,5.49745859375,-0.3359375,202247,KS,0.02
Rosebud,45.2862,-106.5095,5.4952286740688,-0.335664336,202247,MT,0.02
Trumbull,41.1318,-80.7553,5.4909086475455,-0.335135135,202247,OH,0.02
Jefferson,28.883,-81.3087,5.4881872237346,-0.334801762,202247,TX,0.02
Jefferson,28.883,-81.3087,5.4792067365881,-0.333701657,202247,KY,0.02
Alamance,35.9066,-79.4279,5.4761999972789,-0.333333333,202247,NC,0.02
Baker,30.2041,-82.4287,5.4761999972789,-0.333333333,202247,FL,0.02
Becker,46.7565,-95.5212,5.4761999972789,-0.333333333,202247,MN,0.02
Fayette,29.6882,-96.9106,5.4761999972789,-0.333333333,202247,OH,0.02
Greene,31.0867,-88.7977,5.4761999972789,-0.333333333,202247,MO,0.02
Hardin,30.1491,-94.3733,5.4761999972789,-0.333333333,202247,IA,0.02
Marshall,33.9517,-96.712,5.4761999972789,-0.333333333,202247,KS,0.02
Sac,42.2653,-95.0852,5.4761999972789,-0.333333333,202247,IA,0.02
Seward,37.0216,-100.938,5.4761999972789,-0.333333333,202247,KS,0.02
Sharp,35.9517,-91.5444,5.4761999972789,-0.333333333,202247,AR,0.02
Wayne,31.5168,-82.0397,5.4761999972789,-0.333333333,202247,NE,0.02
Benton,34.6244,-89.1862,5.4761999972789,0.333333333,202247,WA,0.02
Hancock,30.2391,-89.4595,5.465570703125,-0.33203125,202247,IA,0.02
Blue Earth,43.8903,-94.1774,5.4598078296533,-0.331325301,202247,MN,0.02
Beaufort,32.1145,-80.8686,5.4535241702948,-0.330555556,202247,SC,0.02
Adams,31.4706,-91.4044,5.4497815503071,-0.330097087,202247,OH,0.02
Nicollet,44.2172,-94.0942,5.4452784128015,-0.329545455,202247,MN,0.02
Norman,47.1588,-96.1309,5.4430158562469,-0.329268293,202247,MN,0.02
Richardson,40.0536,-95.4292,5.4430158562469,-0.329268293,202247,NE,0.02
Wicomico,38.2672,-75.9021,5.4420796236965,-0.329153605,202247,MD,0.02
Logan,35.1304,-93.7116,5.4417556957892,-0.329113924,202247,KY,0.02
Hunterdon,40.3731,-74.9266,5.4355865675297,-0.328358209,202247,NJ,0.02
Stephens,32.6886,-98.659,5.4355865675297,-0.328358209,202247,OK,0.02
Clay,29.7683,-81.9907,5.4326624,-0.328,202247,MN,0.02
Jefferson,28.883,-81.3087,5.4276089254616,-0.327380952,202247,OH,0.02
Pulaski,32.2778,-83.4948,5.4267254523191,-0.327272727,202247,KY,0.02
Jackson,28.7671,-96.6492,5.4238711544741,-0.326923077,202247,OK,0.02
Lyon,37.0619,-88.1498,5.4175239928049,-0.326145553,202247,MN,0.02
Kay,36.6806,-97.3063,5.4157311117158,-0.325925926,202247,OK,0.02
Tulsa,35.9183,-95.7988,5.4142533013535,-0.325744895,202247,OK,0.02
Berks,40.1552,-75.8998,5.4129186018035,-0.325581395,202247,PA,0.02
Summit,39.4753,-106.0225,5.4094700238818,-0.325158946,202247,OH,0.02
Adams,31.4706,-91.4044,5.4081725,-0.325,202247,NE,0.02
Faribault,43.5201,-94.0984,5.4081725,-0.325,202247,MN,0.02
Norfolk,36.8294,-76.2701,5.4077054939336,-0.324942792,202247,MA,0.02
Chesapeake,36.6434,-76.242,5.3988960197588,-0.323863636,202247,VA,0.02
Cedar,37.6613,-94.0129,5.3945041561955,-0.323325635,202247,IA,0.02
Wayne,31.5168,-82.0397,5.3937424223459,-0.323232323,202247,KY,0.02
Ada,43.4599,-116.244,5.3920422681815,-0.323024055,202247,WA,0.02
Anne Arundel,38.7361,-76.5835,5.3908990633229,-0.322884013,202247,MD,0.02
Suffolk,40.6443,-73.1613,5.3683149755042,-0.320117474,202247,NY,0.02
Accomack,37.5423,-75.7412,5.367356,-0.32,202247,VA,0.02
Boise,43.6498,-116.4306,5.3628208297052,-0.319444444,202247,ID,0.02
McLean,37.4177,-87.2736,5.3604085092488,-0.319148936,202247,IL,0.02
Norfolk,36.8294,-76.2701,5.3604085092488,-0.319148936,202247,VA,0.02
Shawnee,38.9045,-95.7015,5.3556449379833,-0.318565401,202247,KS,0.02
Cherokee,31.4885,-94.9399,5.35379757503,-0.3183391,202247,OK,0.02
Barton,37.3995,-94.1027,5.3515134755267,-0.318059299,202247,KS,0.02
Tate,34.6323,-89.8855,5.3496372063281,-0.317829457,202247,MS,0.02
Gregg,32.3836,-94.8653,5.3273433238244,-0.315098468,202247,TX,0.02
Nassau,30.4193,-81.9724,5.3270986289069,-0.315068493,202247,FL,0.02
Codington,44.8858,-97.4442,5.3265395,-0.315,202247,SD,0.02
Jackson,28.7671,-96.6492,5.3238184027211,-0.314666667,202247,KS,0.02
Harris,29.5564,-95.144,5.321910827267,-0.31443299,202247,TX,0.02
Hancock,30.2391,-89.4595,5.3194874373758,-0.314136126,202247,MS,0.02
Franklin,29.7255,-85.0063,5.3137462701188,-0.313432836,202247,VA,0.02
Yellow Medicine,44.631,-95.4182,5.3137462701188,-0.313432836,202247,MN,0.02
Hardin,30.1491,-94.3733,5.3105678239574,-0.313043478,202247,TN,0.02
Washington,30.1669,-96.3977,5.30613125,-0.3125,202247,WI,0.02
Wood,32.6439,-95.222,5.297767214453,-0.31147541,202247,OH,0.02
Dutchess,41.5097,-73.9634,5.295718879217,-0.31122449,202247,NY,0.02
Lyon,37.0619,-88.1498,5.2938206425781,-0.310991957,202247,KS,0.02
Lucas,40.9355,-93.4796,5.2929134713757,-0.310880829,202247,OH,0.02
Franklin,29.7255,-85.0063,5.2885379344124,-0.310344828,202247,VT,0.02
Washington,30.1669,-96.3977,5.2885379344124,-0.310344828,202247,VA,0.02
Portsmouth,36.8035,-76.327,5.281835718173,-0.30952381,202247,VA,0.02
San Diego,32.5626,-117.043,5.281835718173,-0.30952381,202247,CA,0.02
Ford,37.553,-99.6325,5.2814597655548,-0.309477756,202247,KS,0.02
Ramsey,44.914,-93.1727,5.2789499589698,-0.309170306,202247,MN,0.02
Allegany,39.4774,-79.0594,5.2783018174397,-0.309090909,202247,MD,0.02
Butler,31.545,-86.7356,5.2761191142857,-0.308823529,202247,OH,0.02
Wichita,33.8579,-98.8081,5.2746370345175,-0.308641975,202247,TX,0.02
Clinton,36.6857,-85.1407,5.2727532714095,-0.308411215,202247,KY,0.02
Jefferson,28.883,-81.3087,5.2721174972789,-0.308333333,202247,NE,0.02
Plymouth,41.6618,-70.8164,5.2668846178964,-0.307692308,202247,MA,0.02
Scott,32.2745,-89.5627,5.2668846178964,-0.307692308,202247,MN,0.02
Dallas,32.1899,-87.0633,5.2638535029734,-0.307320998,202247,TX,0.02
Decatur,30.7493,-84.4846,5.2585120027211,-0.306666667,202247,IA,0.02
Smith,31.8394,-89.4049,5.2523562949268,-0.305912596,202247,TX,0.02
Oklahoma,34.506,-97.1131,5.2400029934459,-0.304399323,202247,OK,0.02
Graham,32.797,-109.7522,5.2395826079858,-0.304347826,202247,KS,0.02
Black Hawk,42.3416,-92.1862,5.2322393114708,-0.303448276,202247,IA,0.02
Union,29.9315,-82.4255,5.2288272724799,-0.303030303,202247,NJ,0.02
Knox,33.4183,-99.8137,5.2222306648526,-0.302222222,202247,TN,0.02
Clark,33.8309,-93.1263,5.2194924491336,-0.301886792,202247,NV,0.02
Nantucket,41.2639,-69.9626,5.2170476224166,-0.301587302,202247,MA,0.02
Marion,28.9782,-81.8932,5.2152726026279,-0.301369863,202247,FL,0.02
Lane,38.4742,-100.4647,5.2107268282064,-0.300813008,202247,OR,0.02
Fairfax,38.6929,-77.204,5.2104058962302,-0.300773694,202247,VA,0.02
Wood,32.6439,-95.222,5.2083196914455,-0.300518135,202247,WI,0.02
Richmond,33.2941,-82.203,5.20409,-0.3,202247,NC,0.02
El Dorado,38.55,-120.7304,5.1992017996334,-0.299401198,202247,CA,0.02
St. Landry,30.3884,-92.0934,5.1964607512493,-0.299065421,202247,LA,0.02
Cleveland,33.7588,-92.1939,5.1935410000649,-0.298707753,202247,OK,0.02
Davis,40.6941,-92.258,5.1934883141267,-0.298701299,202247,IA,0.02
Marquette,43.6759,-89.5803,5.1934883141267,-0.298701299,202247,MI,0.02
Sioux,42.6872,-103.8827,5.1932056027211,-0.298666667,202247,IA,0.02
Payette,43.959,-116.8048,5.1903701702624,-0.298319328,202247,ID,0.02
Sullivan,36.4195,-82.304,5.186721273122,-0.29787234,202247,TN,0.02
Harvey,37.9167,-97.4225,5.1840573597596,-0.297546012,202247,KS,0.02
Pocahontas,38.1109,-80.2641,5.1838504119413,-0.297520661,202247,IA,0.02
Daviess,37.6206,-87.0591,5.1813439604726,-0.297213622,202247,KY,0.02
Story,41.8765,-93.6812,5.1735656743538,-0.296260786,202247,IA,0.02
Montgomery,30.1199,-95.4247,5.1725579394587,-0.296137339,202247,MD,0.02
Erie,41.3111,-82.6126,5.171536963691,-0.29601227,202247,OH,0.02
Rock Island,41.3277,-90.6384,5.1681509411372,-0.295597484,202247,IL,0.02
Boyle,37.5778,-84.9281,5.1585081246452,-0.294416244,202247,KY,0.02
Jackson,28.7671,-96.6492,5.1558076152089,-0.294085433,202247,MO,0.02
Henderson,32.0797,-95.5938,5.150434506659,-0.29342723,202247,KY,0.02
Preble,39.5897,-84.5581,5.1398842659023,-0.292134831,202247,OH,0.02
Winona,43.9148,-91.394,5.1341188536443,-0.291428571,202247,MN,0.02
Ellis,32.1482,-96.9612,5.1339757673219,-0.291411043,202247,KS,0.02
Blount,33.8168,-86.6008,5.1327601948088,-0.291262136,202247,TN,0.02
Cuming,41.845,-96.7318,5.1230801536688,-0.290076336,202247,NE,0.02
Polk,26.4722,-81.8122,5.122457,-0.29,202247,MN,0.02
Cumberland,34.9536,-78.9354,5.1163851211334,-0.289256198,202247,PA,0.02
Twin Falls,42.218,-114.5942,5.1161145893714,-0.289223058,202247,ID,0.02
Penobscot,44.6991,-69.1025,5.1155722931891,-0.289156627,202247,ME,0.02
Bennington,42.7562,-73.0679,5.1142188098858,-0.288990826,202247,VT,0.02
Horry,33.6211,-78.9632,5.1133866675737,-0.288888889,202247,SC,0.02
Osage,36.1576,-96.0311,5.1133866675737,-0.288888889,202247,OK,0.02
Blair,40.2711,-78.4588,5.1122838873767,-0.288753799,202247,PA,0.02
Tuscarawas,40.2739,-81.594,5.1038965782614,-0.287726358,202247,OH,0.02
Nemaha,39.6428,-95.8231,5.1034465763489,-0.287671233,202247,NE,0.02
Mitchell,31.1272,-84.1564,5.0874714309038,-0.285714286,202247,KS,0.02
Waukesha,42.8809,-88.4674,5.0818376845115,-0.285024155,202247,WI,0.02
McPherson,38.206,-97.5088,5.0786589444713,-0.284634761,202247,KS,0.02
Jasper,30.3129,-94.0731,5.0720762389439,-0.283828383,202247,IA,0.02
Montgomery,30.1199,-95.4247,5.0680349972789,-0.283333333,202247,AL,0.02
Warren,32.3258,-90.8507,5.0639121226139,-0.282828283,202247,OH,0.02
Kalamazoo,42.1209,-85.5024,5.0625928027211,-0.282666667,202247,MI,0.02
Leavenworth,39.0014,-95.0391,5.06123225,-0.2825,202247,KS,0.02
Linn,38.0718,-94.7008,5.0553146493401,-0.281775097,202247,IA,0.02
Henry,31.3534,-85.3323,5.0546211280253,-0.281690141,202247,IA,0.02
Clay,29.7683,-81.9907,5.0541518362349,-0.281632653,202247,IA,0.02
Anoka,45.0523,-93.2541,5.0539121290937,-0.281603289,202247,MN,0.02
Franklin,29.7255,-85.0063,5.0518179161117,-0.281346749,202247,OH,0.02
Saline,34.4508,-92.6547,5.0431508343788,-0.280285036,202247,KS,0.02
Pasco,27.8633,-82.3499,5.0429038210841,-0.280254777,202247,FL,0.02
Dakota,42.2852,-96.7159,5.0414102310629,-0.280071813,202247,MN,0.02
Camden,30.7305,-81.5465,5.040824,-0.28,202247,NJ,0.02
Ross,39.2039,-82.812,5.0402614996502,-0.279931094,202247,OH,0.02
Sedgwick,37.5054,-97.3408,5.0394118797128,-0.279827016,202247,KS,0.02
Allen,30.4607,-92.8693,5.0301180361325,-0.278688525,202247,OH,0.02
Sumner,36.3047,-86.6211,5.0252311827104,-0.278089888,202247,KS,0.02
Adair,35.6826,-94.7611,5.0226833351474,-0.277777778,202247,KY,0.02
Goshen,41.6423,-104.1974,5.0226833351474,-0.277777778,202247,WY,0.02
Massac,37.1542,-88.5334,5.0226833351474,-0.277777778,202247,IL,0.02
Maury,35.4749,-87.0005,5.0226833351474,-0.277777778,202247,TN,0.02
Mower,43.5309,-92.9328,5.0226833351474,-0.277777778,202247,MN,0.02
Oakland,42.4567,-83.659,5.0226833351474,-0.277777778,202247,MI,0.02
Tarrant,32.5773,-97.1416,5.0161859605949,-0.276981853,202247,TX,0.02
Otoe,40.5586,-96.0138,5.0125488839129,-0.276536313,202247,NE,0.02
Giles,35.05,-87.1522,5.0097257127308,-0.276190476,202247,TN,0.02
Danville,36.5779,-79.4411,5.008771782146,-0.27607362,202247,VA,0.02
Christian,36.6543,-87.4606,5.0079587664458,-0.275974026,202247,MO,0.02
Plumas,39.5645,-121.5751,5.0070448278677,-0.275862069,202247,CA,0.02
Whatcom,48.6752,-122.1914,5.0045426702948,-0.275555556,202247,WA,0.02
Providence,41.7312,-71.5468,5.0000075,-0.275,202247,RI,0.02
Pike,31.0217,-90.479,4.9960058829932,-0.274509804,202247,MS,0.02
Prince George's,38.5825,-76.7149,4.9934241903884,-0.274193548,202247,MD,0.02
Fall River,43.1551,-103.2162,4.9897463706761,-0.273743017,202247,SD,0.02
Cass,32.8485,-94.5795,4.9888388076353,-0.273631841,202247,IA,0.02
Delaware,36.1662,-94.8547,4.9860639713525,-0.273291925,202247,OH,0.02
Augusta,37.9705,-79.2233,4.9814545476809,-0.272727273,202247,VA,0.02
Wayne,31.5168,-82.0397,4.9814545476809,-0.272727273,202247,MI,0.02
Rutherford,35.2247,-81.8851,4.9814545476809,0.272727273,202247,TN,0.02
Scotts Bluff,41.7469,-103.4164,4.9773732323762,-0.272227314,202247,NE,0.02
Larimer,40.2993,-105.1055,4.9749447404225,-0.271929825,202247,CO,0.02
Champaign,39.9012,-88.0753,4.973388039929,-0.27173913,202247,OH,0.02
Hockley,33.4482,-102.4898,4.9722925903754,-0.271604938,202247,TX,0.02
Lackawanna,41.3432,-75.5301,4.9644334875866,-0.270642202,202247,PA,0.02
Centre,40.71,-77.996,4.9599784564079,-0.270096463,202247,PA,0.02
Buchanan,37.1134,-82.1501,4.957895239391,-0.26984127,202247,IA,0.02
James City,37.2235,-76.7833,4.957895239391,-0.26984127,202247,VA,0.02
Tippecanoe,40.247,-86.725,4.957895239391,-0.26984127,202247,IN,0.02
Daviess,37.6206,-87.0591,4.9564393229993,-0.269662921,202247,MO,0.02
Mahaska,41.2117,-92.4362,4.9564393229993,-0.269662921,202247,IA,0.02
Lancaster,34.5578,-80.5546,4.955926822862,-0.26960014,202247,NE,0.02
Will,41.2657,-88.2231,4.9549503207527,-0.269480519,202247,IL,0.02
City of Alexandria,38.8013,-77.0707,4.9529115365777,-0.269230769,202247,VA,0.02
Tillman,34.2282,-98.6867,4.9482253697228,-0.268656716,202247,OK,0.02
Douglas,33.6634,-84.8639,4.9426509786848,-0.267973856,202247,KS,0.02
Marshall,33.9517,-96.712,4.9396450720322,-0.267605634,202247,IA,0.02
Fairfield,34.2717,-81.2712,4.9384332056573,-0.267457181,202247,OH,0.02
McCracken,37.0368,-88.5934,4.9319800027211,0.266666667,202247,KY,0.02
Queens,40.5594,-73.9067,4.9308555816158,-0.266528926,202247,NY,0.02
Davison,43.5478,-97.9881,4.9216630364252,-0.265402844,202247,SD,0.02
Fillmore,40.4065,-97.4427,4.9208734657226,-0.265306122,202247,NE,0.02
Clarke,31.4258,-87.6822,4.9151484536363,-0.264604811,202247,IA,0.02
Rio Arriba,35.9866,-106.0654,4.9114433929919,-0.264150943,202247,NM,0.02
Worcester,38.0452,-75.4108,4.9114433929919,-0.264150943,202247,MD,0.02
Ventura,34.0324,-119.1343,4.9093041675737,-0.263888889,202247,CA,0.02
Iron,37.2955,-90.6279,4.9033368442535,-0.263157895,202247,UT,0.02
Oklahoma,34.506,-97.1131,4.9033368442535,-0.263157895,202247,KS,0.02
Wyandotte,39.0668,-94.6282,4.9012255536479,-0.262899263,202247,KS,0.02
Red Willow,40.0377,-100.4242,4.9008817154519,-0.262857143,202247,NE,0.02
Hillsborough,27.6784,-82.4787,4.8977449021205,-0.262472885,202247,FL,0.02
Sussex,36.8191,-77.4832,4.867116567869,-0.25872093,202247,DE,0.02
Westmoreland,38.0181,-76.6861,4.864554516164,-0.25840708,202247,PA,0.02
Gibson,35.8081,-88.7627,4.8617580634628,-0.258064516,202247,TN,0.02
Sacramento,38.157,-121.6066,4.8617580634628,-0.258064516,202247,CA,0.02
Nelson,37.5473,-78.8508,4.8565435678319,-0.257425743,202247,KY,0.02
Sheboygan,43.5672,-87.9816,4.8545533552919,-0.257181943,202247,WI,0.02
Harford,39.3982,-76.2743,4.8542342845481,-0.257142857,202247,MD,0.02
Defiance,41.2799,-84.3626,4.8537933847151,-0.257088847,202247,OH,0.02
Columbiana,40.6171,-80.6621,4.8482538428048,-0.256410256,202247,OH,0.02
Union,29.9315,-82.4255,4.8463723572575,-0.256179775,202247,SD,0.02
Tazewell,36.9763,-81.628,4.8359411782313,-0.254901961,202247,IL,0.02
Guernsey,39.852,-81.6576,4.8339527942705,-0.254658385,202247,OH,0.02
Allamakee,43.0036,-91.5478,4.8305152531304,-0.254237288,202247,IA,0.02
Plymouth,41.6618,-70.8164,4.8296019839429,-0.254125413,202247,IA,0.02
Chisago,45.3364,-92.9675,4.8255021706004,-0.253623188,202247,MN,0.02
Cowley,37.0676,-97.0357,4.8155483160518,-0.252403846,202247,KS,0.02
Douglas,33.6634,-84.8639,4.8110632439291,-0.251854427,202247,NE,0.02
Prince William,38.5223,-77.2936,4.8014258723582,-0.250673854,202247,VA,0.02
Stearns,45.3436,-94.3028,4.7997539387219,-0.250469043,202247,MN,0.02
Johnson,32.2532,-97.3678,4.7965413781298,-0.250075506,202247,KS,0.02
Deschutes,43.7091,-121.5194,4.795925,-0.25,202247,OR,0.02
Fayette,29.6882,-96.9106,4.795925,-0.25,202247,PA,0.02
Howard,32.1105,-101.3669,4.795925,-0.25,202247,IA,0.02
Johnson,32.2532,-97.3678,4.795925,-0.25,202247,IA,0.02
Lincoln,31.3795,-90.2867,4.795925,-0.25,202247,NE,0.02
Miami-Dade,25.2846,-80.6246,4.795925,-0.25,202247,FL,0.02
Pinal,32.4305,-111.1459,4.795925,-0.25,202247,AZ,0.02
Terrebonne,29.3695,-90.697,4.795925,-0.25,202247,LA,0.02
Waseca,43.8937,-93.4995,4.795925,-0.25,202247,MN,0.02
Henry,31.3534,-85.3323,4.795925,0.25,202247,OH,0.02
Hughes,34.878,-96.271,4.795925,0.25,202247,OK,0.02
Lee,26.3398,-81.7787,4.7857716425627,-0.248756219,202247,IA,0.02
Hocking,39.4174,-82.5923,4.7778646048763,-0.247787611,202247,OH,0.02
Marshall,33.9517,-96.712,4.7700917718419,-0.246835443,202247,KY,0.02
Androscoggin,43.9684,-70.1846,4.7645276910518,-0.246153846,202247,ME,0.02
Erie,41.3111,-82.6126,4.7624688496487,-0.245901639,202247,PA,0.02
Hays,29.8754,-97.9404,4.7601210519155,-0.245614035,202247,TX,0.02
Custer,35.5115,-98.9795,4.7594816940962,-0.245535714,202247,NE,0.02
Woodbury,42.2408,-95.9486,4.7537316614954,-0.244831338,202247,IA,0.02
Pottawattamie,41.1916,-95.4314,4.7446083165989,-0.243713733,202247,IA,0.02
Palo Alto,42.9417,-94.6746,4.7340818147186,-0.242424242,202247,IA,0.02
Yellowstone,45.6745,-108.769,4.7325453428825,-0.242236025,202247,MT,0.02
Anderson,31.648,-95.5551,4.7300919365372,-0.241935484,202247,KS,0.02
Franklin,29.7255,-85.0063,4.7289128376485,-0.241791045,202247,PA,0.02
Humboldt,40.0231,-124.0139,4.7278975027211,-0.241666667,202247,IA,0.02
El Paso,31.4407,-106.0765,4.7269115964902,-0.241545894,202247,TX,0.02
Hall,34.1819,-83.9024,4.7252114831423,-0.241337631,202247,NE,0.02
Frederick,39.0367,-78.2815,4.7221602375215,0.240963855,202247,MD,0.02
Scott,32.2745,-89.5627,4.7220232573475,-0.240947075,202247,IA,0.02
Dodge,31.938,-83.1837,4.7203388910053,-0.240740741,202247,MN,0.02
Pennington,43.7994,-102.5353,4.7174317276295,-0.240384615,202247,SD,0.02
Rhea,35.4484,-85.179,4.714292,-0.24,202247,TN,0.02
Clay,29.7683,-81.9907,4.7115933844493,-0.239669421,202247,NE,0.02
Wake,35.547,-78.6717,4.7115933844493,-0.239669421,202247,NC,0.02
Baltimore,39.207,-76.4456,4.7035102807085,-0.238679245,202247,MD,0.02
Caldwell,29.6826,-97.6499,4.7013172183268,-0.238410596,202247,KY,0.02
Citrus,28.7304,-82.3077,4.6974024098522,-0.237931034,202247,FL,0.02
Dodge,31.938,-83.1837,4.6916102219702,-0.237221494,202247,NE,0.02
Hamilton,30.3387,-82.7765,4.6804066070081,-0.235849057,202247,IN,0.02
Buena Vista,37.7396,-79.3523,4.6758764734694,-0.235294118,202247,IA,0.02
Howard,32.1105,-101.3669,4.6726536924257,-0.234899329,202247,MD,0.02
Des Moines,40.8087,-91.117,4.6672243224122,-0.234234234,202247,IA,0.02
Clay,29.7683,-81.9907,4.6670655707171,-0.234214787,202247,MO,0.02
Chester,34.5705,-80.9133,4.6618562016386,-0.233576642,202247,PA,0.02
Cuyahoga,41.3132,-81.8285,4.6547358530099,-0.232704403,202247,OH,0.02
Collin,33.0139,-96.4377,4.642994962295,-0.23126615,202247,TX,0.02
Delaware,36.1662,-94.8547,4.6407073199195,-0.230985915,202247,OK,0.02
Cherokee,31.4885,-94.9399,4.6389384634223,-0.230769231,202247,TX,0.02
Hancock,30.2391,-89.4595,4.6389384634223,-0.230769231,202247,IL,0.02
Washington,30.1669,-96.3977,4.6389384634223,-0.230769231,202247,VT,0.02
Lyon,37.0619,-88.1498,4.632659,-0.23,202247,NV,0.02
Hennepin,44.8261,-93.3538,4.6310615646395,-0.229804315,202247,MN,0.02
Murray,34.402,-97.051,4.6286442645701,-0.229508197,202247,GA,0.02
Harrison,30.3598,-89.1646,4.6258562527211,-0.229166667,202247,OH,0.02
Albany,41.0528,-105.4462,4.6238072317679,-0.228915663,202247,NY,0.02
Warren,32.3258,-90.8507,4.6233771156542,-0.228862974,202247,IA,0.02
Platte,39.1776,-94.6321,4.6228372766252,-0.228796844,202247,NE,0.02
Barry,36.5276,-93.9359,4.6150924028933,-0.227848101,202247,MO,0.02
Reno,37.7783,-97.9886,4.6131974070845,-0.227615965,202247,KS,0.02
Seward,37.0216,-100.938,4.6123587341324,-0.227513228,202247,NE,0.02
Rutland,43.3583,-73.0129,4.6119879815363,-0.227467811,202247,VT,0.02
Madison,30.3979,-83.2844,4.608602897762,-0.22705314,202247,NE,0.02
Woods,36.5858,-98.8487,4.5811013196563,-0.223684211,202247,OK,0.02
Phelps,37.6158,-91.9064,4.5788159548415,-0.223404255,202247,NE,0.02
York,34.8507,-80.9342,4.5779728165643,-0.223300971,202247,SC,0.02
Kent,33.2518,-100.5825,4.5691666648526,-0.222222222,202247,MI,0.02
Madison,30.3979,-83.2844,4.5691666648526,-0.222222222,202247,KY,0.02
Gallatin,37.6952,-88.2491,4.5691666648526,0.222222222,202247,MT,0.02
Roanoke,37.1549,-80.1215,4.5642637868726,-0.221621622,202247,VA,0.02
Kent,33.2518,-100.5825,4.5637353274838,-0.221556886,202247,RI,0.02
Madison,30.3979,-83.2844,4.563079194083,-0.22147651,202247,IN,0.02
Richland,32.3331,-91.7976,4.5584799745364,-0.220913108,202247,OH,0.02
Bergen,40.7898,-74.1343,4.5563915493341,-0.220657277,202247,NJ,0.02
Fulton,33.5242,-84.679,4.5537932199239,-0.220338983,202247,GA,0.02
Otter Tail,46.153,-95.3289,4.5520528288538,-0.220125786,202247,MN,0.02
La Salle,28.0405,-99.3563,4.540821875,-0.21875,202247,LA,0.02
Phillips,34.1335,-90.9751,4.5342807696494,-0.217948718,202247,AR,0.02
Queen Anne's,38.9394,-76.3371,4.5328853351474,-0.217777778,202247,MD,0.02
Cerro Gordo,42.9137,-93.4773,4.5314660148296,-0.217603912,202247,IA,0.02
Outagamie,44.2425,-88.3564,4.5308027222147,-0.217522659,202247,WI,0.02
Greenville,34.6578,-82.2441,4.528124433281,-0.21719457,202247,SC,0.02
Minnehaha,43.4775,-96.7041,4.523250453383,-0.21659751,202247,SD,0.02
Spokane,47.2999,-117.1395,4.5201378360728,-0.216216216,202247,WA,0.02
Mills,31.4458,-98.5744,4.5158117687075,-0.215686275,202247,TX,0.02
Winnebago,42.2166,-89.0512,4.5144318934553,-0.215517241,202247,IA,0.02
Buffalo,40.6861,-99.0693,4.5112709249192,-0.215130024,202247,NE,0.02
Virginia Beach,36.6224,-76.0249,4.5102095,-0.215,202247,VA,0.02
Delaware,36.1662,-94.8547,4.5043785690962,-0.214285714,202247,IA,0.02
Sheridan,39.3322,-100.4758,4.5043785690962,-0.214285714,202247,WY,0.02
Washington,30.1669,-96.3977,4.5043785690962,-0.214285714,202247,UT,0.02
Worcester,38.0452,-75.4108,4.5043785690962,-0.214285714,202247,RI,0.02
Cass,32.8485,-94.5795,4.4973870536681,-0.213429257,202247,MO,0.02
Washington,30.1669,-96.3977,4.4930929048058,-0.212903226,202247,MN,0.02
Pontotoc,34.1617,-89.1795,4.4919723367781,-0.212765957,202247,OK,0.02
Benton,34.6244,-89.1862,4.4910929126324,-0.212658228,202247,IA,0.02
Olmsted,43.8555,-92.4885,4.4867090899196,-0.212121212,202247,MN,0.02
Cedar,37.6613,-94.0129,4.4806756112162,-0.211382114,202247,NE,0.02
Luzerne,40.9448,-76.1452,4.47704609375,-0.2109375,202247,PA,0.02
Sarpy,41.0765,-96.1438,4.4766122470082,-0.210884354,202247,NE,0.02
Jasper,30.3129,-94.0731,4.4608641800792,-0.208955224,202247,MO,0.02
Northampton,36.2773,-77.2969,4.4595252764297,0.208791209,202247,PA,0.02
Forsyth,34.2037,-84.1031,4.4538213909638,-0.208092486,202247,NC,0.02
Cleburne,33.5616,-85.3786,4.4440586229416,-0.206896552,202247,AL,0.02
Mahoning,40.8957,-80.9897,4.4413415093531,-0.206563707,202247,OH,0.02
Dawes,42.4439,-103.2985,4.4331116702948,-0.205555556,202247,NE,0.02
Campbell,36.3028,-84.203,4.4288701420643,-0.205035971,202247,KY,0.02
Monroe,24.5552,-81.7816,4.4235116784746,-0.204379562,202247,PA,0.02
Breckinridge,37.6194,-86.4491,4.4210795946689,-0.204081633,202247,KY,0.02
Lawrence,31.4036,-90.1864,4.4194621347335,-0.203883495,202247,AL,0.02
Ashland,40.6361,-82.2356,4.419082010669,-0.20383693,202247,OH,0.02
Clermont,38.7926,-84.1382,4.4172152027351,-0.203608247,202247,OH,0.02
Dallas,32.1899,-87.0633,4.4154322074023,-0.203389831,202247,IA,0.02
Polk,26.4722,-81.8122,4.411669244471,-0.20292887,202247,IA,0.02
Marion,28.9782,-81.8932,4.4114217413783,-0.202898551,202247,OH,0.02
Rio Grande,37.5731,-106.1408,4.405128726878,-0.20232766,202247,CO,0.02
Avoyelles,30.8641,-92.1466,4.4042515149866,-0.202020202,202247,LA,0.02
Carroll,33.3343,-89.757,4.4039249503334,-0.201980198,202247,IA,0.02
Rockland,41.0103,-73.925,4.4017742473154,-0.201716738,202247,NY,0.02
St. Mary's,38.0828,-76.3477,4.4000587543103,-0.201506591,202247,MD,0.02
Chatham,31.9268,-81.0381,4.3968810020294,-0.201117318,202247,GA,0.02
Crawford,32.7222,-84.0451,4.3948895160146,-0.200873362,202247,KS,0.02
Cambria,40.2799,-78.8032,4.38776,-0.2,202247,PA,0.02
Cumberland,34.9536,-78.9354,4.38776,-0.2,202247,ME,0.02
Greene,31.0867,-88.7977,4.38776,-0.2,202247,OH,0.02
Beaver,36.5996,-100.7103,4.3752969429506,-0.198473282,202247,PA,0.02
Houston,31.0507,-85.3154,4.3744502699645,-0.198369565,202247,AL,0.02
Burleigh,46.6757,-100.2975,4.3693118644529,-0.197740113,202247,ND,0.02
Marion,28.9782,-81.8932,4.3642926104681,-0.197125257,202247,IA,0.02
Marion,28.9782,-81.8932,4.3598512854701,-0.196581197,202247,IN,0.02
Craighead,35.7456,-90.5507,4.3509330843026,-0.195488722,202247,AR,0.02
Allen,30.4607,-92.8693,4.3502275874267,-0.195402299,202247,IN,0.02
Mobile,30.2521,-88.1096,4.3479390225983,-0.195121951,202247,AL,0.02
Nacogdoches,31.3601,-94.4064,4.3439301973976,-0.194630872,202247,TX,0.02
Auglaize,40.391,-84.3729,4.3387424937173,-0.193995381,202247,OH,0.02
Coshocton,40.1804,-81.8951,4.3317030025751,-0.193133047,202247,OH,0.02
Douglas,33.6634,-84.8639,4.3304736830648,-0.192982456,202247,MN,0.02
Fayette,29.6882,-96.9106,4.3272911144369,-0.192592593,202247,IA,0.02
Licking,39.9337,-82.4724,4.3217939400536,-0.191919192,202247,OH,0.02
Chase,38.1448,-96.5541,4.3182851088146,-0.191489362,202247,NE,0.02
Douglas,33.6634,-84.8639,4.3182851088146,-0.191489362,202247,WI,0.02
McLeod,44.7259,-94.4516,4.3163868885023,-0.191256831,202247,MN,0.02
Essex,37.7681,-76.7117,4.2995081065637,-0.189189189,202247,NH,0.02
Haskell,33.0771,-99.959,4.2970566675737,-0.188888889,202247,OK,0.02
Bucks,40.0933,-74.8991,4.2953452807085,-0.188679245,202247,PA,0.02
Carlton,46.4472,-92.7466,4.2953452807085,-0.188679245,202247,MN,0.02
Strafford,43.1174,-70.9197,4.2891429523079,-0.187919463,202247,NH,0.02
Crawford,32.7222,-84.0451,4.28571875,-0.1875,202247,PA,0.02
Dunn,44.7152,-91.9822,4.28571875,-0.1875,202247,WI,0.02
Salem,37.2853,-80.0692,4.28571875,-0.1875,202247,VA,0.02
Orange,28.3774,-81.1888,4.2833890421396,-0.187214612,202247,FL,0.02
Nemaha,39.6428,-95.8231,4.2668222207105,-0.185185185,202247,KS,0.02
Somerset,37.9666,-76.0235,4.2668222207105,-0.185185185,202247,NJ,0.02
Ocean,39.5881,-74.3646,4.2668222207105,0.185185185,202247,NJ,0.02
Tolland,41.629,-72.3646,4.2621707723705,-0.184615385,202247,CT,0.02
Wapello,40.9261,-92.2268,4.2591849964157,-0.184249629,202247,IA,0.02
Scioto,38.5848,-82.8321,4.2473161296467,-0.182795699,202247,OH,0.02
Bonneville,43.3861,-111.2527,4.242992119433,-0.18226601,202247,ID,0.02
Chesterfield,34.4606,-80.2544,4.2393363651206,-0.181818182,202247,VA,0.02
Ottawa,36.6296,-94.9432,4.2393363651206,-0.181818182,202247,OH,0.02
Elkhart,41.4493,-85.9945,4.2393363651206,0.181818182,202247,IN,0.02
Portage,41.0328,-81.2484,4.2334929117146,-0.181102362,202247,OH,0.02
Mills,31.4458,-98.5744,4.2193690557701,-0.179372197,202247,IA,0.02
Graves,36.5603,-88.5692,4.2128321463557,-0.178571429,202247,KY,0.02
Harrison,30.3598,-89.1646,4.2128321463557,-0.178571429,202247,MO,0.02
St. Louis,38.4566,-90.3282,4.2128321463557,-0.178571429,202247,MO,0.02
Warren,32.3258,-90.8507,4.2112562131274,-0.178378378,202247,VA,0.02
Labette,37.0418,-95.0796,4.201760760527,-0.17721519,202247,KS,0.02
Seminole,28.6133,-81.2581,4.2011702845481,-0.177142857,202247,FL,0.02
Muskegon,43.1443,-86.1388,4.2006843722789,-0.177083333,202247,MI,0.02
Macomb,42.4658,-82.9459,4.1956823510204,-0.176470588,202247,MI,0.02
Taylor,29.6739,-83.3723,4.1956823510204,-0.176470588,202247,TX,0.02
Champaign,39.9012,-88.0753,4.1926622647157,-0.176100629,202247,IL,0.02
New Castle,39.3819,-75.6834,4.1878424483132,-0.175510204,202247,DE,0.02
King,33.6206,-100.3229,4.1869691548058,-0.175403226,202247,WA,0.02
Saunders,41.0541,-96.3904,4.1857814436356,0.175257732,202247,NE,0.02
Dawson,32.5273,-101.716,4.1777497931747,-0.174273859,202247,NE,0.02
O'Brien,42.9444,-95.5515,4.1776589846255,-0.174262735,202247,IA,0.02
Westchester,40.9002,-73.781,4.1711826550604,-0.173469388,202247,NY,0.02
Kingfisher,35.7502,-97.93,4.1679788455259,-0.173076923,202247,OK,0.02
Forsyth,34.2037,-84.1031,4.1660407393298,-0.172839506,202247,GA,0.02
Martin,27.0595,-80.1364,4.1625655163969,-0.172413793,202247,FL,0.02
Poweshiek,41.5656,-92.6987,4.160701320719,-0.17218543,202247,IA,0.02
Grant,31.5,-92.4005,4.1488341437531,-0.170731707,202247,WA,0.02
Denver,39.6431,-104.8987,4.1476629387755,-0.170588235,202247,CO,0.02
Dakota,42.2852,-96.7159,4.1415462678818,-0.169838946,202247,NE,0.02
Kane,37.0475,-112.5263,4.1365815365777,-0.169230769,202247,IL,0.02
Gregory,43.0351,-98.8308,4.1348126800805,-0.169014085,202247,SD,0.02
Goodhue,44.211,-92.6613,4.1309370799358,-0.168539326,202247,MN,0.02
Benton,34.6244,-89.1862,4.1156500027211,-0.166666667,202247,OK,0.02
Jefferson,28.883,-81.3087,4.1156500027211,-0.166666667,202247,KS,0.02
San Bernardino,33.6736,-116.2951,4.1156500027211,-0.166666667,202247,CA,0.02
Washington,30.1669,-96.3977,4.1156500027211,-0.166666667,202247,MS,0.02
Wyoming,37.4909,-81.3226,4.1156500027211,-0.166666667,202247,PA,0.02
Tulare,35.805,-119.1315,4.0957879591241,-0.164233577,202247,CA,0.02
Gage,40.0451,-96.8019,4.0933458997658,-0.163934426,202247,NE,0.02
Philadelphia,39.8893,-75.1782,4.0921922377199,-0.163793103,202247,PA,0.02
Henrico,37.4638,-77.398,4.0894855731554,-0.163461538,202247,VA,0.02
Rockingham,36.3432,-79.6642,4.0878836724698,-0.163265306,202247,NH,0.02
Thurston,42.0574,-96.4929,4.08163625,-0.1625,202247,WA,0.02
Garland,34.4351,-93.242,4.0670589309038,-0.160714286,202247,AR,0.02
Cass,32.8485,-94.5795,4.0659948937286,-0.160583942,202247,ND,0.02
Lancaster,34.5578,-80.5546,4.063321151753,-0.16025641,202247,PA,0.02
Richmond,33.2941,-82.203,4.0558456016147,-0.159340659,202247,NY,0.02
Barnes,46.6536,-98.1943,4.0538068174397,-0.159090909,202247,ND,0.02
Dubuque,42.2775,-90.7507,4.0461011193845,-0.158146965,202247,IA,0.02
York,34.8507,-80.9342,4.0385054136335,-0.157216495,202247,NE,0.02
Erie,41.3111,-82.6126,4.020727909508,-0.15503876,202247,NY,0.02
Holt,39.9809,-95.1234,4.0160975632985,0.154471545,202247,NE,0.02
Thurston,42.0574,-96.4929,4.0109923089482,0.153846154,202247,NE,0.02
Noble,36.2753,-97.4526,4.0071398762489,-0.153374233,202247,IN,0.02
Butler,31.545,-86.7356,4.0059282221198,-0.153225806,202247,PA,0.02
Saline,34.4508,-92.6547,3.9872962245668,-0.150943396,202247,MO,0.02
Moultrie,39.4796,-88.5242,3.9832070806574,-0.150442478,202247,IL,0.02
Lee,26.3398,-81.7787,3.979595,-0.15,202247,IL,0.02
Stark,40.6514,-81.3076,3.9722501279681,-0.149100257,202247,OH,0.02
Cottonwood,43.8831,-95.1373,3.970910636561,-0.14893617,202247,MN,0.02
Walworth,42.5136,-88.4843,3.9644777765684,-0.148148148,202247,WI,0.02
Boulder,39.9205,-105.0867,3.9555852979592,-0.147058824,202247,CO,0.02
Camp,32.9623,-94.9603,3.9497292649079,-0.146341463,202247,TX,0.02
Meade,37.2701,-100.5732,3.9497292649079,-0.146341463,202247,KY,0.02
Guilford,35.9345,-79.7019,3.9474921370328,-0.146067416,202247,NC,0.02
Mille Lacs,45.5851,-93.5961,3.9474921370328,-0.146067416,202247,MN,0.02
Mercer,37.2698,-81.2223,3.9424890871985,-0.145454545,202247,KY,0.02
DuPage,41.7074,-87.9756,3.9366302622986,-0.144736842,202247,IL,0.02
Saline,34.4508,-92.6547,3.9333082481801,-0.144329897,202247,NE,0.02
Bartow,34.12,-84.757,3.9212857154519,-0.142857143,202247,GA,0.02
Fond du Lac,43.6042,-88.2729,3.9212857154519,-0.142857143,202247,WI,0.02
Shelby,31.7131,-93.9698,3.9212857154519,-0.142857143,202247,IN,0.02
Middlesex,37.5512,-76.3844,3.9174241725098,-0.142384106,202247,NJ,0.02
Anderson,31.648,-95.5551,3.9030640625,-0.140625,202247,KY,0.02
Johnson,32.2532,-97.3678,3.87755375,0.1375,202247,MO,0.02
Cook,31.0403,-83.3915,3.8684899155605,-0.136389685,202247,IL,0.02
Albemarle,37.7511,-78.6313,3.864674756489,-0.13592233,202247,VA,0.02
Anchorage,59.8666,-158.5996,3.8435399972789,-0.133333333,202247,AK,0.02
Kossuth,42.9868,-94.0959,3.8435399972789,-0.133333333,202247,IA,0.02
Los Alamos,35.8275,-106.2039,3.8435399972789,-0.133333333,202247,NM,0.02
Franklin,29.7255,-85.0063,3.8408591124158,-0.133004926,202247,WA,0.02
Sangamon,39.5394,-89.7621,3.8308837230818,-0.131782946,202247,IL,0.02
Lincoln,31.3795,-90.2867,3.8016769214024,-0.128205128,202247,WI,0.02
New Hanover,33.9927,-77.9099,3.8016769214024,-0.128205128,202247,NC,0.02
Calvert,38.3293,-76.4651,3.7992430253441,-0.127906977,202247,MD,0.02
Chippewa,44.9226,-95.4845,3.7898845039379,-0.126760563,202247,MN,0.02
Monroe,24.5552,-81.7816,3.7878066257192,-0.126506024,202247,IA,0.02
White,34.5839,-83.75,3.7755125,-0.125,202247,AR,0.02
DeSoto,27.0675,-81.9855,3.7755125,0.125,202247,MS,0.02
Mayes,36.1669,-95.3416,3.7755125,0.125,202247,OK,0.02
Schuylkill,40.5545,-76.2038,3.7755125,0.125,202247,PA,0.02
Berrien,31.0825,-83.2143,3.7562594304197,-0.122641509,202247,MI,0.02
Santa Clara,37.0095,-121.5705,3.750624394226,-0.12195122,202247,CA,0.02
Union,29.9315,-82.4255,3.750624394226,-0.12195122,202247,IA,0.02
Phelps,37.6158,-91.9064,3.7445909073593,-0.121212121,202247,MO,0.02
Broomfield,39.9619,-105.0148,3.7412704687577,-0.120805369,202247,CO,0.02
Crow Wing,46.2099,-94.2527,3.7203550655819,-0.118243243,202247,MN,0.02
Harrison,30.3598,-89.1646,3.7154882367347,-0.117647059,202247,IA,0.02
Santa Rosa,30.3571,-87.1639,3.7154882367347,-0.117647059,202247,FL,0.02
Monona,41.9186,-95.829,3.7092519490061,-0.116883117,202247,IA,0.02
Major,36.2341,-98.3374,3.6970192276295,-0.115384615,202247,OK,0.02
Hillsborough,27.6784,-82.4787,3.6934103469857,-0.114942529,202247,NH,0.02
Eau Claire,44.5963,-90.9906,3.6880485690962,0.114285714,202247,WI,0.02
Orange,28.3774,-81.1888,3.6713887758434,-0.112244898,202247,CA,0.02
Hudson,40.6664,-74.1192,3.6621333324263,-0.111111111,202247,NJ,0.02
Clayton,33.4429,-84.3136,3.6621333324263,0.111111111,202247,GA,0.02
Kanawha,38.0505,-81.4227,3.6621333324263,0.111111111,202247,WV,0.02
St. Louis,38.4566,-90.3282,3.6564107285135,-0.110410095,202247,MN,0.02
Butler,31.545,-86.7356,3.6079820900396,0.104477612,202247,NE,0.02
Cherokee,31.4885,-94.9399,3.6020648975447,-0.103752759,202247,IA,0.02
Multnomah,45.4446,-122.5372,3.5973452366699,-0.103174603,202247,OR,0.02
Adams,31.4706,-91.4044,3.5923615420199,0.102564103,202247,CO,0.02
Neosho,37.4527,-95.4671,3.5911006060487,-0.102409639,202247,KS,0.02
Winchester,39.1676,-78.1686,3.5817632928959,-0.101265823,202247,VA,0.02
Boone,34.7399,-92.34,3.5762603552228,-0.100591716,202247,NE,0.02
Perkins,40.8073,-101.9839,3.57143,-0.1,202247,NE,0.02
Washington,30.1669,-96.3977,3.57143,-0.1,202247,PA,0.02
Kennebec,44.1634,-69.9581,3.5666561429765,-0.099415205,202247,ME,0.02
Crawford,32.7222,-84.0451,3.565640424374,-0.09929078,202247,IA,0.02
Adair,35.6826,-94.7611,3.5554235319728,-0.098039216,202247,IA,0.02
Humboldt,40.0231,-124.0139,3.5424233542733,-0.096446701,202247,NV,0.02
Sherburne,45.3136,-93.5814,3.5211574761386,-0.093841642,202247,MN,0.02
McClain,34.8904,-97.0997,3.520409375,0.09375,202247,OK,0.02
Arapahoe,39.5805,-104.9011,3.5040266033327,-0.091743119,202247,CO,0.02
Montgomery,30.1199,-95.4247,3.4972181825603,-0.090909091,202247,TN,0.02
Montgomery,30.1199,-95.4247,3.4972181825603,-0.090909091,202247,IA,0.02
Christian,36.6543,-87.4606,3.4972181825603,0.090909091,202247,KY,0.02
Howard,32.1105,-101.3669,3.4753911755102,-0.088235294,202247,NE,0.02
Ohio,37.3418,-86.77,3.4753911755102,-0.088235294,202247,KY,0.02
Lake,28.5494,-81.7729,3.4649521760426,-0.086956522,202247,IL,0.02
Monmouth,40.1077,-74.0635,3.4619779348307,-0.086592179,202247,NJ,0.02
Platte,39.1776,-94.6321,3.4519670759582,-0.085365854,202247,MO,0.02
Knox,33.4183,-99.8137,3.4394485003055,-0.083832335,202247,IN,0.02
Putnam,25.7964,-80.3849,3.4394485003055,0.083832335,202247,OH,0.02
Brazoria,28.9541,-95.3597,3.4353749972789,-0.083333333,202247,TX,0.02
Galveston,29.2205,-94.9444,3.4353749972789,-0.083333333,202247,TX,0.02
Cherokee,31.4885,-94.9399,3.4260561658373,-0.082191781,202247,KS,0.02
Shelby,31.7131,-93.9698,3.4222927865777,0.081730769,202247,IA,0.02
Worth,31.513,-83.7385,3.4169891885273,0.081081081,202247,IA,0.02
Litchfield,41.5287,-73.3609,3.408164,-0.08,202247,CT,0.02
Roseau,48.5459,-96.0879,3.3953588272109,-0.078431373,202247,MN,0.02
Columbia,29.9207,-82.6879,3.3830461544741,0.076923077,202247,NY,0.02
Jackson,28.7671,-96.6492,3.3711981122834,-0.075471698,202247,IA,0.02
Morris,32.9252,-94.7049,3.3673475,-0.075,202247,NJ,0.02
Charles Mix,42.9925,-98.4251,3.3673475,0.075,202247,SD,0.02
Clay,29.7683,-81.9907,3.3643014952178,0.074626866,202247,KS,0.02
Montgomery,30.1199,-95.4247,3.3479653604834,-0.072625698,202247,IL,0.02
Dauphin,40.2041,-76.7331,3.3452180753381,0.072289157,202247,PA,0.02
Ottawa,36.6296,-94.9432,3.3442041200084,-0.072164948,202247,MI,0.02
Pulaski,32.2778,-83.4948,3.3381928536443,-0.071428571,202247,AR,0.02
Stevens,37.1682,-101.3346,3.3381928536443,-0.071428571,202247,MN,0.02
Adams,31.4706,-91.4044,3.3381928536443,0.071428571,202247,IN,0.02
Cecil,39.3662,-75.8845,3.3381928536443,0.071428571,202247,MD,0.02
Rock,42.5083,-89.0318,3.3246325592786,-0.069767442,202247,MN,0.02
St. Croix,44.9408,-92.2848,3.3180862049261,-0.068965517,202247,WI,0.02
Lincoln,31.3795,-90.2867,3.3116886348794,-0.068181818,202247,MS,0.02
Lucas,40.9355,-93.4796,3.3066743278544,-0.067567568,202247,IA,0.02
Furnas,40.1063,-99.9715,3.2993200027211,-0.066666667,202247,NE,0.02
Itasca,47.0739,-93.1964,3.2933395609778,-0.065934066,202247,MN,0.02
Franklin,29.7255,-85.0063,3.286046338145,-0.06504065,202247,IA,0.02
Washington,30.1669,-96.3977,3.2817645158657,-0.064516129,202247,RI,0.02
Steele,43.8826,-93.3195,3.2613511638032,0.062015504,202247,NE,0.02
Miami,38.4102,-94.8718,3.2086166702948,-0.055555556,202247,KS,0.02
Cloud,39.3481,-97.4579,3.2003709128015,-0.054545455,202247,KS,0.02
Iredell,35.5432,-80.8473,3.1773396557354,-0.051724138,202247,NC,0.02
Montgomery,30.1199,-95.4247,3.1684316423663,-0.050632911,202247,PA,0.02
Steele,43.8826,-93.3195,3.1513766964137,-0.048543689,202247,MN,0.02
Owen,38.4986,-84.8086,3.1500983889401,-0.048387097,202247,KY,0.02
Angelina,31.1569,-94.3871,3.1438285745384,0.047619048,202247,TX,0.02
Orange,28.3774,-81.1888,3.1179133297052,0.044444444,202247,IN,0.02
Chickasaw,33.8066,-89.0256,3.1100260880213,0.043478261,202247,IA,0.02
Edgar,39.5525,-87.9352,3.1024744640903,0.042553191,202247,IL,0.02
Saline,34.4508,-92.6547,3.0866045680721,-0.040609137,202247,AR,0.02
Ada,43.4599,-116.244,3.081632,-0.04,202247,UT,0.02
Berkeley,32.9185,-80.022,3.081632,-0.04,202247,SC,0.02
Morgan,33.5368,-83.3435,3.081632,0.04,202247,AL,0.02
Dickinson,38.6767,-96.8941,3.0619909777505,-0.037593985,202247,IA,0.02
Franklin,29.7255,-85.0063,3.0519472697588,0.036363636,202247,KY,0.02
Cass,32.8485,-94.5795,3.0365931065447,-0.034482759,202247,NE,0.02
Venango,41.2002,-79.8734,3.0365931065447,0.034482759,202247,PA,0.02
Kent,33.2518,-100.5825,3.0212945680568,-0.032608696,202247,DE,0.02
Morrill,41.5825,-102.8225,3,-0.02739726,202247,NE,0.02
New Haven,41.2175,-73.0549,3,-0.024390244,202247,CT,0.02
Webster,31.8939,-84.5112,3,0.024390244,202247,IA,0.02
Laramie,41.0428,-104.2765,3,0.024096386,202247,WY,0.02
Grundy,35.2402,-85.8228,3,0.020134228,202247,IA,0.02
Nottoway,37.0916,-77.9851,3,-0.02,202247,VA,0.02
Nassau,30.4193,-81.9724,3,-0.019230769,202247,NY,0.02
Cochise,31.3373,-109.9413,3,0.018518519,202247,AZ,0.02
Cheyenne,38.804,-102.8198,3,-0.017391304,202247,NE,0.02
Ray,39.2048,-94.0259,3,-0.016393443,202247,MO,0.02
Jones,31.4555,-89.302,3,0.016129032,202247,IA,0.02
Winnebago,42.2166,-89.0512,3,-0.013157895,202247,WI,0.02
Lehigh,40.4734,-75.5261,3,-0.008849558,202247,PA,0.02
Oldham,35.1916,-102.2118,3,0.00862069,202247,KY,0.02
Hamilton,30.3387,-82.7765,3,-0.002777778,202247,OH,0.02
Atlantic,39.3194,-74.5356,3,0,202247,NJ,0.02
Audubon,41.5524,-94.974,3,0,202247,IA,0.02
Cache,41.56,-111.8297,3,0,202247,UT,0.02
Chautauqua,37.0262,-96.1783,3,0,202247,KS,0.02
Colfax,36.35,-104.7931,3,0,202247,NE,0.02
Douglas,33.6634,-84.8639,3,0,202247,CO,0.02
Essex,37.7681,-76.7117,3,0,202247,NJ,0.02
Gray,35.2273,-100.7592,3,0,202247,KS,0.02
Hampshire,39.1362,-78.4845,3,0,202247,MA,0.02
Kidder,46.8336,-99.6019,3,0,202247,ND,0.02
Lake,28.5494,-81.7729,3,0,202247,SD,0.02
Merrick,40.9856,-98.2217,3,0,202247,NE,0.02
Pembina,48.5924,-97.6738,3,0,202247,ND,0.02
Pitt,35.3757,-77.4193,3,0,202247,NC,0.02
Sagadahoc,43.7688,-69.815,3,0,202247,ME,0.02
Wood,32.6439,-95.222,3,0,202247,WV,0.02
