county,lat,lon,bubble,change,week,state,telemed
Lincoln,31.3795,-90.2867,16,8,202231,ME,-0.06
Butler,31.545,-86.7356,16,6,202231,OH,-0.06
New Haven,41.2175,-73.0549,16,4,202231,CT,-0.06
St. Clair,33.5296,-86.3007,16,2.857142857,202231,IL,-0.06
Saline,34.4508,-92.6547,16,2.513513514,202231,AR,-0.06
Anderson,31.648,-95.5551,16,2.060606061,202231,TX,-0.06
Washington,30.1669,-96.3977,16,2,202231,OR,-0.06
Saline,34.4508,-92.6547,16,18.28571429,202231,IL,-0.06
Randolph,33.1492,-85.5513,16,114,202231,IL,-0.06
Hughes,34.878,-96.271,16,1.9,202231,SD,-0.06
Kenton,38.8394,-84.5069,16,1.596491228,202231,KY,-0.06
Alamance,35.9066,-79.4279,15.00005,1.5,202231,NC,-0.06
Lake,28.5494,-81.7729,15.00005,1.5,202231,OH,-0.06
Spotsylvania,38.0641,-77.6586,14.1497062472789,1.395833333,202231,VA,-0.06
Lehigh,40.4734,-75.5261,13.6394999972789,1.333333333,202231,PA,-0.06
Mills,31.4458,-98.5744,13.5783516884201,1.325842697,202231,IA,-0.06
Thurston,42.0574,-96.4929,12.7324666648526,1.222222222,202231,NE,-0.06
Kit Carson,39.3087,-102.5979,12.1742923089482,1.153846154,202231,CO,-0.06
Weld,40.0597,-105.0686,11.9248342446743,1.123287671,202231,CO,-0.06
Hardin,30.1491,-94.3733,11.8758240771983,1.117283951,202231,TN,-0.06
Washington,30.1669,-96.3977,11.4749886348794,1.068181818,202231,OH,-0.06
Cherokee,31.4885,-94.9399,11.4344706912503,1.063218391,202231,OK,-0.06
Goodhue,44.211,-92.6613,11.3557196463557,1.053571429,202231,MN,-0.06
Franklin,29.7255,-85.0063,11.3166097576904,1.048780488,202231,VT,-0.06
Charleston,32.6529,-80.1829,10.9184,1,202231,SC,-0.06
Oxford,43.8262,-70.9243,10.9184,1,202231,ME,-0.06
Sullivan,36.4195,-82.304,10.9184,1,202231,NY,-0.06
Waller,29.8072,-95.9755,10.3741799972789,-0.933333333,202231,TX,-0.06
Essex,37.7681,-76.7117,10.2381250027211,-0.916666667,202231,ME,-0.06
Washington,30.1669,-96.3977,10.1762818174397,0.909090909,202231,VA,-0.06
Burlington,39.5923,-74.451,9.8442815819549,0.868421053,202231,NJ,-0.06
Cheshire,42.7544,-72.019,9.8052227302412,-0.863636364,202231,NH,-0.06
Tippecanoe,40.247,-86.725,9.4023585690962,0.814285714,202231,IN,-0.06
Plumas,39.5645,-121.5751,9.28574,0.8,202231,CA,-0.06
Woodward,36.214,-99.1145,9.2156257673219,0.791411043,202231,OK,-0.06
Becker,46.7565,-95.5212,8.9813457593912,0.762711864,202231,MN,-0.06
Wyoming,37.4909,-81.3226,8.8192657154519,-0.742857143,202231,PA,-0.06
Neshoba,32.6439,-89.112,8.7888434800355,0.739130435,202231,MS,-0.06
Deschutes,43.7091,-121.5194,8.7701631557465,0.736842105,202231,OR,-0.06
Okmulgee,35.4551,-95.9498,8.6920454523191,0.727272727,202231,OK,-0.06
Gray,35.2273,-100.7592,8.6080320748556,-0.716981132,202231,KS,-0.06
Pottawatomie,34.9849,-96.8763,8.2653275,0.675,202231,KS,-0.06
Bourbon,37.7175,-94.6613,8.1973000027211,-0.666666667,202231,KY,-0.06
Hudson,40.6664,-74.1192,8.1973000027211,-0.666666667,202231,NJ,-0.06
Calhoun,28.4101,-96.7023,8.1973000027211,0.666666667,202231,IA,-0.06
Kidder,46.8336,-99.6019,8.1973000027211,0.666666667,202231,ND,-0.06
Nemaha,39.6428,-95.8231,8.1656593049834,0.662790698,202231,NE,-0.06
Arlington,38.8415,-77.0905,8.1511796597717,0.661016949,202231,VA,-0.06
El Paso,31.4407,-106.0765,8.1487089309038,-0.660714286,202231,CO,-0.06
Portage,41.0328,-81.2484,8.1284113915784,0.658227848,202231,OH,-0.06
Charles Mix,42.9925,-98.4251,8.021745158657,0.64516129,202231,SD,-0.06
Salt Lake,40.4954,-111.9444,8.0029357154519,0.642857143,202231,UT,-0.06
Pottawattamie,41.1916,-95.4314,7.9344261100016,0.634464752,202231,IA,-0.06
Nemaha,39.6428,-95.8231,7.9251899972789,-0.633333333,202231,KS,-0.06
White Pine,38.8641,-115.0069,7.9108684180451,0.631578947,202231,NV,-0.06
Preble,39.5897,-84.5581,7.8966259656782,-0.629834254,202231,OH,-0.06
Marion,28.9782,-81.8932,7.8900790317314,0.629032258,202231,OH,-0.06
Franklin,29.7255,-85.0063,7.877170585034,-0.62745098,202231,MA,-0.06
Tazewell,36.9763,-81.628,7.8379094304197,0.622641509,202231,IL,-0.06
Delaware,36.1662,-94.8547,7.8285528028991,0.621495327,202231,OH,-0.06
Caldwell,29.6826,-97.6499,7.65308,-0.6,202231,KY,-0.06
Chautauqua,37.0262,-96.1783,7.65308,0.6,202231,KS,-0.06
Essex,37.7681,-76.7117,7.65308,0.6,202231,MO,-0.06
Santa Cruz,31.377,-110.9435,7.65308,0.6,202231,CA,-0.06
McKinley,35.0684,-108.8336,7.5246685399679,0.584269663,202231,NM,-0.06
Rankin,32.0627,-89.9929,7.4198428536443,0.571428571,202231,MS,-0.06
Nottoway,37.0916,-77.9851,7.326548,-0.56,202231,VA,-0.06
Antelope,41.9732,-98.0751,7.3169441142857,-0.558823529,202231,NE,-0.06
Otter Tail,46.153,-95.3289,7.3169441142857,-0.558823529,202231,MN,-0.06
Hall,34.1819,-83.9024,7.2902666702948,-0.555555556,202231,GA,-0.06
Hughes,34.878,-96.271,7.2902666702948,0.555555556,202231,OK,-0.06
Pike,31.0217,-90.479,7.2385704669134,-0.549222798,202231,KY,-0.06
Orange,28.3774,-81.1888,7.2028780703234,0.544850498,202231,FL,-0.06
Sacramento,38.157,-121.6066,7.1507230731554,0.538461538,202231,CA,-0.06
Vermilion,29.9466,-92.2416,7.1507230731554,0.538461538,202231,LA,-0.06
Henry,31.3534,-85.3323,7.0941513551756,0.531531532,202231,IA,-0.06
Vernon,30.9243,-93.2749,7.0515736803437,0.526315789,202231,MO,-0.06
Webster,31.8939,-84.5112,7.0408325,0.525,202231,IA,-0.06
Camden,30.7305,-81.5465,7.014213039929,0.52173913,202231,NJ,-0.06
Cass,32.8485,-94.5795,6.9879222261527,-0.518518519,202231,NE,-0.06
Phillips,34.1335,-90.9751,6.9495027649115,-0.513812155,202231,AR,-0.06
Brazoria,28.9541,-95.3597,6.83675,-0.5,202231,TX,-0.06
Cherokee,31.4885,-94.9399,6.83675,-0.5,202231,TX,-0.06
Edgar,39.5525,-87.9352,6.83675,-0.5,202231,IL,-0.06
Knox,33.4183,-99.8137,6.83675,-0.5,202231,ME,-0.06
Madison,30.3979,-83.2844,6.83675,-0.5,202231,IL,-0.06
Wood,32.6439,-95.222,6.83675,-0.5,202231,WV,-0.06
Benton,34.6244,-89.1862,6.83675,0.5,202231,MN,-0.06
Murray,34.402,-97.051,6.83675,0.5,202231,GA,-0.06
Saratoga,42.81,-73.6995,6.6855777738473,0.481481481,202231,NY,-0.06
Merrick,40.9856,-98.2217,6.6423857127308,-0.476190476,202231,NE,-0.06
Elkhart,41.4493,-85.9945,6.5966529387755,-0.470588235,202231,IN,-0.06
Logan,35.1304,-93.7116,6.5571849343025,0.465753425,202231,KY,-0.06
Pocahontas,38.1109,-80.2641,6.5287009438583,0.462264151,202231,IA,-0.06
Mercer,37.2698,-81.2223,6.4656909128015,0.454545455,202231,NJ,-0.06
Stafford,37.9433,-98.9481,6.4385402423096,0.451219512,202231,VA,-0.06
Curry,34.3841,-103.3154,6.3621395339345,-0.441860465,202231,OR,-0.06
Cedar,37.6613,-94.0129,6.2830876959248,0.432176656,202231,IA,-0.06
Winneshiek,43.1339,-91.9134,6.2183181798392,0.424242424,202231,IA,-0.06
Bergen,40.7898,-74.1343,6.1722953475083,0.418604651,202231,NJ,-0.06
Rowan,35.5435,-80.6129,6.1564750027211,-0.416666667,202231,NC,-0.06
Benton,34.6244,-89.1862,6.1564750027211,0.416666667,202231,AR,-0.06
Rutland,43.3583,-73.0129,6.1164588244898,0.411764706,202231,VT,-0.06
Martin,27.0595,-80.1364,6.104146151753,-0.41025641,202231,MN,-0.06
Martin,27.0595,-80.1364,6.0870591811745,-0.408163265,202231,FL,-0.06
Hancock,30.2391,-89.4595,6.0490631584676,0.403508772,202231,IL,-0.06
Henry,31.3534,-85.3323,6.02042,-0.4,202231,OH,-0.06
DeKalb,33.6823,-84.161,6.02042,0.4,202231,GA,-0.06
Siskiyou,41.2124,-122.2734,6.02042,0.4,202231,CA,-0.06
Hardin,30.1491,-94.3733,5.9374033859564,0.389830508,202231,IA,-0.06
Midland,31.8693,-102.0317,5.9297166675737,-0.388888889,202231,TX,-0.06
Shelby,31.7131,-93.9698,5.9091022697588,-0.386363636,202231,AL,-0.06
Platte,39.1776,-94.6321,5.9035979035082,-0.385689354,202231,MO,-0.06
Addison,43.7837,-73.2949,5.8948307723705,0.384615385,202231,VT,-0.06
Jasper,30.3129,-94.0731,5.8806878387939,0.382882883,202231,IA,-0.06
Poweshiek,41.5656,-92.6987,5.8793259228017,-0.382716049,202231,IA,-0.06
Livingston,30.2716,-90.7043,5.8472590926407,0.378787879,202231,NY,-0.06
Waseca,43.8937,-93.4995,5.8163375,-0.375,202231,MN,-0.06
Lee,26.3398,-81.7787,5.7973235987831,-0.372670807,202231,IL,-0.06
Harrison,30.3598,-89.1646,5.796329414966,-0.37254902,202231,OH,-0.06
Ottawa,36.6296,-94.9432,5.7901730785976,0.371794872,202231,OK,-0.06
James City,37.2235,-76.7833,5.7798941940962,-0.370535714,202231,VA,-0.06
Adams,31.4706,-91.4044,5.7719717359361,-0.369565217,202231,CO,-0.06
Middlesex,37.5512,-76.3844,5.7273784607012,0.364102564,202231,NJ,-0.06
Jefferson,28.883,-81.3087,5.7235727302412,0.363636364,202231,PA,-0.06
Cecil,39.3662,-75.8845,5.693888,0.36,202231,MD,-0.06
Dundy,40.0642,-101.9371,5.6855153848247,-0.358974359,202231,NE,-0.06
Valley,41.4293,-99.1205,5.6748204414122,0.357664234,202231,NE,-0.06
Jackson,28.7671,-96.6492,5.6576066702948,0.355555556,202231,IA,-0.06
Montgomery,30.1199,-95.4247,5.6362647020408,-0.352941176,202231,IA,-0.06
Windsor,43.2831,-72.6031,5.612255,0.35,202231,VT,-0.06
Oktibbeha,33.357,-89.0473,5.5567059149378,-0.343195266,202231,MS,-0.06
Custer,35.5115,-98.9795,5.5450886084216,0.341772152,202231,OK,-0.06
Waukesha,42.8809,-88.4674,5.5409880930353,0.341269841,202231,WI,-0.06
Barton,37.3995,-94.1027,5.4923489638709,0.335311573,202231,KS,-0.06
Benton,34.6244,-89.1862,5.4761999972789,0.333333333,202231,OK,-0.06
Clark,33.8309,-93.1263,5.4761999972789,0.333333333,202231,KY,-0.06
Hays,29.8754,-97.9404,5.4761999972789,0.333333333,202231,TX,-0.06
Henry,31.3534,-85.3323,5.4761999972789,0.333333333,202231,IN,-0.06
Linn,38.0718,-94.7008,5.4761999972789,0.333333333,202231,OR,-0.06
Simpson,31.8277,-90.0088,5.4761999972789,0.333333333,202231,KY,-0.06
Westchester,40.9002,-73.781,5.4761999972789,0.333333333,202231,CT,-0.06
Seminole,28.6133,-81.2581,5.4625261269203,-0.331658291,202231,FL,-0.06
Kent,33.2518,-100.5825,5.4472521273122,-0.329787234,202231,RI,-0.06
Clay,29.7683,-81.9907,5.4143568201608,-0.325757576,202231,NE,-0.06
Albemarle,37.7511,-78.6313,5.3839593195434,-0.322033898,202231,VA,-0.06
Jefferson,28.883,-81.3087,5.3790178536443,0.321428571,202231,OK,-0.06
Kenai Peninsula,59.4495,-151.7009,5.3604085092488,0.319148936,202231,AK,-0.06
Orangeburg,33.2628,-80.8059,5.3525136348794,-0.318181818,202231,SC,-0.06
Skagit,48.34,-122.3456,5.3525136348794,-0.318181818,202231,WA,-0.06
Rockdale,33.6111,-84.0683,5.3525136348794,0.318181818,202231,GA,-0.06
El Dorado,38.55,-120.7304,5.3420612639264,0.316901408,202231,CA,-0.06
Jackson,28.7671,-96.6492,5.3384227831568,-0.316455696,202231,FL,-0.06
Haines,59.2519,-135.542,5.3329842131042,0.315789474,202231,AK,-0.06
St. Mary's,38.0828,-76.3477,5.2752096573593,-0.308712121,202231,MD,-0.06
Carroll,33.3343,-89.757,5.2288272724799,0.303030303,202231,IL,-0.06
Clayton,33.4429,-84.3136,5.20409,-0.3,202231,GA,-0.06
Washington,30.1669,-96.3977,5.1934883141267,0.298701299,202231,NE,-0.06
Norman,47.1588,-96.1309,5.1919059727079,0.298507463,202231,MN,-0.06
Hamilton,30.3387,-82.7765,5.1897684207662,-0.298245614,202231,TN,-0.06
Taylor,29.6739,-83.3723,5.1738555531368,-0.296296296,202231,WI,-0.06
Worcester,38.0452,-75.4108,5.1738555531368,-0.296296296,202231,RI,-0.06
Palo Alto,42.9417,-94.6746,5.168009111963,-0.29558011,202231,IA,-0.06
Kosciusko,41.0743,-85.8792,5.1657389227229,-0.295302013,202231,IN,-0.06
Sioux,42.6872,-103.8827,5.1612578669438,0.294753086,202231,IA,-0.06
Perkins,40.8073,-101.9839,5.1560705877551,0.294117647,202231,NE,-0.06
Jefferson,28.883,-81.3087,5.1250903254773,0.290322581,202231,KS,-0.06
Lincoln,31.3795,-90.2867,5.1250903254773,0.290322581,202231,OK,-0.06
Greenup,38.4322,-82.8094,5.1181605245972,0.289473684,202231,KY,-0.06
Giles,35.05,-87.1522,5.1133866675737,0.288888889,202231,TN,-0.06
Kimball,41.2139,-103.9075,5.1034465763489,0.287671233,202231,NE,-0.06
Powhatan,37.5421,-77.9189,5.1008758633826,-0.287356322,202231,VA,-0.06
Wicomico,38.2672,-75.9021,5.0921737937459,0.286290323,202231,MD,-0.06
Rush,38.4372,-99.4234,5.0874714309038,-0.285714286,202231,KS,-0.06
Henry,31.3534,-85.3323,5.0874714309038,0.285714286,202231,MO,-0.06
Erie,41.3111,-82.6126,5.051028125,0.28125,202231,NY,-0.06
Meade,37.2701,-100.5732,5.0465526284282,-0.280701754,202231,KY,-0.06
Essex,37.7681,-76.7117,5.040824,0.28,202231,NH,-0.06
Lyon,37.0619,-88.1498,5.0314048089482,-0.278846154,202231,NV,-0.06
Douglas,33.6634,-84.8639,5.0301180361325,0.278688525,202231,WI,-0.06
Monterey,35.8093,-120.9728,5.0273587590995,-0.278350515,202231,CA,-0.06
Chase,38.1448,-96.5541,5.0226833351474,-0.277777778,202231,NE,-0.06
Mendocino,38.8251,-123.5399,5.0226833351474,-0.277777778,202231,CA,-0.06
Mesa,38.6784,-108.9719,5.0130340451585,-0.276595745,202231,CO,-0.06
O'Brien,42.9444,-95.5515,5.0110546979708,0.276353276,202231,IA,-0.06
Lebanon,40.2236,-76.538,5.0070448278677,-0.275862069,202231,PA,-0.06
Codington,44.8858,-97.4442,4.9988140337033,0.274853801,202231,SD,-0.06
Barry,36.5276,-93.9359,4.9934241903884,-0.274193548,202231,MO,-0.06
Crawford,32.7222,-84.0451,4.9767575971067,0.272151899,202231,IA,-0.06
Rogers,36.1503,-95.5205,4.973388039929,-0.27173913,202231,OK,-0.06
White,34.5839,-83.75,4.9647150398036,0.270676692,202231,AR,-0.06
Chesterfield,34.4606,-80.2544,4.9632057354299,-0.270491803,202231,VA,-0.06
Butler,31.545,-86.7356,4.9529115365777,0.269230769,202231,KY,-0.06
Wichita,33.8579,-98.8081,4.9319800027211,-0.266666667,202231,KS,-0.06
Clinton,36.6857,-85.1407,4.9134594260498,0.264397906,202231,IA,-0.06
Douglas,33.6634,-84.8639,4.9080582439112,0.263736264,202231,WA,-0.06
Humboldt,40.0231,-124.0139,4.9066674380003,0.263565891,202231,CA,-0.06
Cleveland,33.7588,-92.1939,4.9045276574777,0.263303769,202231,OK,-0.06
Nassau,30.4193,-81.9724,4.8816739521866,-0.260504202,202231,FL,-0.06
Centre,40.71,-77.996,4.8764838811493,-0.259868421,202231,PA,-0.06
Cedar,37.6613,-94.0129,4.866298278677,-0.25862069,202231,NE,-0.06
Keith,41.1002,-101.9099,4.8617580634628,-0.258064516,202231,NE,-0.06
Dodge,31.938,-83.1837,4.8577681852814,-0.257575758,202231,MN,-0.06
Morrill,41.5825,-102.8225,4.8565435678319,-0.257425743,202231,NE,-0.06
Otoe,40.5586,-96.0138,4.8519077277215,-0.256857855,202231,NE,-0.06
Rio Arriba,35.9866,-106.0654,4.8482538428048,-0.256410256,202231,NM,-0.06
Mercer,37.2698,-81.2223,4.8231359972789,0.253333333,202231,KY,-0.06
Brown,31.5176,-99.1277,4.8154856219078,-0.252396166,202231,WI,-0.06
Audubon,41.5524,-94.974,4.795925,-0.25,202231,IA,-0.06
Burt,41.7715,-96.3924,4.795925,-0.25,202231,NE,-0.06
Cherry,42.2403,-100.2595,4.795925,-0.25,202231,NE,-0.06
Lane,38.4742,-100.4647,4.795925,-0.25,202231,OR,-0.06
Nicollet,44.2172,-94.0942,4.795925,-0.25,202231,MN,-0.06
DeSoto,27.0675,-81.9855,4.795925,0.25,202231,MS,-0.06
Granville,35.6555,-78.4611,4.795925,0.25,202231,NC,-0.06
Johnson,32.2532,-97.3678,4.795925,0.25,202231,NE,-0.06
Washington,30.1669,-96.3977,4.795925,0.25,202231,VT,-0.06
Benton,34.6244,-89.1862,4.7909352073649,-0.249388753,202231,IA,-0.06
Sequoyah,35.3898,-94.4462,4.7873139266684,0.248945148,202231,OK,-0.06
Saint Johns,29.7051,-81.4909,4.7671809839609,-0.246478873,202231,FL,-0.06
Luzerne,40.9448,-76.1452,4.7613347468696,0.245762712,202231,PA,-0.06
Putnam,25.7964,-80.3849,4.7588190871985,0.245454545,202231,OH,-0.06
Erie,41.3111,-82.6126,4.7467879585154,0.243980738,202231,OH,-0.06
Henrico,37.4638,-77.398,4.7430538855028,0.243523316,202231,VA,-0.06
Davis,40.6941,-92.258,4.7376157154519,-0.242857143,202231,IA,-0.06
Kanawha,38.0505,-81.4227,4.7314778934479,-0.242105263,202231,WV,-0.06
Humboldt,40.0231,-124.0139,4.725551721323,-0.24137931,202231,NV,-0.06
Barron,45.2462,-91.9742,4.7184253155257,0.240506329,202231,WI,-0.06
Harrison,30.3598,-89.1646,4.714292,0.24,202231,IA,-0.06
Sarpy,41.0765,-96.1438,4.7121472888442,0.239737274,202231,NE,-0.06
Morris,32.9252,-94.7049,4.7115933844493,-0.239669421,202231,NJ,-0.06
Norfolk,36.8294,-76.2701,4.7031602302412,0.238636364,202231,MA,-0.06
Washington,30.1669,-96.3977,4.6885131557465,0.236842105,202231,MD,-0.06
Elko,40.3995,-115.2312,4.6598699972789,0.233333333,202231,NV,-0.06
Allen,30.4607,-92.8693,4.6465963408661,-0.231707317,202231,KS,-0.06
Nacogdoches,31.3601,-94.4064,4.6447527738473,0.231481481,202231,TX,-0.06
Pike,31.0217,-90.479,4.6258562527211,0.229166667,202231,MS,-0.06
Washington,30.1669,-96.3977,4.6103954523191,0.227272727,202231,MS,-0.06
Jefferson,28.883,-81.3087,4.5918425,-0.225,202231,IA,-0.06
McCracken,37.0368,-88.5934,4.5827044774901,-0.223880597,202231,KY,-0.06
Walton,30.2835,-86.0305,4.5827044774901,0.223880597,202231,FL,-0.06
Osage,36.1576,-96.0311,4.5691666648526,-0.222222222,202231,KS,-0.06
Ness,38.4388,-99.9029,4.5691666648526,0.222222222,202231,KS,-0.06
Santa Rosa,30.3571,-87.1639,4.5691666648526,0.222222222,202231,FL,-0.06
Union,29.9315,-82.4255,4.5691666648526,0.222222222,202231,IA,-0.06
Bryan,31.8962,-81.294,4.5596189508056,-0.221052632,202231,OK,-0.06
York,34.8507,-80.9342,4.5537932199239,-0.220338983,202231,ME,-0.06
Shelby,31.7131,-93.9698,4.5417845321525,0.218867925,202231,IA,-0.06
Oklahoma,34.506,-97.1131,4.540821875,0.21875,202231,KS,-0.06
Alachua,29.4536,-82.1065,4.5378896584565,-0.218390805,202231,FL,-0.06
Licking,39.9337,-82.4724,4.5361836348794,0.218181818,202231,OH,-0.06
Atlantic,39.3194,-74.5356,4.5297304319432,0.217391304,202231,NJ,-0.06
Marshall,33.9517,-96.712,4.5238150027211,-0.216666667,202231,IA,-0.06
Noble,36.2753,-97.4526,4.5043785690962,-0.214285714,202231,OH,-0.06
Anne Arundel,38.7361,-76.5835,4.4938220425985,-0.212992545,202231,MD,-0.06
Fayette,29.6882,-96.9106,4.4919723367781,-0.212765957,202231,TN,-0.06
Winnebago,42.2166,-89.0512,4.48980125,0.2125,202231,WI,-0.06
Lake,28.5494,-81.7729,4.4843971943798,-0.211838006,202231,CA,-0.06
Madison,30.3979,-83.2844,4.4824877168768,-0.211604096,202231,MS,-0.06
Maury,35.4749,-87.0005,4.4797408480598,-0.211267606,202231,TN,-0.06
Fayette,29.6882,-96.9106,4.465505718173,-0.20952381,202231,KY,-0.06
New Hanover,33.9927,-77.9099,4.4636976778358,-0.209302326,202231,NC,-0.06
Grundy,35.2402,-85.8228,4.4557874972789,-0.208333333,202231,IA,-0.06
Indian River,27.5885,-80.3923,4.4395904733398,-0.206349206,202231,FL,-0.06
Barnes,46.6536,-98.1943,4.4395904733398,0.206349206,202231,ND,-0.06
Wayne,31.5168,-82.0397,4.4296230758765,-0.205128205,202231,NE,-0.06
Iredell,35.5432,-80.8473,4.4248659128015,-0.204545455,202231,NC,-0.06
Jefferson,28.883,-81.3087,4.42025075033,-0.2039801,202231,OH,-0.06
Hubbard,46.9319,-94.846,4.4179944468632,-0.203703704,202231,MN,-0.06
Shelby,31.7131,-93.9698,4.4179944468632,-0.203703704,202231,IN,-0.06
Nantucket,41.2639,-69.9626,4.4166566370959,0.203539823,202231,MA,-0.06
Williamson,30.4521,-97.7688,4.4098229753999,-0.202702703,202231,TX,-0.06
Wood,32.6439,-95.222,4.4084265857918,-0.202531646,202231,OH,-0.06
Hunterdon,40.3731,-74.9266,4.3999440272921,-0.201492537,202231,NJ,-0.06
Grant,31.5,-92.4005,4.38776,-0.2,202231,IN,-0.06
Hampshire,39.1362,-78.4845,4.38776,-0.2,202231,MA,-0.06
Monroe,24.5552,-81.7816,4.38776,-0.2,202231,FL,-0.06
Bonner,48.0223,-116.9909,4.38776,0.2,202231,ID,-0.06
DuPage,41.7074,-87.9756,4.38776,0.2,202231,IL,-0.06
Pima,31.4887,-111.5421,4.38776,0.2,202231,AZ,-0.06
Russell,32.1468,-85.0738,4.38776,0.2,202231,KY,-0.06
Polk,26.4722,-81.8122,4.3618447633301,-0.196825397,202231,FL,-0.06
Accomack,37.5423,-75.7412,4.3609950780863,0.196721311,202231,VA,-0.06
Cloud,39.3481,-97.4579,4.3453532483435,-0.194805195,202231,KS,-0.06
Dunn,44.7152,-91.9822,4.3424083297052,-0.194444444,202231,WI,-0.06
Kane,37.0475,-112.5263,4.3350935475971,0.193548387,202231,IL,-0.06
Iron,37.2955,-90.6279,4.3304736830648,0.192982456,202231,UT,-0.06
Reno,37.7783,-97.9886,4.3272911144369,-0.192592593,202231,KS,-0.06
Des Moines,40.8087,-91.117,4.3148372247734,-0.191066998,202231,IA,-0.06
Lawrence,31.4036,-90.1864,4.3050936731594,0.189873418,202231,SD,-0.06
Putnam,25.7964,-80.3849,4.28571875,0.1875,202231,FL,-0.06
Bronx,40.8085,-73.9198,4.2588657868958,-0.184210526,202231,NY,-0.06
Pickaway,39.5535,-82.7763,4.2588657868958,-0.184210526,202231,OH,-0.06
Caledonia,44.1978,-72.1104,4.242992119433,0.18226601,202231,VT,-0.06
Allen,30.4607,-92.8693,4.2393363651206,0.181818182,202231,OH,-0.06
Angelina,31.1569,-94.3871,4.2393363651206,0.181818182,202231,TX,-0.06
Tuolumne,37.8108,-120.2988,4.2268488018446,-0.180288462,202231,CA,-0.06
Adair,35.6826,-94.7611,4.2226595513873,-0.179775281,202231,IA,-0.06
Montgomery,30.1199,-95.4247,4.2226595513873,0.179775281,202231,IL,-0.06
Hillsborough,27.6784,-82.4787,4.221323782445,-0.17961165,202231,FL,-0.06
El Paso,31.4407,-106.0765,4.218056993051,0.17921147,202231,TX,-0.06
Leavenworth,39.0014,-95.0391,4.2175804522502,0.179153094,202231,KS,-0.06
Spokane,47.2999,-117.1395,4.2082528779143,0.178010471,202231,WA,-0.06
Jefferson,28.883,-81.3087,4.199931854795,-0.17699115,202231,AL,-0.06
Dorchester,32.9336,-80.1026,4.1891932458908,0.175675676,202231,SC,-0.06
Pierce,31.2931,-82.2617,4.1836775,-0.175,202231,NE,-0.06
Stephens,32.6886,-98.659,4.1770941903884,-0.174193548,202231,OK,-0.06
Hanover,37.6281,-77.3395,4.1748043439219,0.173913043,202231,VA,-0.06
Lawrence,31.4036,-90.1864,4.1707011591365,-0.173410405,202231,PA,-0.06
Lawrence,31.4036,-90.1864,4.1651245476809,0.172727273,202231,AL,-0.06
Hamilton,30.3387,-82.7765,4.1595387116963,0.172043011,202231,NE,-0.06
Ada,43.4599,-116.244,4.1579340028355,-0.171846435,202231,ID,-0.06
Laramie,41.0428,-104.2765,4.1568787901876,-0.171717172,202231,WY,-0.06
Henderson,32.0797,-95.5938,4.1551382603414,0.171503958,202231,KY,-0.06
Wood,32.6439,-95.222,4.1505358979243,-0.170940171,202231,WI,-0.06
Pike,31.0217,-90.479,4.1413207567193,-0.169811321,202231,OH,-0.06
Tuscarawas,40.2739,-81.594,4.139435842586,-0.16958042,202231,OH,-0.06
Rio Grande,37.5731,-106.1408,4.136202314557,-0.16918429,202231,CO,-0.06
Shasta,40.3691,-122.3375,4.1309370799358,0.168539326,202231,CA,-0.06
Strafford,43.1174,-70.9197,4.1260358754323,0.167938931,202231,NH,-0.06
Arapahoe,39.5805,-104.9011,4.1156500027211,-0.166666667,202231,CO,-0.06
Tompkins,42.3621,-76.592,4.1156500027211,-0.166666667,202231,NY,-0.06
Clay,29.7683,-81.9907,4.1156500027211,0.166666667,202231,FL,-0.06
McIntosh,31.3826,-81.4312,4.1156500027211,0.166666667,202231,OK,-0.06
Sagadahoc,43.7688,-69.815,4.1156500027211,0.166666667,202231,ME,-0.06
Sullivan,36.4195,-82.304,4.1156500027211,0.166666667,202231,TN,-0.06
Chippewa,44.9226,-95.4845,4.1089146026672,0.165841584,202231,WI,-0.06
Buchanan,37.1134,-82.1501,4.1083743309833,0.165775401,202231,IA,-0.06
Forsyth,34.2037,-84.1031,4.08163625,0.1625,202231,GA,-0.06
Roseau,48.5459,-96.0879,4.0807640993546,0.162393162,202231,MN,-0.06
Chickasaw,33.8066,-89.0256,4.0756338244898,0.161764706,202231,IA,-0.06
Phelps,37.6158,-91.9064,4.0744212152546,-0.161616162,202231,NE,-0.06
Chester,34.5705,-80.9133,4.0733968925339,-0.161490683,202231,PA,-0.06
Teton,43.4528,-110.7393,4.0717612937459,-0.161290323,202231,ID,-0.06
Sheboygan,43.5672,-87.9816,4.0566611152847,-0.159440559,202231,WI,-0.06
Fannin,33.3796,-96.2475,4.0549885367477,0.159235669,202231,TX,-0.06
Wake,35.547,-78.6717,4.0525781428301,-0.158940397,202231,NC,-0.06
Champaign,39.9012,-88.0753,4.0476224972789,0.158333333,202231,IL,-0.06
Fond du Lac,43.6042,-88.2729,4.0440421065521,-0.157894737,202231,WI,-0.06
Mitchell,31.1272,-84.1564,4.0440421065521,-0.157894737,202231,KS,-0.06
Carroll,33.3343,-89.757,4.0440421065521,0.157894737,202231,OH,-0.06
La Salle,28.0405,-99.3563,4.0440421065521,0.157894737,202231,LA,-0.06
Howard,32.1105,-101.3669,4.030615625,-0.15625,202231,NE,-0.06
Somerset,37.9666,-76.0235,4.030615625,0.15625,202231,NJ,-0.06
Dauphin,40.2041,-76.7331,4.0273025986748,0.155844156,202231,PA,-0.06
St. Landry,30.3884,-92.0934,4.0249466702948,0.155555556,202231,LA,-0.06
Union,29.9315,-82.4255,4.0249466702948,0.155555556,202231,MS,-0.06
Scott,32.2745,-89.5627,4.0240067397695,-0.155440415,202231,MN,-0.06
Grundy,35.2402,-85.8228,4.0198366159241,0.154929577,202231,MO,-0.06
Clark,33.8309,-93.1263,4.0109923089482,-0.153846154,202231,WA,-0.06
Greene,31.0867,-88.7977,4.0109923089482,-0.153846154,202231,OH,-0.06
Graves,36.5603,-88.5692,4.0109923089482,0.153846154,202231,KY,-0.06
Hockley,33.4482,-102.4898,4.0045846898792,-0.153061224,202231,TX,-0.06
Lackawanna,41.3432,-75.5301,4.0045846898792,0.153061224,202231,PA,-0.06
McLennan,31.2533,-97.41,3.9990314254616,-0.152380952,202231,TX,-0.06
Holmes,30.7041,-85.9546,3.9973413039929,-0.152173913,202231,FL,-0.06
Rockingham,36.3432,-79.6642,3.9973413039929,-0.152173913,202231,NH,-0.06
Halifax,36.0594,-77.4061,3.9959216,0.152,202231,VA,-0.06
Boulder,39.9205,-105.0867,3.9919636403216,-0.151515152,202231,CO,-0.06
Falls Church,38.8842,-77.1718,3.9919636403216,-0.151515152,202231,VA,-0.06
Passaic,40.8344,-74.1377,3.9919636403216,-0.151515152,202231,NJ,-0.06
Allegany,39.4774,-79.0594,3.9872962245668,-0.150943396,202231,MD,-0.06
Richmond,33.2941,-82.203,3.9735029822723,0.149253731,202231,NC,-0.06
Blair,40.2711,-78.4588,3.9704227487732,-0.148876404,202231,PA,-0.06
Talladega,33.1717,-86.2713,3.9685635163817,-0.148648649,202231,AL,-0.06
Clay,29.7683,-81.9907,3.96683984375,-0.1484375,202231,MN,-0.06
Calumet,43.9446,-88.0911,3.9644777765684,-0.148148148,202231,WI,-0.06
Pennington,43.7994,-102.5353,3.9644777765684,0.148148148,202231,SD,-0.06
Lincoln,31.3795,-90.2867,3.9555852979592,-0.147058824,202231,MS,-0.06
Phelps,37.6158,-91.9064,3.9555852979592,-0.147058824,202231,MO,-0.06
McLean,37.4177,-87.2736,3.9533825702303,0.146788991,202231,KY,-0.06
Anderson,31.648,-95.5551,3.9514456885292,0.146551724,202231,KY,-0.06
Clark,33.8309,-93.1263,3.9509974498895,-0.146496815,202231,NV,-0.06
Washington,30.1669,-96.3977,3.9497292649079,0.146341463,202231,OK,-0.06
Mobile,30.2521,-88.1096,3.9455812472789,-0.145833333,202231,AL,-0.06
Steuben,41.5328,-85.0811,3.9424890871985,-0.145454545,202231,NY,-0.06
Blue Earth,43.8903,-94.1774,3.9381869546288,-0.144927536,202231,MN,-0.06
Cass,32.8485,-94.5795,3.9347676339743,0.144508671,202231,ND,-0.06
Boyle,37.5778,-84.9281,3.9328895525231,0.144278607,202231,KY,-0.06
Kings,35.9877,-120.1227,3.9212857154519,-0.142857143,202231,NY,-0.06
Los Alamos,35.8275,-106.2039,3.9212857154519,-0.142857143,202231,NM,-0.06
Manassas,38.7447,-77.4872,3.9212857154519,-0.142857143,202231,VA,-0.06
Doï¿½a Ana,31.8186,-106.5997,3.9212857154519,0.142857143,202231,NM,-0.06
Marshall,33.9517,-96.712,3.9212857154519,0.142857143,202231,WV,-0.06
Lyon,37.0619,-88.1498,3.9180282158933,-0.142458101,202231,MN,-0.06
King,33.6206,-100.3229,3.9154352824244,-0.142140468,202231,WA,-0.06
Stanislaus,37.3097,-121.0805,3.9115675027211,-0.141666667,202231,CA,-0.06
Pasco,27.8633,-82.3499,3.9086097840284,0.141304348,202231,FL,-0.06
Custer,35.5115,-98.9795,3.9040088910053,0.140740741,202231,NE,-0.06
Butler,31.545,-86.7356,3.9030640625,0.140625,202231,IA,-0.06
Major,36.2341,-98.3374,3.9030640625,0.140625,202231,OK,-0.06
Howard,32.1105,-101.3669,3.8952256944932,0.139664804,202231,IA,-0.06
Harvey,37.9167,-97.4225,3.8951470655876,0.139655172,202231,KS,-0.06
Sheridan,39.3322,-100.4758,3.8941651185572,0.139534884,202231,NE,-0.06
Fayette,29.6882,-96.9106,3.8908634800355,-0.139130435,202231,OH,-0.06
Muscatine,41.3486,-91.1237,3.8897671814987,-0.138996139,202231,IA,-0.06
Fulton,33.5242,-84.679,3.8888916675737,-0.138888889,202231,OH,-0.06
Bennington,42.7562,-73.0679,3.8888916675737,0.138888889,202231,VT,-0.06
Lancaster,34.5578,-80.5546,3.8872364931923,0.138686131,202231,PA,-0.06
Santa Fe,35.0776,-106.1872,3.8796362241566,0.137755102,202231,NM,-0.06
Dubuque,42.2775,-90.7507,3.8730412246994,-0.136947218,202231,IA,-0.06
San Luis Obispo,35.0298,-120.4894,3.8682772697588,-0.136363636,202231,CA,-0.06
Sangamon,39.5394,-89.7621,3.8682772697588,0.136363636,202231,IL,-0.06
Wayne,31.5168,-82.0397,3.864674756489,0.13592233,202231,OH,-0.06
Lincoln,31.3795,-90.2867,3.8629764309038,-0.135714286,202231,SD,-0.06
Scioto,38.5848,-82.8321,3.8605468777211,0.135416667,202231,OH,-0.06
Montgomery,30.1199,-95.4247,3.8435399972789,-0.133333333,202231,TN,-0.06
Sharp,35.9517,-91.5444,3.8435399972789,-0.133333333,202231,AR,-0.06
Peoria,40.5571,-89.7685,3.8332717005776,-0.132075472,202231,IL,-0.06
Lee,26.3398,-81.7787,3.8256967214453,-0.131147541,202231,IA,-0.06
Franklin,29.7255,-85.0063,3.8198782640639,-0.130434783,202231,MO,-0.06
Miami-Dade,25.2846,-80.6246,3.8198782640639,0.130434783,202231,FL,-0.06
Columbiana,40.6171,-80.6621,3.8174472578138,-0.130136986,202231,OH,-0.06
York,34.8507,-80.9342,3.816329,0.13,202231,SC,-0.06
Johnson,32.2532,-97.3678,3.8142107787527,-0.129740519,202231,IA,-0.06
McLeod,44.7259,-94.4516,3.814122704909,-0.12972973,202231,MN,-0.06
Gwinnett,33.8178,-84.0229,3.813305558579,0.12962963,202231,GA,-0.06
Trempealeau,44.0218,-91.4282,3.8046671463557,-0.128571429,202231,WI,-0.06
Burleigh,46.6757,-100.2975,3.8035972479311,-0.128440367,202231,ND,-0.06
Queens,40.5594,-73.9067,3.801254486954,-0.12815338,202231,NY,-0.06
Johnson,32.2532,-97.3678,3.7992430253441,0.127906977,202231,MO,-0.06
Hopkins,33.0107,-95.4734,3.7978572970058,-0.127737226,202231,KY,-0.06
Horry,33.6211,-78.9632,3.7972234004342,-0.127659574,202231,SC,-0.06
Faribault,43.5201,-94.0984,3.7972234004342,0.127659574,202231,MN,-0.06
Boyd,38.3089,-82.7476,3.7904453634644,-0.126829268,202231,KY,-0.06
Queen Anne's,38.9394,-76.3371,3.7868925646916,-0.126394052,202231,MD,-0.06
Marion,28.9782,-81.8932,3.7860757775468,0.126293996,202231,IA,-0.06
Mahaska,41.2117,-92.4362,3.7816227545399,-0.125748503,202231,IA,-0.06
Clinton,36.6857,-85.1407,3.7755125,-0.125,202231,KY,-0.06
Marquette,43.6759,-89.5803,3.7755125,-0.125,202231,MI,-0.06
San Bernardino,33.6736,-116.2951,3.7755125,-0.125,202231,CA,-0.06
Providence,41.7312,-71.5468,3.7755125,0.125,202231,RI,-0.06
Warren,32.3258,-90.8507,3.7674011104247,0.124006359,202231,IA,-0.06
Auglaize,40.391,-84.3729,3.7623966565028,0.123393316,202231,OH,-0.06
Seneca,41.0182,-82.9899,3.7582173734348,0.122881356,202231,OH,-0.06
Gallatin,37.6952,-88.2491,3.754687758434,-0.12244898,202231,MT,-0.06
Bonneville,43.3861,-111.2527,3.7432889508056,-0.121052632,202231,ID,-0.06
Smith,31.8394,-89.4049,3.737719441421,0.12037037,202231,TX,-0.06
Crawford,32.7222,-84.0451,3.7367626618445,-0.120253165,202231,PA,-0.06
Boise,43.6498,-116.4306,3.734696,-0.12,202231,ID,-0.06
Tipton,35.4143,-89.8188,3.734696,0.12,202231,TN,-0.06
Payne,35.9768,-97.0441,3.7340935402967,-0.119926199,202231,OK,-0.06
Montgomery,30.1199,-95.4247,3.7329953152211,0.119791667,202231,KS,-0.06
Moultrie,39.4796,-88.5242,3.732396480023,-0.11971831,202231,IL,-0.06
Montgomery,30.1199,-95.4247,3.731905130996,-0.11965812,202231,OH,-0.06
Canadian,35.3885,-97.7309,3.7218065819549,0.118421053,202231,OK,-0.06
Lawrence,31.4036,-90.1864,3.7179507696494,0.117948718,202231,OH,-0.06
Guthrie,41.5033,-94.3186,3.7154882367347,-0.117647059,202231,IA,-0.06
Winona,43.9148,-91.394,3.7125240771983,0.117283951,202231,MN,-0.06
City of Harrisonburg,38.4409,-78.8742,3.7084781008193,-0.116788321,202231,VA,-0.06
Clarke,31.4258,-87.6822,3.7019404403813,0.115987461,202231,IA,-0.06
Dickinson,38.6767,-96.8941,3.6961144074575,0.115273775,202231,IA,-0.06
Fairfax,38.6929,-77.204,3.6944614045139,-0.115071283,202231,VA,-0.06
St. Louis,38.4566,-90.3282,3.6929203693931,-0.114882507,202231,MN,-0.06
Pulaski,32.2778,-83.4948,3.6880485690962,-0.114285714,202231,AR,-0.06
Rhea,35.4484,-85.179,3.6842560958354,-0.113821138,202231,TN,-0.06
Craighead,35.7456,-90.5507,3.67347125,0.1125,202231,AR,-0.06
Boone,34.7399,-92.34,3.6695680334114,-0.112021858,202231,IA,-0.06
Jackson,28.7671,-96.6492,3.6621333324263,-0.111111111,202231,GA,-0.06
Portsmouth,36.8035,-76.327,3.6621333324263,-0.111111111,202231,VA,-0.06
Potter,35.1751,-101.7976,3.6621333324263,-0.111111111,202231,PA,-0.06
Dixon,42.2733,-96.8776,3.6621333324263,0.111111111,202231,NE,-0.06
Jasper,30.3129,-94.0731,3.6621333324263,0.111111111,202231,TX,-0.06
Union,29.9315,-82.4255,3.6621333324263,0.111111111,202231,NJ,-0.06
Citrus,28.7304,-82.3077,3.6565687128584,0.110429448,202231,FL,-0.06
Covington,31.0105,-86.3497,3.653063,-0.11,202231,AL,-0.06
Gibson,35.8081,-88.7627,3.653063,-0.11,202231,TN,-0.06
Dallas,32.1899,-87.0633,3.6430925576258,0.108778626,202231,IA,-0.06
Ottawa,36.6296,-94.9432,3.6424152159716,-0.108695652,202231,MI,-0.06
Stanly,35.2106,-80.4407,3.6376189180364,-0.108108108,202231,NC,-0.06
Owen,38.4986,-84.8086,3.6342246178964,-0.107692308,202231,KY,-0.06
Inyo,35.9021,-116.1544,3.6313864425689,-0.107344633,202231,CA,-0.06
Wapello,40.9261,-92.2268,3.6309423672122,-0.107290234,202231,IA,-0.06
Hernando,28.4409,-82.4612,3.6281802166976,0.106951872,202231,FL,-0.06
Buffalo,40.6861,-99.0693,3.6260797098113,0.106694561,202231,NE,-0.06
Labette,37.0418,-95.0796,3.6258520027211,-0.106666667,202231,KS,-0.06
Bay,29.9395,-85.4096,3.6235361724707,-0.106382979,202231,FL,-0.06
Hancock,30.2391,-89.4595,3.6228523654829,-0.106299213,202231,IA,-0.06
Red Willow,40.0377,-100.4242,3.6202323380213,0.105978261,202231,NE,-0.06
Walworth,42.5136,-88.4843,3.6194494122449,-0.105882353,202231,WI,-0.06
St. Lucie,27.2606,-80.4771,3.6143947377014,0.105263158,202231,FL,-0.06
Chisago,45.3364,-92.9675,3.6113902106465,0.104895105,202231,MN,-0.06
Neosho,37.4527,-95.4671,3.6113902106465,0.104895105,202231,KS,-0.06
Harrison,30.3598,-89.1646,3.6079820900396,-0.104477612,202231,MO,-0.06
Cabarrus,35.2477,-80.5319,3.6079820900396,0.104477612,202231,NC,-0.06
Maricopa,32.9306,-112.7468,3.6041802371471,0.104011887,202231,AZ,-0.06
Saline,34.4508,-92.6547,3.5995793114708,-0.103448276,202231,NE,-0.06
Franklin,29.7255,-85.0063,3.5995793114708,0.103448276,202231,TN,-0.06
Tuscaloosa,33.0618,-87.4422,3.5986409972789,-0.103333333,202231,AL,-0.06
Franklin,29.7255,-85.0063,3.5870286622124,0.101910828,202231,IA,-0.06
Kenosha,42.5001,-88.08,3.5770989547052,-0.100694444,202231,WI,-0.06
Sandoval,35.2339,-106.62,3.5762603552228,0.100591716,202231,NM,-0.06
Adams,31.4706,-91.4044,3.57143,-0.1,202231,OH,-0.06
Fairfield,34.2717,-81.2712,3.57143,-0.1,202231,CT,-0.06
Adams,31.4706,-91.4044,3.57143,0.1,202231,IA,-0.06
Summit,39.4753,-106.0225,3.5683022969114,0.099616858,202231,OH,-0.06
Jasper,30.3129,-94.0731,3.5663596274306,-0.099378882,202231,MO,-0.06
Wagoner,35.8507,-95.3183,3.5637287754332,0.099056604,202231,OK,-0.06
Knox,33.4183,-99.8137,3.5619377882297,0.098837209,202231,IN,-0.06
Morgan,33.5368,-83.3435,3.5580475431248,0.098360656,202231,AL,-0.06
Kingman,37.4344,-98.4171,3.5554235319728,-0.098039216,202231,KS,-0.06
Ouachita,33.4169,-92.777,3.5515195153808,-0.097560976,202231,AR,-0.06
Forrest,31.0591,-89.0796,3.5515195153808,0.097560976,202231,MS,-0.06
Goshen,41.6423,-104.1974,3.5487541648526,-0.097222222,202231,WY,-0.06
Wichita,33.8579,-98.8081,3.5470619372525,0.097014925,202231,TX,-0.06
Harford,39.3982,-76.2743,3.5450967778802,0.096774194,202231,MD,-0.06
Shawnee,38.9045,-95.7015,3.5446162370624,-0.096715328,202231,KS,-0.06
Prince William,38.5223,-77.2936,3.5442190027211,0.096666667,202231,VA,-0.06
Jefferson,28.883,-81.3087,3.5427868415324,-0.096491228,202231,TX,-0.06
Monmouth,40.1077,-74.0635,3.5361564786596,-0.095679012,202231,NJ,-0.06
Onondaga,42.807,-76.1394,3.5325571409135,-0.095238095,202231,NY,-0.06
Washington,30.1669,-96.3977,3.5325571409135,0.095238095,202231,KS,-0.06
Payette,43.959,-116.8048,3.528872513009,0.09478673,202231,ID,-0.06
Fayette,29.6882,-96.9106,3.5264354332637,0.094488189,202231,IA,-0.06
Fillmore,40.4065,-97.4427,3.5252226444359,-0.094339623,202231,NE,-0.06
Cherokee,31.4885,-94.9399,3.5232004399232,0.094091904,202231,IA,-0.06
Hardin,30.1491,-94.3733,3.5216070453962,-0.093896714,202231,KY,-0.06
Calvert,38.3293,-76.4651,3.5191527084347,-0.093596059,202231,MD,-0.06
Muskegon,43.1443,-86.1388,3.5176060406369,-0.093406593,202231,MI,-0.06
Sunflower,33.349,-90.6051,3.5160855933587,-0.093220339,202231,MS,-0.06
Santa Barbara,34.2628,-119.8486,3.5152453448897,0.093117409,202231,CA,-0.06
Delaware,36.1662,-94.8547,3.5144767457048,-0.093023256,202231,PA,-0.06
Kossuth,42.9868,-94.0959,3.5144767457048,-0.093023256,202231,IA,-0.06
Taylor,29.6739,-83.3723,3.5144767457048,-0.093023256,202231,TX,-0.06
Fall River,43.1551,-103.2162,3.5116985379791,-0.092682927,202231,SD,-0.06
Stevens,37.1682,-101.3346,3.5109611144369,0.092592593,202231,MN,-0.06
Comal,29.6643,-98.3118,3.506323927382,0.09202454,202231,TX,-0.06
Franklin,29.7255,-85.0063,3.5047908188255,-0.091836735,202231,KY,-0.06
Suffolk,40.6443,-73.1613,3.4972181825603,0.090909091,202231,MA,-0.06
Dallas,32.1899,-87.0633,3.4966108820201,-0.090834697,202231,TX,-0.06
Warren,32.3258,-90.8507,3.4920645851474,-0.090277778,202231,KY,-0.06
Buena Vista,37.7396,-79.3523,3.4911352424222,0.090163934,202231,IA,-0.06
Rosebud,45.2862,-106.5095,3.489797,0.09,202231,MT,-0.06
Butler,31.545,-86.7356,3.4868243669582,-0.089635854,202231,KS,-0.06
Wright,37.0687,-92.4082,3.4839660690962,-0.089285714,202231,MN,-0.06
Etowah,33.8979,-86.0245,3.4839660690962,0.089285714,202231,AL,-0.06
Baxter,36.0068,-92.3917,3.4830375835175,-0.089171975,202231,AR,-0.06
Big Horn,44.2507,-107.6053,3.4807266675737,0.088888889,202231,WY,-0.06
Williams,41.4425,-84.7349,3.4792637062541,-0.088709677,202231,OH,-0.06
Matanuska-Susitna Borough,61.5214,-149.9544,3.4784303802635,0.088607595,202231,AK,-0.06
Greene,31.0867,-88.7977,3.474544771913,-0.08813161,202231,MO,-0.06
Mahoning,40.8957,-80.9897,3.474266076851,-0.08809747,202231,OH,-0.06
Hocking,39.4174,-82.5923,3.4721466229454,-0.087837838,202231,OH,-0.06
Noble,36.2753,-97.4526,3.4711789453634,0.087719298,202231,IN,-0.06
Danville,36.5779,-79.4411,3.4701335776553,0.087591241,202231,VA,-0.06
Tulare,35.805,-119.1315,3.4701335776553,0.087591241,202231,CA,-0.06
Ohio,37.3418,-86.77,3.46938875,-0.0875,202231,KY,-0.06
Roanoke,37.1549,-80.1215,3.4667723062271,0.087179487,202231,VA,-0.06
Benton,34.6244,-89.1862,3.4649521760426,-0.086956522,202231,WA,-0.06
Kent,33.2518,-100.5825,3.4649521760426,0.086956522,202231,DE,-0.06
Van Zandt,32.4126,-95.6371,3.4649521760426,0.086956522,202231,TX,-0.06
Forsyth,34.2037,-84.1031,3.4569221745683,-0.085972851,202231,NC,-0.06
Ada,43.4599,-116.244,3.4548114309038,0.085714286,202231,UT,-0.06
Suffolk,40.6443,-73.1613,3.4537025363951,0.085578447,202231,NY,-0.06
Davidson,35.6196,-80.0959,3.4519670759582,-0.085365854,202231,TN,-0.06
Olmsted,43.8555,-92.4885,3.4465795265306,0.084705882,202231,MN,-0.06
Multnomah,45.4446,-122.5372,3.4410915930029,0.084033613,202231,OR,-0.06
Anchorage,59.8666,-158.5996,3.4405679417978,-0.083969466,202231,AK,-0.06
Tulsa,35.9183,-95.7988,3.4373966221973,0.083580981,202231,OK,-0.06
Cook,31.0403,-83.3915,3.4367690032034,-0.083504098,202231,IL,-0.06
Beaver,36.5996,-100.7103,3.4353749972789,0.083333333,202231,PA,-0.06
Cache,41.56,-111.8297,3.4353749972789,0.083333333,202231,UT,-0.06
Pinal,32.4305,-111.1459,3.4353749972789,0.083333333,202231,AZ,-0.06
San Diego,32.5626,-117.043,3.4353749972789,0.083333333,202231,CA,-0.06
Yellowstone,45.6745,-108.769,3.4353749972789,0.083333333,202231,MT,-0.06
Kitsap,47.4179,-122.631,3.4297528917524,-0.082644628,202231,WA,-0.06
Beaufort,32.1145,-80.8686,3.4225396202798,0.081761006,202231,SC,-0.06
Cochise,31.3373,-109.9413,3.4214918362349,-0.081632653,202231,AZ,-0.06
Washington,30.1669,-96.3977,3.4214918362349,0.081632653,202231,IA,-0.06
Albany,41.0528,-105.4462,3.4191004791329,0.081339713,202231,NY,-0.06
Rutherford,35.2247,-81.8851,3.4169891885273,-0.081081081,202231,TN,-0.06
Douglas,33.6634,-84.8639,3.4169891885273,0.081081081,202231,CO,-0.06
Hamilton,30.3387,-82.7765,3.411445728233,0.08040201,202231,IN,-0.06
Bucks,40.0933,-74.8991,3.4099916077673,-0.080223881,202231,PA,-0.06
Ocean,39.5881,-74.3646,3.408164,-0.08,202231,NJ,-0.06
Marshall,33.9517,-96.712,3.408164,0.08,202231,KS,-0.06
Hardin,30.1491,-94.3733,3.3995710491944,0.078947368,202231,TX,-0.06
Jackson,28.7671,-96.6492,3.3953588272109,0.078431373,202231,OK,-0.06
Lake,28.5494,-81.7729,3.3948134616278,-0.078364566,202231,IL,-0.06
Scott,32.2745,-89.5627,3.3930198866582,-0.078144854,202231,IA,-0.06
Tate,34.6323,-89.8855,3.3928578125,0.078125,202231,MS,-0.06
Scotts Bluff,41.7469,-103.4164,3.3892024908425,-0.077677225,202231,NE,-0.06
Sherburne,45.3136,-93.5814,3.3754115505986,-0.075987842,202231,MN,-0.06
Stearns,45.3436,-94.3028,3.3716634448733,-0.075528701,202231,MN,-0.06
Erie,41.3111,-82.6126,3.3707678737202,0.075418994,202231,PA,-0.06
Carver,44.7169,-93.6879,3.3701431526978,0.075342466,202231,MN,-0.06
Eau Claire,44.5963,-90.9906,3.3673475,0.075,202231,WI,-0.06
Rock Island,41.3277,-90.6384,3.3673475,0.075,202231,IL,-0.06
Crow Wing,46.2099,-94.2527,3.3661254458267,-0.074850299,202231,MN,-0.06
Avoyelles,30.8641,-92.1466,3.3630053182805,-0.074468085,202231,LA,-0.06
Coshocton,40.1804,-81.8951,3.3597888882842,-0.074074074,202231,OH,-0.06
Dodge,31.938,-83.1837,3.3597888882842,0.074074074,202231,NE,-0.06
Murray,34.402,-97.051,3.3597888882842,0.074074074,202231,OK,-0.06
Pinellas,27.6705,-82.7119,3.3590176033736,0.073979592,202231,FL,-0.06
Shelby,31.7131,-93.9698,3.3580166440175,0.073856975,202231,TN,-0.06
Graham,32.797,-109.7522,3.3524146365356,-0.073170732,202231,KS,-0.06
Marion,28.9782,-81.8932,3.3524146365356,0.073170732,202231,IN,-0.06
Creek,35.7551,-96.5658,3.3470950384172,0.072519084,202231,OK,-0.06
New York,40.7038,-74.0098,3.3463139248934,-0.072423398,202231,NY,-0.06
York,34.8507,-80.9342,3.3439947721799,0.072139303,202231,NE,-0.06
Galveston,29.2205,-94.9444,3.3381928536443,-0.071428571,202231,TX,-0.06
Gloucester,37.2585,-76.4959,3.3381928536443,-0.071428571,202231,VA,-0.06
Kleberg,27.3217,-97.7787,3.3381928536443,-0.071428571,202231,TX,-0.06
Macomb,42.4658,-82.9459,3.3381928536443,-0.071428571,202231,MI,-0.06
Strafford,43.1174,-70.9197,3.3381928536443,-0.071428571,202231,ME,-0.06
Chester,34.5705,-80.9133,3.3381928536443,0.071428571,202231,SC,-0.06
Cottonwood,43.8831,-95.1373,3.3381928536443,0.071428571,202231,MN,-0.06
Manatee,27.3648,-82.1849,3.3381928536443,0.071428571,202231,FL,-0.06
Milwaukee,42.8892,-87.9027,3.3318548920142,0.070652174,202231,WI,-0.06
Warren,32.3258,-90.8507,3.3305806825172,-0.070496084,202231,OH,-0.06
Jefferson,28.883,-81.3087,3.32908203125,0.0703125,202231,NE,-0.06
Comanche,31.7629,-98.3695,3.3282349174457,-0.070208729,202231,OK,-0.06
Collin,33.0139,-96.4377,3.3225489014435,-0.069512195,202231,TX,-0.06
Clayton,33.4429,-84.3136,3.3219958297052,-0.069444444,202231,IA,-0.06
Yellow Medicine,44.631,-95.4182,3.3219958297052,-0.069444444,202231,MN,-0.06
Brevard,27.8679,-80.5416,3.3150375470714,-0.068592058,202231,FL,-0.06
Hamilton,30.3387,-82.7765,3.3142301395583,-0.068493151,202231,IA,-0.06
Kearney,40.3735,-99.1539,3.3116886348794,0.068181818,202231,NE,-0.06
Cherokee,31.4885,-94.9399,3.308544066413,-0.06779661,202231,KS,-0.06
Okfuskee,35.3416,-96.1136,3.308544066413,-0.06779661,202231,OK,-0.06
Cobb,33.7838,-84.5952,3.3066743278544,0.067567568,202231,GA,-0.06
Riley,39.1153,-96.7101,3.3066743278544,0.067567568,202231,KS,-0.06
Carter,34.1364,-97.4273,3.3049595858729,0.067357513,202231,OK,-0.06
Daviess,37.6206,-87.0591,3.3022380722657,-0.067024129,202231,KY,-0.06
Allegheny,40.2373,-79.9506,3.3007190209118,0.066838046,202231,PA,-0.06
Delaware,36.1662,-94.8547,3.2993200027211,-0.066666667,202231,NY,-0.06
Jessamine,37.8602,-84.6714,3.2993200027211,0.066666667,202231,KY,-0.06
Madison,30.3979,-83.2844,3.2948223101366,0.066115702,202231,KY,-0.06
Franklin,29.7255,-85.0063,3.2945251088735,-0.066079295,202231,WA,-0.06
Worcester,38.0452,-75.4108,3.293997555611,-0.06601467,202231,MA,-0.06
Travis,30.1204,-97.7433,3.2882618251118,0.065312046,202231,TX,-0.06
Westmoreland,38.0181,-76.6861,3.2878627377014,0.065263158,202231,PA,-0.06
Augusta,37.9705,-79.2233,3.2874891279503,-0.065217391,202231,VA,-0.06
Contra Costa,37.7562,-121.9522,3.2874891279503,0.065217391,202231,CA,-0.06
Dane,42.8669,-89.5377,3.2874891279503,0.065217391,202231,WI,-0.06
Itasca,47.0739,-93.1964,3.2874891279503,0.065217391,202231,MN,-0.06
Keokuk,41.1826,-92.3097,3.286046338145,-0.06504065,202231,IA,-0.06
Breckinridge,37.6194,-86.4491,3.2817645158657,-0.064516129,202231,KY,-0.06
Trumbull,41.1318,-80.7553,3.2806343314706,-0.064377682,202231,OH,-0.06
Denton,33.0033,-96.882,3.2774692567946,-0.063989962,202231,TX,-0.06
Davison,43.5478,-97.9881,3.2771715085904,-0.063953488,202231,SD,-0.06
Ashland,40.6361,-82.2356,3.2769547974653,0.063926941,202231,OH,-0.06
Monroe,24.5552,-81.7816,3.2717645549987,-0.063291139,202231,IN,-0.06
Douglas,33.6634,-84.8639,3.2706768442535,0.063157895,202231,KS,-0.06
Allamakee,43.0036,-91.5478,3.2693236221758,-0.062992126,202231,IA,-0.06
Garvin,34.4719,-97.3879,3.2674410019298,-0.062761506,202231,OK,-0.06
Cleburne,33.5616,-85.3786,3.26530625,-0.0625,202231,AL,-0.06
Bartow,34.12,-84.757,3.26530625,0.0625,202231,GA,-0.06
Seward,37.0216,-100.938,3.26530625,0.0625,202231,KS,-0.06
Loudoun,38.8976,-77.5092,3.2581202439494,-0.061619718,202231,VA,-0.06
Canyon,43.3784,-116.5489,3.2574569268446,0.061538462,202231,ID,-0.06
Titus,33.1568,-94.9683,3.2574569268446,0.061538462,202231,TX,-0.06
Roberts,35.7193,-100.7027,3.254893879217,0.06122449,202231,SD,-0.06
Boone,34.7399,-92.34,3.2533295786912,0.061032864,202231,NE,-0.06
Hillsborough,27.6784,-82.4787,3.2512121574473,0.060773481,202231,NH,-0.06
Butler,31.545,-86.7356,3.2468650614212,0.060240964,202231,NE,-0.06
Venango,41.2002,-79.8734,3.244898,0.06,202231,PA,-0.06
Chesapeake,36.6434,-76.242,3.2431233720497,-0.059782609,202231,VA,-0.06
Chatham,31.9268,-81.0381,3.2393635601522,-0.059322034,202231,GA,-0.06
Escambia,30.3511,-87.2749,3.2352941142857,-0.058823529,202231,FL,-0.06
San Mateo,37.2065,-122.3649,3.2352941142857,-0.058823529,202231,CA,-0.06
Hancock,30.2391,-89.4595,3.2319938145452,-0.058419244,202231,OH,-0.06
McHenry,42.1641,-88.3064,3.2319938145452,0.058419244,202231,IL,-0.06
Winnebago,42.2166,-89.0512,3.2283347785862,-0.057971014,202231,IA,-0.06
Franklin,29.7255,-85.0063,3.2246273669114,0.057516858,202231,OH,-0.06
Haskell,33.0771,-99.959,3.2234860641017,0.057377049,202231,OK,-0.06
Madison,30.3979,-83.2844,3.2234860641017,0.057377049,202231,IN,-0.06
Monroe,24.5552,-81.7816,3.2215742845481,0.057142857,202231,PA,-0.06
Black Hawk,42.3416,-92.1862,3.2208918081782,-0.057059254,202231,IA,-0.06
Finney,37.906,-100.7523,3.2189238651206,-0.056818182,202231,KS,-0.06
Minnehaha,43.4775,-96.7041,3.2179329466235,0.056696795,202231,SD,-0.06
Lincoln,31.3795,-90.2867,3.2150042239724,0.056338028,202231,NE,-0.06
Clay,29.7683,-81.9907,3.2128551372878,-0.056074766,202231,KS,-0.06
St. Croix,44.9408,-92.2848,3.2114335394093,-0.055900621,202231,WI,-0.06
Washington,30.1669,-96.3977,3.2107260425249,-0.055813953,202231,RI,-0.06
City of Richmond,37.4955,-77.471,3.2107260425249,0.055813953,202231,VA,-0.06
Fredericksburg,38.2995,-77.4772,3.2086166702948,0.055555556,202231,VA,-0.06
Mille Lacs,45.5851,-93.5961,3.2036329674815,0.054945055,202231,MN,-0.06
Guilford,35.9345,-79.7019,3.2024041132793,0.054794521,202231,NC,-0.06
Cumberland,34.9536,-78.9354,3.2003709128015,-0.054545455,202231,PA,-0.06
Santa Clara,37.0095,-121.5705,3.2003709128015,0.054545455,202231,CA,-0.06
Hancock,30.2391,-89.4595,3.1924196463557,-0.053571429,202231,MS,-0.06
Worcester,38.0452,-75.4108,3.1924196463557,0.053571429,202231,MD,-0.06
Holt,39.9809,-95.1234,3.1890982281581,0.053164557,202231,NE,-0.06
Clermont,38.7926,-84.1382,3.1870206356549,-0.052910053,202231,OH,-0.06
Okaloosa,30.3935,-86.4958,3.1847473688507,-0.052631579,202231,FL,-0.06
Pierce,31.2931,-82.2617,3.1847473688507,-0.052631579,202231,WI,-0.06
Leon,30.3193,-84.2674,3.1812963827555,0.052208835,202231,FL,-0.06
Geary,39.0299,-96.8396,3.1810113039929,-0.052173913,202231,KS,-0.06
Koochiching,47.844,-94.2043,3.1791675328916,0.051948052,202231,MN,-0.06
Marion,28.9782,-81.8932,3.1780689159776,-0.051813472,202231,MD,-0.06
Montgomery,30.1199,-95.4247,3.1777231594061,-0.051771117,202231,MD,-0.06
Wyandotte,39.0668,-94.6282,3.1776708244898,0.051764706,202231,KS,-0.06
Woods,36.5858,-98.8487,3.1737307669283,-0.051282051,202231,OK,-0.06
Philadelphia,39.8893,-75.1782,3.1666949574344,0.050420168,202231,PA,-0.06
Sumner,36.3047,-86.6211,3.165424601015,-0.05026455,202231,KS,-0.06
Fayette,29.6882,-96.9106,3.163265,-0.05,202231,PA,-0.06
Kennebec,44.1634,-69.9581,3.163265,-0.05,202231,ME,-0.06
Litchfield,41.5287,-73.3609,3.163265,0.05,202231,CT,-0.06
Ottawa,36.6296,-94.9432,3.163265,0.05,202231,KS,-0.06
Clay,29.7683,-81.9907,3.1614181023548,0.049773756,202231,IA,-0.06
Story,41.8765,-93.6812,3.160370212187,0.04964539,202231,IA,-0.06
Tillman,34.2282,-98.6867,3.1598917366841,-0.049586777,202231,OK,-0.06
Ramsey,44.914,-93.1727,3.1561042103831,-0.049122807,202231,MN,-0.06
Cameron,25.9017,-97.4975,3.1555637754332,0.049056604,202231,TX,-0.06
Whatcom,48.6752,-122.1914,3.1513766964137,0.048543689,202231,WA,-0.06
Orange,28.3774,-81.1888,3.1500983889401,-0.048387097,202231,IN,-0.06
Plymouth,41.6618,-70.8164,3.1496594972789,0.048333333,202231,IA,-0.06
Fulton,33.5242,-84.679,3.1438285745384,-0.047619048,202231,GA,-0.06
Knox,33.4183,-99.8137,3.1438285745384,-0.047619048,202231,TN,-0.06
La Crosse,43.7989,-91.2175,3.1438285745384,-0.047619048,202231,WI,-0.06
Kent,33.2518,-100.5825,3.1415284014974,-0.047337278,202231,MI,-0.06
Ross,39.2039,-82.812,3.1351419008855,-0.046554935,202231,OH,-0.06
Hennepin,44.8261,-93.3538,3.1325673511682,0.046239554,202231,MN,-0.06
Osage,36.1576,-96.0311,3.1318676910518,0.046153846,202231,OK,-0.06
Jackson,28.7671,-96.6492,3.1312000555613,-0.046072061,202231,MO,-0.06
Kingfisher,35.7502,-97.93,3.1304241338963,0.045977011,202231,OK,-0.06
Decatur,30.7493,-84.4846,3.1261590871985,0.045454545,202231,IA,-0.06
Rock,42.5083,-89.0318,3.1206208922327,0.044776119,202231,MN,-0.06
Broomfield,39.9619,-105.0148,3.1179133297052,0.044444444,202231,CO,-0.06
Essex,37.7681,-76.7117,3.1163079677804,-0.044247788,202231,MA,-0.06
Will,41.2657,-88.2231,3.1142852,0.044,202231,IL,-0.06
Wayne,31.5168,-82.0397,3.1100260880213,-0.043478261,202231,MI,-0.06
Kalamazoo,42.1209,-85.5024,3.1100260880213,0.043478261,202231,MI,-0.06
Christian,36.6543,-87.4606,3.1062096799649,0.043010753,202231,MO,-0.06
Virginia Beach,36.6224,-76.0249,3.0952375027211,-0.041666667,202231,VA,-0.06
Ray,39.2048,-94.0259,3.0952375027211,0.041666667,202231,MO,-0.06
Lycoming,41.1788,-76.8839,3.092891721323,-0.04137931,202231,PA,-0.06
Dodge,31.938,-83.1837,3.0917309245529,0.041237113,202231,WI,-0.06
Washington,30.1669,-96.3977,3.090578078837,-0.04109589,202231,PA,-0.06
Greene,31.0867,-88.7977,3.0900046151753,-0.041025641,202231,IA,-0.06
Ellis,32.1482,-96.9612,3.0871664398478,0.040677966,202231,KS,-0.06
Douglas,33.6634,-84.8639,3.0866239150931,0.040611507,202231,NE,-0.06
Lamoille,44.442,-72.7188,3.0860445983453,-0.040540541,202231,VT,-0.06
Clay,29.7683,-81.9907,3.0859879940231,-0.040533607,202231,MO,-0.06
Orange,28.3774,-81.1888,3.0842653254773,0.040322581,202231,CA,-0.06
Arkansas,34.0893,-91.2437,3.081632,-0.04,202231,AR,-0.06
Douglas,33.6634,-84.8639,3.081632,0.04,202231,GA,-0.06
Thurston,42.0574,-96.4929,3.078399006668,-0.03960396,202231,WA,-0.06
Duval,27.3849,-98.309,3.0781082707385,0.039568345,202231,FL,-0.06
Baltimore,39.207,-76.4456,3.0778180572602,0.039532794,202231,MD,-0.06
Grant,31.5,-92.4005,3.0773355245972,-0.039473684,202231,WA,-0.06
Bell,30.7991,-97.4263,3.0764897659007,-0.039370079,202231,KY,-0.06
Bernalillo,34.9073,-106.6892,3.0762790139846,-0.039344262,202231,NM,-0.06
Rapides,31.0066,-92.5526,3.0761286541619,-0.039325843,202231,LA,-0.06
Mecklenburg,35.0552,-80.8195,3.0749567308139,0.039182283,202231,NC,-0.06
Greenville,34.6578,-82.2441,3.0745334800355,-0.039130435,202231,SC,-0.06
Shelby,31.7131,-93.9698,3.0721213554983,-0.038834951,202231,OH,-0.06
Garland,34.4351,-93.242,3.0690730731554,-0.038461538,202231,AR,-0.06
St. Tammany,30.2726,-89.729,3.0690730731554,-0.038461538,202231,LA,-0.06
Lancaster,34.5578,-80.5546,3.0690730731554,0.038461538,202231,SC,-0.06
Champaign,39.9012,-88.0753,3.0660828563654,0.038095238,202231,OH,-0.06
Franklin,29.7255,-85.0063,3.0654008779568,0.038011696,202231,PA,-0.06
Washington,30.1669,-96.3977,3.0650987378972,-0.037974684,202231,UT,-0.06
Grand Isle,44.6031,-72.9527,3.0631490561417,0.037735849,202231,VT,-0.06
Ventura,34.0324,-119.1343,3.0623209709897,-0.037634409,202231,CA,-0.06
Prince George's,38.5825,-76.7149,3.0615720127046,-0.037542662,202231,MD,-0.06
Steele,43.8826,-93.3195,3.06122375,-0.0375,202231,NE,-0.06
Blount,33.8168,-86.6008,3.06122375,0.0375,202231,TN,-0.06
Racine,42.666,-88.2749,3.0580678345466,-0.037113402,202231,WI,-0.06
Daviess,37.6206,-87.0591,3.0574444441421,0.037037037,202231,MO,-0.06
Mower,43.5309,-92.9328,3.0574444441421,0.037037037,202231,MN,-0.06
Union,29.9315,-82.4255,3.0574444441421,0.037037037,202231,NC,-0.06
Dawson,32.5273,-101.716,3.0513487937459,-0.036290323,202231,NE,-0.06
Sedgwick,37.5054,-97.3408,3.042123995357,-0.03516029,202231,KS,-0.06
Los Angeles,33.332,-118.3437,3.0415315765127,-0.035087719,202231,CA,-0.06
Richardson,40.0536,-95.4292,3.0365931065447,-0.034482759,202231,NE,-0.06
St. Louis,38.4566,-90.3282,3.0365931065447,0.034482759,202231,MO,-0.06
Sussex,36.8191,-77.4832,3.0358484095022,-0.034391534,202231,DE,-0.06
Marion,28.9782,-81.8932,3.0318220332065,-0.033898305,202231,KY,-0.06
Madison,30.3979,-83.2844,3.0318220332065,0.033898305,202231,OH,-0.06
Jackson,28.7671,-96.6492,3.0281200664528,-0.033444816,202231,KS,-0.06
Chippewa,44.9226,-95.4845,3.0272099972789,-0.033333333,202231,MN,-0.06
Gregory,43.0351,-98.8308,3.0272099972789,0.033333333,202231,SD,-0.06
McClain,34.8904,-97.0997,3.0272099972789,0.033333333,202231,OK,-0.06
Humboldt,40.0231,-124.0139,3.0249611550683,-0.033057851,202231,IA,-0.06
Pontotoc,34.1617,-89.1795,3.0249611550683,0.033057851,202231,OK,-0.06
Anderson,31.648,-95.5551,3.0242197804889,-0.032967033,202231,SC,-0.06
Bristol,36.595,-82.1819,3.0236296065521,0.032894737,202231,VA,-0.06
Harlan,36.7521,-83.4629,3.0227491783205,-0.032786885,202231,NE,-0.06
Morrison,45.5572,-94.2242,3.0205731690725,0.032520325,202231,MN,-0.06
Linn,38.0718,-94.7008,3.0199625215793,0.032445521,202231,IA,-0.06
Guernsey,39.852,-81.6576,3.0194354254616,0.032380952,202231,OH,-0.06
Adams,31.4706,-91.4044,3.0184322620145,-0.032258065,202231,IN,-0.06
Frederick,39.0367,-78.2815,3.0184322620145,-0.032258065,202231,MD,-0.06
Osceola,27.8767,-81.05,3.0184322620145,-0.032258065,202231,IA,-0.06
Pittsburg,34.6695,-96.0258,3.0163256,-0.032,202231,OK,-0.06
Houston,31.0507,-85.3154,3.013432281581,-0.03164557,202231,AL,-0.06
Denver,39.6431,-104.8987,3.0128884180451,-0.031578947,202231,CO,-0.06
Delaware,36.1662,-94.8547,3.010203125,0.03125,202231,IA,-0.06
Lake,28.5494,-81.7729,3.010203125,0.03125,202231,IN,-0.06
Pitt,35.3757,-77.4193,3.010203125,0.03125,202231,NC,-0.06
Medina,29.1404,-99.1428,3.0082255819016,0.031007752,202231,OH,-0.06
Tom Green,31.2346,-100.5203,3.0080077442411,0.030981067,202231,TX,-0.06
Ford,37.553,-99.6325,3.0034133083883,0.030418251,202231,KS,-0.06
Adair,35.6826,-94.7611,3.002472724799,0.03030303,202231,KY,-0.06
Platte,39.1776,-94.6321,3.002472724799,0.03030303,202231,NE,-0.06
Penobscot,44.6991,-69.1025,3,0.029761905,202231,ME,-0.06
Gregg,32.3836,-94.8653,3,-0.029585799,202231,TX,-0.06
Woodbury,42.2408,-95.9486,3,0.029478458,202231,IA,-0.06
Terrebonne,29.3695,-90.697,3,-0.029411765,202231,LA,-0.06
Dutchess,41.5097,-73.9634,3,0.028985507,202231,NY,-0.06
Sarasota,26.92,-82.3048,3,-0.02892562,202231,FL,-0.06
Washington,30.1669,-96.3977,3,0.028571429,202231,WI,-0.06
Lee,26.3398,-81.7787,3,-0.028397566,202231,FL,-0.06
Garfield,36.1962,-97.8805,3,0.028225806,202231,OK,-0.06
Adams,31.4706,-91.4044,3,0.028142589,202231,NE,-0.06
Harris,29.5564,-95.144,3,0.028008299,202231,TX,-0.06
Seward,37.0216,-100.938,3,0.027960526,202231,NE,-0.06
Clinton,36.6857,-85.1407,3,0.027777778,202231,OH,-0.06
Cuyahoga,41.3132,-81.8285,3,0.027777778,202231,OH,-0.06
Carlton,46.4472,-92.7466,3,-0.02739726,202231,MN,-0.06
Cowley,37.0676,-97.0357,3,-0.026929982,202231,KS,-0.06
Stark,40.6514,-81.3076,3,-0.02690583,202231,OH,-0.06
Carroll,33.3343,-89.757,3,-0.026476578,202231,IA,-0.06
Tarrant,32.5773,-97.1416,3,-0.025941423,202231,TX,-0.06
Furnas,40.1063,-99.9715,3,-0.025641026,202231,NE,-0.06
Howard,32.1105,-101.3669,3,-0.025641026,202231,MD,-0.06
McLean,37.4177,-87.2736,3,-0.025641026,202231,IL,-0.06
Stanton,37.5451,-101.9109,3,0.025641026,202231,NE,-0.06
Kay,36.6806,-97.3063,3,0.025531915,202231,OK,-0.06
New Castle,39.3819,-75.6834,3,-0.025316456,202231,DE,-0.06
Pine,45.7575,-92.9624,3,0.025316456,202231,MN,-0.06
Richmond,33.2941,-82.203,3,0.025252525,202231,NY,-0.06
Bannock,42.3195,-111.9781,3,-0.024875622,202231,ID,-0.06
Cumberland,34.9536,-78.9354,3,-0.024691358,202231,ME,-0.06
San Juan,36.142,-108.7064,3,0.024647887,202231,NM,-0.06
Chittenden,44.3113,-73.228,3,0.02459893,202231,VT,-0.06
Allen,30.4607,-92.8693,3,-0.024390244,202231,IN,-0.06
Campbell,36.3028,-84.203,3,-0.02393617,202231,KY,-0.06
Cass,32.8485,-94.5795,3,0.023809524,202231,MO,-0.06
Anoka,45.0523,-93.2541,3,0.023783784,202231,MN,-0.06
Box Butte,42.1149,-102.888,3,0.023391813,202231,NE,-0.06
Steele,43.8826,-93.3195,3,-0.023364486,202231,MN,-0.06
Fairfield,34.2717,-81.2712,3,0.022352941,202231,OH,-0.06
Wood,32.6439,-95.222,3,0.022346369,202231,TX,-0.06
Dakota,42.2852,-96.7159,3,-0.022123894,202231,NE,-0.06
Muskingum,39.8,-81.891,3,-0.021551724,202231,OH,-0.06
Polk,26.4722,-81.8122,3,-0.021520803,202231,IA,-0.06
Hamilton,30.3387,-82.7765,3,0.021413276,202231,OH,-0.06
Warren,32.3258,-90.8507,3,-0.021390374,202231,VA,-0.06
Camp,32.9623,-94.9603,3,-0.021276596,202231,TX,-0.06
Cambria,40.2799,-78.8032,3,0.021276596,202231,PA,-0.06
Westchester,40.9002,-73.781,3,-0.021052632,202231,NY,-0.06
Logan,35.1304,-93.7116,3,-0.020833333,202231,OK,-0.06
Defiance,41.2799,-84.3626,3,-0.020797227,202231,OH,-0.06
Cerro Gordo,42.9137,-93.4773,3,0.020642202,202231,IA,-0.06
Lucas,40.9355,-93.4796,3,-0.020618557,202231,IA,-0.06
Wayne,31.5168,-82.0397,3,0.020618557,202231,KY,-0.06
Winston,32.9789,-89.1221,3,0.020618557,202231,AL,-0.06
Ada,43.4599,-116.244,3,-0.02027027,202231,WA,-0.06
Oklahoma,34.506,-97.1131,3,0.019902176,202231,OK,-0.06
Oakland,42.4567,-83.659,3,-0.019607843,202231,MI,-0.06
Jefferson,28.883,-81.3087,3,0.019607843,202231,CO,-0.06
Bexar,29.1733,-98.4723,3,-0.019455253,202231,TX,-0.06
Bell,30.7991,-97.4263,3,-0.019047619,202231,TX,-0.06
Madison,30.3979,-83.2844,3,0.018939394,202231,IA,-0.06
Fauquier,38.4674,-77.7044,3,-0.018867925,202231,VA,-0.06
Washington,30.1669,-96.3977,3,-0.01863354,202231,MN,-0.06
Gage,40.0451,-96.8019,3,-0.018333333,202231,NE,-0.06
Mills,31.4458,-98.5744,3,-0.017857143,202231,TX,-0.06
Oldham,35.1916,-102.2118,3,0.017647059,202231,KY,-0.06
Butler,31.545,-86.7356,3,0.01734104,202231,PA,-0.06
Crawford,32.7222,-84.0451,3,0.016949153,202231,KS,-0.06
Lake,28.5494,-81.7729,3,0.016666667,202231,SD,-0.06
Cheyenne,38.804,-102.8198,3,0.016216216,202231,NE,-0.06
Lyon,37.0619,-88.1498,3,-0.016129032,202231,KS,-0.06
Berrien,31.0825,-83.2143,3,-0.015873016,202231,MI,-0.06
Outagamie,44.2425,-88.3564,3,0.015748031,202231,WI,-0.06
Middlesex,37.5512,-76.3844,3,-0.015625,202231,MA,-0.06
Richland,32.3331,-91.7976,3,0.015406162,202231,OH,-0.06
Lincoln,31.3795,-90.2867,3,-0.015384615,202231,WI,-0.06
Volusia,28.7676,-81.3522,3,0.015151515,202231,FL,-0.06
Monroe,24.5552,-81.7816,3,0.014925373,202231,IA,-0.06
Cass,32.8485,-94.5795,3,0.014778325,202231,IA,-0.06
Hall,34.1819,-83.9024,3,-0.014717582,202231,NE,-0.06
Jefferson,28.883,-81.3087,3,-0.014254386,202231,KY,-0.06
Union,29.9315,-82.4255,3,-0.014141414,202231,SD,-0.06
Berks,40.1552,-75.8998,3,-0.013888889,202231,PA,-0.06
Marshall,33.9517,-96.712,3,-0.013793103,202231,KY,-0.06
Lucas,40.9355,-93.4796,3,-0.013544018,202231,OH,-0.06
Fort Bend,29.3327,-95.7702,3,-0.013513514,202231,TX,-0.06
Rockland,41.0103,-73.925,3,0.013392857,202231,NY,-0.06
Baker,30.2041,-82.4287,3,-0.013333333,202231,FL,-0.06
Nassau,30.4193,-81.9724,3,-0.013029316,202231,NY,-0.06
Palm Beach,26.3446,-80.2109,3,0.0125,202231,FL,-0.06
Highland,38.2946,-79.4353,3,0.012048193,202231,OH,-0.06
Miami,38.4102,-94.8718,3,-0.01183432,202231,KS,-0.06
St. Lawrence,44.1408,-74.9125,3,0.011764706,202231,NY,-0.06
Grady,30.7462,-84.3125,3,0.011278195,202231,OK,-0.06
Delaware,36.1662,-94.8547,3,0.010840108,202231,OK,-0.06
Winchester,39.1676,-78.1686,3,-0.010752688,202231,VA,-0.06
Sheridan,39.3322,-100.4758,3,0.010526316,202231,WY,-0.06
Columbia,29.9207,-82.6879,3,-0.010204082,202231,PA,-0.06
Knox,33.4183,-99.8137,3,0.01,202231,NE,-0.06
Montgomery,30.1199,-95.4247,3,0.01,202231,AL,-0.06
Madison,30.3979,-83.2844,3,0.009811321,202231,NE,-0.06
Marion,28.9782,-81.8932,3,-0.009451796,202231,FL,-0.06
Salem,37.2853,-80.0692,3,-0.008333333,202231,VA,-0.06
Norfolk,36.8294,-76.2701,3,0.007874016,202231,VA,-0.06
Cuming,41.845,-96.7318,3,0.007751938,202231,NE,-0.06
Pulaski,32.2778,-83.4948,3,0.00754717,202231,KY,-0.06
Ida,42.3327,-95.6045,3,0.007194245,202231,IA,-0.06
Lancaster,34.5578,-80.5546,3,0.00656291,202231,NE,-0.06
Dawes,42.4439,-103.2985,3,0.006451613,202231,NE,-0.06
Jones,31.4555,-89.302,3,0.006410256,202231,IA,-0.06
Montgomery,30.1199,-95.4247,3,-0.006369427,202231,PA,-0.06
Johnson,32.2532,-97.3678,3,0.005694401,202231,KS,-0.06
Saline,34.4508,-92.6547,3,-0.005633803,202231,KS,-0.06
Saunders,41.0541,-96.3904,3,0.005586592,202231,NE,-0.06
Muskogee,35.3631,-95.2607,3,-0.005424955,202231,OK,-0.06
Dakota,42.2852,-96.7159,3,0.005010737,202231,MN,-0.06
Franklin,29.7255,-85.0063,3,0.004651163,202231,VA,-0.06
Broward,25.9812,-80.1484,3,-0.003816794,202231,FL,-0.06
Douglas,33.6634,-84.8639,3,-0.003472222,202231,MN,-0.06
Pottawatomie,34.9849,-96.8763,3,0.003264418,202231,OK,-0.06
McPherson,38.206,-97.5088,3,0.002590674,202231,KS,-0.06
Boone,34.7399,-92.34,3,0.001545595,202231,KY,-0.06
Twin Falls,42.218,-114.5942,3,0.00120919,202231,ID,-0.06
Albany,41.0528,-105.4462,3,0,202231,WY,-0.06
Anderson,31.648,-95.5551,3,0,202231,KS,-0.06
Carroll,33.3343,-89.757,3,0,202231,MD,-0.06
Christian,36.6543,-87.4606,3,0,202231,KY,-0.06
Clark,33.8309,-93.1263,3,0,202231,IN,-0.06
Colfax,36.35,-104.7931,3,0,202231,NE,-0.06
Columbia,29.9207,-82.6879,3,0,202231,NY,-0.06
Elmore,32.4995,-86.3641,3,0,202231,AL,-0.06
Essex,37.7681,-76.7117,3,0,202231,NJ,-0.06
Garfield,36.1962,-97.8805,3,0,202231,NE,-0.06
Houston,31.0507,-85.3154,3,0,202231,GA,-0.06
Kearny,37.9382,-101.2713,3,0,202231,KS,-0.06
Larimer,40.2993,-105.1055,3,0,202231,CO,-0.06
Lowndes,30.6906,-83.1753,3,0,202231,MS,-0.06
Madison,30.3979,-83.2844,3,0,202231,LA,-0.06
Mercer,37.2698,-81.2223,3,0,202231,OH,-0.06
Monona,41.9186,-95.829,3,0,202231,IA,-0.06
Nelson,37.5473,-78.8508,3,0,202231,KY,-0.06
Nolan,32.082,-100.3111,3,0,202231,TX,-0.06
Oscoda,44.6001,-84.2931,3,0,202231,MI,-0.06
Ottawa,36.6296,-94.9432,3,0,202231,OH,-0.06
Plymouth,41.6618,-70.8164,3,0,202231,MA,-0.06
Polk,26.4722,-81.8122,3,0,202231,MN,-0.06
Sac,42.2653,-95.0852,3,0,202231,IA,-0.06
Tolland,41.629,-72.3646,3,0,202231,CT,-0.06
Utah,39.953,-111.9008,3,0,202231,UT,-0.06
Wasco,44.8892,-120.7914,3,0,202231,OR,-0.06
Worth,31.513,-83.7385,3,0,202231,IA,-0.06
