county,lat,lon,bubble,change,week,state,telemed
Taylor,29.6739,-83.3723,16,3.75,202324,TX,0.2
Roanoke,37.1549,-80.1215,16,3,202324,VA,0.2
Canyon,43.3784,-116.5489,16,2.606060606,202324,ID,0.2
Blount,33.8168,-86.6008,16,2.53125,202324,TN,0.2
Litchfield,41.5287,-73.3609,16,2.333333333,202324,CT,0.2
McIntosh,31.3826,-81.4312,16,2.066666667,202324,OK,0.2
Kent,33.2518,-100.5825,16,16.55555556,202324,RI,0.2
Sagadahoc,43.7688,-69.815,16,1.8,202324,ME,0.2
Manitowoc,43.9217,-87.7673,16,1.636363636,202324,WI,0.2
Thurston,42.0574,-96.4929,16,1.636363636,202324,NE,0.2
Clark,33.8309,-93.1263,16,1.583333333,202324,IN,0.2
Kit Carson,39.3087,-102.5979,15.00005,1.5,202324,CO,0.2
Delaware,36.1662,-94.8547,13.775555,1.35,202324,OK,0.2
Albany,41.0528,-105.4462,13.6394999972789,1.333333333,202324,WY,0.2
Clayton,33.4429,-84.3136,12.959225,1.25,202324,GA,0.2
Worcester,38.0452,-75.4108,11.4626200027211,1.066666667,202324,RI,0.2
Alamance,35.9066,-79.4279,10.9184,1,202324,NC,0.2
Baker,30.2041,-82.4287,10.9184,1,202324,FL,0.2
Dixon,42.2733,-96.8776,10.9184,1,202324,NE,0.2
Henry,31.3534,-85.3323,10.9184,1,202324,OH,0.2
Westchester,40.9002,-73.781,10.9184,1,202324,CT,0.2
Wood,32.6439,-95.222,10.9184,1,202324,WV,0.2
Adams,31.4706,-91.4044,10.6369068934553,-0.965517241,202324,IA,0.2
Franklin,29.7255,-85.0063,9.9289090926407,0.878787879,202324,MA,0.2
Calhoun,28.4101,-96.7023,9.7522142845481,0.857142857,202324,IA,0.2
Fond du Lac,43.6042,-88.2729,9.642884375,-0.84375,202324,WI,0.2
Midland,31.8693,-102.0317,9.5578499972789,-0.833333333,202324,TX,0.2
Martin,27.0595,-80.1364,9.4190183705123,-0.816326531,202324,MN,0.2
Columbiana,40.6171,-80.6621,9.3310916702948,0.805555556,202324,OH,0.2
Okmulgee,35.4551,-95.9498,9.1437695680568,0.782608696,202324,OK,0.2
Elmore,32.4995,-86.3641,9.0254608693286,0.768115942,202324,AL,0.2
Lehigh,40.4734,-75.5261,8.877575,-0.75,202324,PA,0.2
Goshen,41.6423,-104.1974,8.632676,-0.72,202324,WY,0.2
Jackson,28.7671,-96.6492,8.6113804319432,0.717391304,202324,IA,0.2
Bonner,48.0223,-116.9909,8.5860285690962,-0.714285714,202324,ID,0.2
Burt,41.7715,-96.3924,8.5860285690962,0.714285714,202324,NE,0.2
Knox,33.4183,-99.8137,8.46941,0.7,202324,TN,0.2
Gregory,43.0351,-98.8308,8.4504255846227,0.697674419,202324,SD,0.2
Allegany,39.4774,-79.0594,8.2773323510204,0.676470588,202324,MD,0.2
Putnam,25.7964,-80.3849,8.1973000027211,-0.666666667,202324,FL,0.2
Salt Lake,40.4954,-111.9444,8.1973000027211,-0.666666667,202324,UT,0.2
Caldwell,29.6826,-97.6499,8.0158933297052,-0.644444444,202324,KY,0.2
Nassau,30.4193,-81.9724,7.9832808972254,-0.640449438,202324,FL,0.2
Meade,37.2701,-100.5732,7.9564946935886,-0.637168142,202324,KY,0.2
Preble,39.5897,-84.5581,7.9318268254853,-0.634146341,202324,OH,0.2
Ottawa,36.6296,-94.9432,7.7786692276295,0.615384615,202324,OH,0.2
Kidder,46.8336,-99.6019,7.65308,0.6,202324,ND,0.2
Clarke,31.4258,-87.6822,7.6421591944031,-0.598662207,202324,IA,0.2
Essex,37.7681,-76.7117,7.5570411755102,0.588235294,202324,NJ,0.2
Vermilion,29.9466,-92.2416,7.5404827622801,-0.586206897,202324,LA,0.2
Hardin,30.1491,-94.3733,7.489814,0.58,202324,TX,0.2
Benton,34.6244,-89.1862,7.4646961544741,-0.576923077,202324,MN,0.2
Walworth,42.5136,-88.4843,7.4198428536443,0.571428571,202324,WI,0.2
Dane,42.8669,-89.5377,7.3541422560506,0.563380282,202324,WI,0.2
Davis,40.6941,-92.258,7.334512197113,0.56097561,202324,IA,0.2
Siskiyou,41.2124,-122.2734,7.2589896557354,-0.551724138,202324,CA,0.2
Gray,35.2273,-100.7592,7.2589896557354,0.551724138,202324,KS,0.2
Benton,34.6244,-89.1862,7.2289370137265,0.548042705,202324,IA,0.2
Franklin,29.7255,-85.0063,7.2194046875,0.546875,202324,VT,0.2
St. Clair,33.5296,-86.3007,7.2078090871985,-0.545454545,202324,IL,0.2
Sharp,35.9517,-91.5444,7.014213039929,-0.52173913,202324,AR,0.2
Pasco,27.8633,-82.3499,7.0086089508056,-0.521052632,202324,FL,0.2
Barry,36.5276,-93.9359,7.000016,0.52,202324,MO,0.2
Washington,30.1669,-96.3977,6.9879222261527,0.518518519,202324,KS,0.2
Cowley,37.0676,-97.0357,6.9398219727479,0.512626263,202324,KS,0.2
Hopkins,33.0107,-95.4734,6.9353405822735,0.512077295,202324,KY,0.2
Neosho,37.4527,-95.4671,6.8771623758335,-0.504950495,202324,KS,0.2
Pembina,48.5924,-97.6738,6.83675,-0.5,202324,ND,0.2
Utah,39.953,-111.9008,6.83675,-0.5,202324,UT,0.2
Washington,30.1669,-96.3977,6.83675,-0.5,202324,OR,0.2
DeKalb,33.6823,-84.161,6.83675,0.5,202324,GA,0.2
Hampshire,39.1362,-78.4845,6.83675,0.5,202324,MA,0.2
Rankin,32.0627,-89.9929,6.83675,0.5,202324,MS,0.2
Jefferson,28.883,-81.3087,6.7371975605774,-0.487804878,202324,OK,0.2
Adair,35.6826,-94.7611,6.6797634634223,-0.480769231,202324,KY,0.2
Tippecanoe,40.247,-86.725,6.6777246792473,0.480519481,202324,IN,0.2
Windsor,43.2831,-72.6031,6.5966529387755,0.470588235,202324,VT,0.2
Rock,42.5083,-89.0318,6.5552568934553,0.465517241,202324,MN,0.2
Martin,27.0595,-80.1364,6.5058054016547,0.459459459,202324,FL,0.2
Cherry,42.2403,-100.2595,6.4656909128015,-0.454545455,202324,NE,0.2
Montgomery,30.1199,-95.4247,6.346952,-0.44,202324,IA,0.2
Cabarrus,35.2477,-80.5319,6.3335328735812,-0.438356164,202324,NC,0.2
Kenai Peninsula,59.4495,-151.7009,6.32654375,-0.4375,202324,AK,0.2
Luzerne,40.9448,-76.1452,6.2801613651206,-0.431818182,202324,PA,0.2
Titus,33.1568,-94.9683,6.1564750027211,0.416666667,202324,TX,0.2
Ventura,34.0324,-119.1343,6.1380891858062,0.414414414,202324,CA,0.2
San Luis Obispo,35.0298,-120.4894,6.1164588244898,0.411764706,202324,CA,0.2
Pierce,31.2931,-82.2617,6.0645459426365,-0.405405405,202324,NE,0.2
Benton,34.6244,-89.1862,6.02042,-0.4,202324,OK,0.2
Benton,34.6244,-89.1862,6.02042,-0.4,202324,WA,0.2
Lake,28.5494,-81.7729,6.02042,-0.4,202324,OH,0.2
Marshall,33.9517,-96.712,6.02042,0.4,202324,KS,0.2
Dawes,42.4439,-103.2985,6.0037602067472,-0.397959184,202324,NE,0.2
Adams,31.4706,-91.4044,5.9494347840284,0.391304348,202324,CO,0.2
Essex,37.7681,-76.7117,5.9494347840284,0.391304348,202324,NH,0.2
Stanly,35.2106,-80.4407,5.9297166675737,0.388888889,202324,NC,0.2
Jefferson,28.883,-81.3087,5.8948307723705,0.384615385,202324,KS,0.2
Guthrie,41.5033,-94.3186,5.8862287684652,-0.383561644,202324,IA,0.2
Washoe,39.226,-120.0041,5.8763617632653,-0.382352941,202324,NV,0.2
Bristol,36.595,-82.1819,5.8668529718327,0.381188119,202324,VA,0.2
Warren,32.3258,-90.8507,5.8578927623234,-0.380090498,202324,OH,0.2
Simpson,31.8277,-90.0088,5.8439162131274,0.378378378,202324,KY,0.2
Merrick,40.9856,-98.2217,5.8163375,-0.375,202324,NE,0.2
Outagamie,44.2425,-88.3564,5.8085480954666,-0.374045802,202324,WI,0.2
Grant,31.5,-92.4005,5.8011074597624,0.373134328,202324,WA,0.2
Hancock,30.2391,-89.4595,5.7926069746559,0.372093023,202324,MS,0.2
Boone,34.7399,-92.34,5.778544441421,0.37037037,202324,NE,0.2
Grundy,35.2402,-85.8228,5.7719717359361,-0.369565217,202324,MO,0.2
Augusta,37.9705,-79.2233,5.7626315819549,0.368421053,202324,VA,0.2
Chester,34.5705,-80.9133,5.7483100027211,0.366666667,202324,SC,0.2
Gloucester,37.2585,-76.4959,5.7235727302412,0.363636364,202324,VA,0.2
Johnson,32.2532,-97.3678,5.6976848814428,0.360465116,202324,MO,0.2
Woodward,36.214,-99.1145,5.693888,-0.36,202324,OK,0.2
Bernalillo,34.9073,-106.6892,5.6847860592761,0.358885017,202324,NM,0.2
Terrebonne,29.3695,-90.697,5.6815660374278,-0.358490566,202324,LA,0.2
White Pine,38.8641,-115.0069,5.651754841343,-0.35483871,202324,NV,0.2
Hockley,33.4482,-102.4898,5.6436523089482,0.353846154,202324,TX,0.2
Humboldt,40.0231,-124.0139,5.6436523089482,0.353846154,202324,IA,0.2
Richardson,40.0536,-95.4292,5.6362647020408,0.352941176,202324,NE,0.2
Waller,29.8072,-95.9755,5.612255,0.35,202324,TX,0.2
Wichita,33.8579,-98.8081,5.612255,0.35,202324,KS,0.2
Washington,30.1669,-96.3977,5.609400702155,0.34965035,202324,VT,0.2
Pima,31.4887,-111.5421,5.5850440027211,-0.346666667,202324,AZ,0.2
Greenup,38.4322,-82.8094,5.5586575722119,-0.343434343,202324,KY,0.2
Clinton,36.6857,-85.1407,5.5402258857143,-0.341176471,202324,OH,0.2
Saline,34.4508,-92.6547,5.530622,0.34,202324,NE,0.2
Dubuque,42.2775,-90.7507,5.5278070655876,0.339655172,202324,IA,0.2
Pike,31.0217,-90.479,5.51021375,0.3375,202324,OH,0.2
Kitsap,47.4179,-122.631,5.5002805322738,-0.336283186,202324,WA,0.2
Belmont,39.8679,-80.8168,5.4761999972789,-0.333333333,202324,OH,0.2
Nottoway,37.0916,-77.9851,5.4761999972789,-0.333333333,202324,VA,0.2
Cochise,31.3373,-109.9413,5.4761999972789,0.333333333,202324,AZ,0.2
Oscoda,44.6001,-84.2931,5.4761999972789,0.333333333,202324,MI,0.2
Tolland,41.629,-72.3646,5.4761999972789,0.333333333,202324,CT,0.2
Valdez-Cordova,60.5362,-145.7534,5.4761999972789,0.333333333,202324,AK,0.2
Jefferson,28.883,-81.3087,5.3884225793285,0.322580645,202324,IA,0.2
Coshocton,40.1804,-81.8951,5.3715423116693,-0.320512821,202324,OH,0.2
Union,29.9315,-82.4255,5.367356,0.32,202324,NJ,0.2
Camden,30.7305,-81.5465,5.3604085092488,-0.319148936,202324,NJ,0.2
Walton,30.2835,-86.0305,5.3329842131042,0.315789474,202324,FL,0.2
Calumet,43.9446,-88.0911,5.3207085690962,-0.314285714,202324,WI,0.2
Allen,30.4607,-92.8693,5.3122783128596,0.313253012,202324,IN,0.2
Antelope,41.9732,-98.0751,5.30613125,-0.3125,202324,NE,0.2
Christian,36.6543,-87.4606,5.30613125,-0.3125,202324,KY,0.2
Guernsey,39.852,-81.6576,5.2943753469764,0.311059908,202324,OH,0.2
Lake,28.5494,-81.7729,5.2914054323135,-0.310696095,202324,IL,0.2
Clay,29.7683,-81.9907,5.2716060175541,-0.308270677,202324,MN,0.2
Rush,38.4372,-99.4234,5.2668846178964,-0.307692308,202324,KS,0.2
Kossuth,42.9868,-94.0959,5.2470547377014,0.305263158,202324,IA,0.2
Gibson,35.8081,-88.7627,5.2455983070218,0.305084746,202324,TN,0.2
Sullivan,36.4195,-82.304,5.2230744153773,0.302325581,202324,TN,0.2
Washington,30.1669,-96.3977,5.2194924491336,-0.301886792,202324,IA,0.2
Hall,34.1819,-83.9024,5.20409,-0.3,202324,GA,0.2
Madison,30.3979,-83.2844,5.20409,-0.3,202324,LA,0.2
Wayne,31.5168,-82.0397,5.20409,-0.3,202324,MI,0.2
Mesa,38.6784,-108.9719,5.1639426212111,-0.295081967,202324,CO,0.2
Middlesex,37.5512,-76.3844,5.1560705877551,0.294117647,202324,MA,0.2
Koochiching,47.844,-94.2043,5.1496679972789,-0.293333333,202324,MN,0.2
Cobb,33.7838,-84.5952,5.0874714309038,-0.285714286,202324,GA,0.2
Curry,34.3841,-103.3154,5.0874714309038,0.285714286,202324,OR,0.2
Jefferson,28.883,-81.3087,5.0874714309038,0.285714286,202324,TX,0.2
Graham,32.797,-109.7522,5.051028125,0.28125,202324,KS,0.2
Washington,30.1669,-96.3977,5.0332302289511,-0.279069767,202324,WI,0.2
Pinal,32.4305,-111.1459,5.0070448278677,0.275862069,202324,AZ,0.2
Pittsburg,34.6695,-96.0258,4.9977648374075,-0.274725275,202324,OK,0.2
Essex,37.7681,-76.7117,4.9814545476809,-0.272727273,202324,MO,0.2
Hudson,40.6664,-74.1192,4.9814545476809,-0.272727273,202324,NJ,0.2
Shasta,40.3691,-122.3375,4.974249512978,0.27184466,202324,CA,0.2
Dodge,31.938,-83.1837,4.9468541802218,0.268488746,202324,NE,0.2
Clinton,36.6857,-85.1407,4.9446731750342,0.268221574,202324,IA,0.2
Cache,41.56,-111.8297,4.9319800027211,0.266666667,202324,UT,0.2
Sussex,36.8191,-77.4832,4.9153625933219,-0.264631043,202324,DE,0.2
Custer,35.5115,-98.9795,4.9107766228112,0.264069264,202324,NE,0.2
Ness,38.4388,-99.9029,4.9033368442535,-0.263157895,202324,KS,0.2
Pike,31.0217,-90.479,4.8931071436346,-0.261904762,202324,MS,0.2
Humboldt,40.0231,-124.0139,4.8931071436346,0.261904762,202324,NV,0.2
Marion,28.9782,-81.8932,4.8878540519213,-0.261261261,202324,OH,0.2
Harrison,30.3598,-89.1646,4.8846565199645,0.260869565,202324,MO,0.2
Lebanon,40.2236,-76.538,4.8846565199645,0.260869565,202324,PA,0.2
Garfield,36.1962,-97.8805,4.8720751848614,-0.259328358,202324,OK,0.2
Cecil,39.3662,-75.8845,4.8715111089947,0.259259259,202324,MD,0.2
Manatee,27.3648,-82.1849,4.8542342845481,-0.257142857,202324,FL,0.2
Furnas,40.1063,-99.9715,4.8393468090317,-0.255319149,202324,NE,0.2
Shelby,31.7131,-93.9698,4.8305152531304,-0.254237288,202324,IN,0.2
Oldham,35.1916,-102.2118,4.8297508253918,-0.254143646,202324,KY,0.2
Madison,30.3979,-83.2844,4.795925,-0.25,202324,IL,0.2
Roseau,48.5459,-96.0879,4.795925,-0.25,202324,MN,0.2
Dauphin,40.2041,-76.7331,4.795925,0.25,202324,PA,0.2
Doï¿½a Ana,31.8186,-106.5997,4.795925,0.25,202324,NM,0.2
Suffolk,40.6443,-73.1613,4.795925,0.25,202324,MA,0.2
Woods,36.5858,-98.8487,4.7719152979592,-0.247058824,202324,OK,0.2
Taylor,29.6739,-83.3723,4.7694207812351,0.246753247,202324,WI,0.2
Lamoille,44.442,-72.7188,4.7300919365372,0.241935484,202324,VT,0.2
Seneca,41.0182,-82.9899,4.7274409375154,-0.241610738,202324,OH,0.2
Warren,32.3258,-90.8507,4.7230383963557,-0.241071429,202324,VA,0.2
Blair,40.2711,-78.4588,4.7212606745147,-0.240853659,202324,PA,0.2
Winnebago,42.2166,-89.0512,4.7203388910053,0.240740741,202324,IA,0.2
Erie,41.3111,-82.6126,4.6987428563654,0.238095238,202324,NY,0.2
Kimball,41.2139,-103.9075,4.69388375,-0.2375,202324,NE,0.2
McHenry,42.1641,-88.3064,4.6912673062271,-0.237179487,202324,IL,0.2
Henry,31.3534,-85.3323,4.6885131557465,-0.236842105,202324,IN,0.2
Rosebud,45.2862,-106.5095,4.6885131557465,-0.236842105,202324,MT,0.2
Forsyth,34.2037,-84.1031,4.6812719086448,-0.235955056,202324,GA,0.2
Cheshire,42.7544,-72.019,4.6758764734694,-0.235294118,202324,NH,0.2
Delaware,36.1662,-94.8547,4.6758764734694,0.235294118,202324,NY,0.2
San Mateo,37.2065,-122.3649,4.6758764734694,0.235294118,202324,CA,0.2
Santa Fe,35.0776,-106.1872,4.6609287936155,-0.233463035,202324,NM,0.2
San Juan,36.142,-108.7064,4.656944082803,-0.23297491,202324,NM,0.2
Lincoln,31.3795,-90.2867,4.6480391306714,0.231884058,202324,WI,0.2
Noble,36.2753,-97.4526,4.6322224593692,-0.229946524,202324,IN,0.2
Licking,39.9337,-82.4724,4.630452704909,-0.22972973,202324,OH,0.2
Hamilton,30.3387,-82.7765,4.6299248822576,-0.229665072,202324,IA,0.2
Seward,37.0216,-100.938,4.6258562527211,-0.229166667,202324,KS,0.2
Anderson,31.648,-95.5551,4.6245580186322,-0.229007634,202324,KY,0.2
Harrison,30.3598,-89.1646,4.6169052595775,-0.228070175,202324,IA,0.2
Humboldt,40.0231,-124.0139,4.6150924028933,-0.227848101,202324,CA,0.2
Chautauqua,37.0262,-96.1783,4.6103954523191,-0.227272727,202324,KS,0.2
Ohio,37.3418,-86.77,4.6103954523191,-0.227272727,202324,KY,0.2
Big Horn,44.2507,-107.6053,4.6103954523191,0.227272727,202324,WY,0.2
Plymouth,41.6618,-70.8164,4.6103954523191,0.227272727,202324,MA,0.2
Fredericksburg,38.2995,-77.4772,4.6065701054492,0.226804124,202324,VA,0.2
Dundy,40.0642,-101.9371,4.5984258096116,-0.225806452,202324,NE,0.2
Washington,30.1669,-96.3977,4.5984258096116,0.225806452,202324,UT,0.2
Allen,30.4607,-92.8693,4.5876775516868,-0.224489796,202324,KS,0.2
Penobscot,44.6991,-69.1025,4.5743497154519,-0.222857143,202324,ME,0.2
Crawford,32.7222,-84.0451,4.5738663174791,-0.222797927,202324,IA,0.2
Los Alamos,35.8275,-106.2039,4.5691666648526,-0.222222222,202324,NM,0.2
Manassas,38.7447,-77.4872,4.5691666648526,-0.222222222,202324,VA,0.2
Saunders,41.0541,-96.3904,4.5691666648526,0.222222222,202324,NE,0.2
Monroe,24.5552,-81.7816,4.5545371006364,-0.220430108,202324,IN,0.2
Owen,38.4986,-84.8086,4.5470439014435,0.219512195,202324,KY,0.2
Fort Bend,29.3327,-95.7702,4.540821875,-0.21875,202324,TX,0.2
Kearny,37.9382,-101.2713,4.5297304319432,-0.217391304,202324,KS,0.2
Haskell,33.0771,-99.959,4.521784324703,-0.21641791,202324,OK,0.2
Mitchell,31.1272,-84.1564,4.4966039972789,-0.213333333,202324,KS,0.2
Rock Island,41.3277,-90.6384,4.4966039972789,0.213333333,202324,IL,0.2
Horry,33.6211,-78.9632,4.4919723367781,0.212765957,202324,SC,0.2
Smith,31.8394,-89.4049,4.4854753132475,-0.211970075,202324,TX,0.2
Neshoba,32.6439,-89.112,4.4797408480598,-0.211267606,202324,MS,0.2
Butler,31.545,-86.7356,4.4784633324263,0.211111111,202324,NE,0.2
Inyo,35.9021,-116.1544,4.4736894754028,0.210526316,202324,CA,0.2
Washington,30.1669,-96.3977,4.4649804016547,-0.209459459,202324,OK,0.2
Hancock,30.2391,-89.4595,4.4513701315664,-0.207792208,202324,IL,0.2
Albemarle,37.7511,-78.6313,4.449369812861,-0.20754717,202324,VA,0.2
Logan,35.1304,-93.7116,4.437612211871,-0.20610687,202324,KY,0.2
Washington,30.1669,-96.3977,4.4307247377014,0.205263158,202324,RI,0.2
Lyon,37.0619,-88.1498,4.4228709655475,-0.204301075,202324,MN,0.2
Allen,30.4607,-92.8693,4.4210795946689,0.204081633,202324,OH,0.2
St. Croix,44.9408,-92.2848,4.4162366271476,0.203488372,202324,WI,0.2
Okaloosa,30.3935,-86.4958,4.4084265857918,-0.202531646,202324,FL,0.2
Charleston,32.6529,-80.1829,4.38776,-0.2,202324,SC,0.2
Clark,33.8309,-93.1263,4.38776,-0.2,202324,KY,0.2
Greene,31.0867,-88.7977,4.38776,-0.2,202324,OH,0.2
Nemaha,39.6428,-95.8231,4.38776,-0.2,202324,KS,0.2
Orangeburg,33.2628,-80.8059,4.38776,-0.2,202324,SC,0.2
Portsmouth,36.8035,-76.327,4.38776,-0.2,202324,VA,0.2
Jackson,28.7671,-96.6492,4.38776,0.2,202324,GA,0.2
Waseca,43.8937,-93.4995,4.38776,0.2,202324,MN,0.2
Cass,32.8485,-94.5795,4.3798344642758,-0.199029126,202324,IA,0.2
Hillsborough,27.6784,-82.4787,4.377513180941,-0.19874477,202324,FL,0.2
Lowndes,30.6906,-83.1753,4.3620488213402,-0.196850394,202324,MS,0.2
Carver,44.7169,-93.6879,4.3572429886706,-0.196261682,202324,MN,0.2
Lee,26.3398,-81.7787,4.3567601294756,-0.196202532,202324,IL,0.2
Nemaha,39.6428,-95.8231,4.3567601294756,-0.196202532,202324,NE,0.2
Ada,43.4599,-116.244,4.3567601294756,0.196202532,202324,ID,0.2
Dutchess,41.5097,-73.9634,4.3557470557823,-0.196078431,202324,NY,0.2
Indian River,27.5885,-80.3923,4.3390238826683,0.194029851,202324,FL,0.2
Jefferson,28.883,-81.3087,4.336739375,0.19375,202324,OH,0.2
Hughes,34.878,-96.271,4.3350935475971,-0.193548387,202324,SD,0.2
San Diego,32.5626,-117.043,4.3249653821036,0.192307692,202324,CA,0.2
Carroll,33.3343,-89.757,4.3232743300187,-0.192100539,202324,IA,0.2
Passaic,40.8344,-74.1377,4.322886091634,0.19205298,202324,NJ,0.2
Carlton,46.4472,-92.7466,4.3206643842326,-0.191780822,202324,MN,0.2
Union,29.9315,-82.4255,4.3182851088146,0.191489362,202324,IA,0.2
Cedar,37.6613,-94.0129,4.3129816821935,-0.190839695,202324,NE,0.2
Mills,31.4458,-98.5744,4.3129816821935,-0.190839695,202324,IA,0.2
Mobile,30.2521,-88.1096,4.310014281827,0.19047619,202324,AL,0.2
Seminole,28.6133,-81.2581,4.310014281827,0.19047619,202324,FL,0.2
Polk,26.4722,-81.8122,4.3008136059896,-0.189349112,202324,FL,0.2
Fillmore,40.4065,-97.4427,4.28571875,-0.1875,202324,NE,0.2
Carroll,33.3343,-89.757,4.28571875,0.1875,202324,MD,0.2
Tompkins,42.3621,-76.592,4.28571875,0.1875,202324,NY,0.2
Box Butte,42.1149,-102.888,4.2829903710575,-0.187165775,202324,NE,0.2
Guilford,35.9345,-79.7019,4.2809504685104,0.186915888,202324,NC,0.2
Putnam,25.7964,-80.3849,4.265631889121,-0.18503937,202324,OH,0.2
Chatham,31.9268,-81.0381,4.2603893607179,-0.184397163,202324,GA,0.2
Fulton,33.5242,-84.679,4.2588657868958,0.184210526,202324,GA,0.2
Grand Isle,44.6031,-72.9527,4.2517049972789,-0.183333333,202324,VT,0.2
Larimer,40.2993,-105.1055,4.2517049972789,-0.183333333,202324,CO,0.2
Rockingham,36.3432,-79.6642,4.2497887360736,-0.183098592,202324,NH,0.2
Montgomery,30.1199,-95.4247,4.2464721178964,0.182692308,202324,AL,0.2
Ford,37.553,-99.6325,4.240853987897,-0.18200409,202324,KS,0.2
Garfield,36.1962,-97.8805,4.2393363651206,-0.181818182,202324,NE,0.2
Union,29.9315,-82.4255,4.2393363651206,-0.181818182,202324,MS,0.2
Perkins,40.8073,-101.9839,4.2393363651206,0.181818182,202324,NE,0.2
Forrest,31.0591,-89.0796,4.2365877738473,-0.181481481,202324,MS,0.2
Franklin,29.7255,-85.0063,4.233958693286,-0.18115942,202324,KY,0.2
Knox,33.4183,-99.8137,4.2226595513873,0.179775281,202324,NE,0.2
Plumas,39.5645,-121.5751,4.2128321463557,-0.178571429,202324,CA,0.2
Washington,30.1669,-96.3977,4.1956823510204,-0.176470588,202324,VA,0.2
Lucas,40.9355,-93.4796,4.1904054959408,-0.175824176,202324,IA,0.2
Vernon,30.9243,-93.2749,4.1872578907268,-0.175438596,202324,MO,0.2
Steele,43.8826,-93.3195,4.1848305089819,0.175141243,202324,MN,0.2
Santa Rosa,30.3571,-87.1639,4.1836775,0.175,202324,FL,0.2
Rio Grande,37.5731,-106.1408,4.1810039294537,0.174672489,202324,CO,0.2
Lawrence,31.4036,-90.1864,4.1789313981965,0.174418605,202324,AL,0.2
Pottawatomie,34.9849,-96.8763,4.1679788455259,-0.173076923,202324,KS,0.2
Potter,35.1751,-101.7976,4.1545228536443,0.171428571,202324,PA,0.2
York,34.8507,-80.9342,4.1524216202243,-0.171171171,202324,SC,0.2
Holmes,30.7041,-85.9546,4.1413207567193,-0.169811321,202324,FL,0.2
Graves,36.5603,-88.5692,4.1413207567193,0.169811321,202324,KY,0.2
Stanton,37.5451,-101.9109,4.1387101660325,-0.169491525,202324,NE,0.2
Grundy,35.2402,-85.8228,4.1241006182279,0.167701863,202324,IA,0.2
Addison,43.7837,-73.2949,4.1156500027211,-0.166666667,202324,VT,0.2
Cherokee,31.4885,-94.9399,4.1156500027211,-0.166666667,202324,TX,0.2
Clark,33.8309,-93.1263,4.1156500027211,-0.166666667,202324,WA,0.2
Fairfield,34.2717,-81.2712,4.1156500027211,-0.166666667,202324,CT,0.2
Iron,37.2955,-90.6279,4.1156500027211,-0.166666667,202324,UT,0.2
Powhatan,37.5421,-77.9189,4.1156500027211,-0.166666667,202324,VA,0.2
Washington,30.1669,-96.3977,4.1156500027211,-0.166666667,202324,OH,0.2
York,34.8507,-80.9342,4.1156500027211,-0.166666667,202324,ME,0.2
Otoe,40.5586,-96.0138,4.1156500027211,0.166666667,202324,NE,0.2
Teton,43.4528,-110.7393,4.1156500027211,0.166666667,202324,ID,0.2
Douglas,33.6634,-84.8639,4.1006989024445,-0.164835165,202324,GA,0.2
Prince William,38.5223,-77.2936,4.096045535729,-0.16426513,202324,VA,0.2
Gregg,32.3836,-94.8653,4.0902191599466,0.163551402,202324,TX,0.2
Houston,31.0507,-85.3154,4.0878836724698,-0.163265306,202324,AL,0.2
Red Willow,40.0377,-100.4242,4.0868770396202,0.163141994,202324,NE,0.2
Jessamine,37.8602,-84.6714,4.0860728239574,0.163043478,202324,KY,0.2
Kingfisher,35.7502,-97.93,4.0788783770546,0.162162162,202324,OK,0.2
Highland,38.2946,-79.4353,4.0717612937459,-0.161290323,202324,OH,0.2
Calvert,38.3293,-76.4651,4.067791456466,-0.16080402,202324,MD,0.2
Clay,29.7683,-81.9907,4.0670589309038,0.160714286,202324,NE,0.2
Morgan,33.5368,-83.3435,4.0584840373178,0.159663866,202324,AL,0.2
Sumner,36.3047,-86.6211,4.0572214686866,-0.159509202,202324,KS,0.2
Jefferson,28.883,-81.3087,4.0570056065447,0.159482759,202324,CO,0.2
Monterey,35.8093,-120.9728,4.0558456016147,-0.159340659,202324,CA,0.2
Bell,30.7991,-97.4263,4.0549885367477,-0.159235669,202324,KY,0.2
Pierce,31.2931,-82.2617,4.0538068174397,0.159090909,202324,WI,0.2
Marion,28.9782,-81.8932,4.0487377020185,-0.158469945,202324,IA,0.2
Monroe,24.5552,-81.7816,4.0315432697588,0.156363636,202324,PA,0.2
Cerro Gordo,42.9137,-93.4773,4.0295392367519,-0.156118143,202324,IA,0.2
Arlington,38.8415,-77.0905,4.0109923089482,-0.153846154,202324,VA,0.2
Cass,32.8485,-94.5795,4.0109923089482,-0.153846154,202324,NE,0.2
Sacramento,38.157,-121.6066,4.0109923089482,0.153846154,202324,CA,0.2
Livingston,30.2716,-90.7043,4.0053351338849,0.153153153,202324,NY,0.2
Pike,31.0217,-90.479,3.9945539288813,-0.151832461,202324,KY,0.2
Dakota,42.2852,-96.7159,3.9889203865715,0.151142355,202324,NE,0.2
Weld,40.0597,-105.0686,3.9872962245668,-0.150943396,202324,CO,0.2
Audubon,41.5524,-94.974,3.9872962245668,0.150943396,202324,IA,0.2
Kay,36.6806,-97.3063,3.9855974255102,-0.150735294,202324,OK,0.2
Fayette,29.6882,-96.9106,3.979595,0.15,202324,PA,0.2
La Salle,28.0405,-99.3563,3.970910636561,-0.14893617,202324,LA,0.2
Halifax,36.0594,-77.4061,3.9694752100523,0.148760331,202324,VA,0.2
Chickasaw,33.8066,-89.0256,3.9685635163817,-0.148648649,202324,IA,0.2
Scott,32.2745,-89.5627,3.9679331463557,-0.148571429,202324,MN,0.2
Lackawanna,41.3432,-75.5301,3.9674712831683,-0.148514851,202324,PA,0.2
Jefferson,28.883,-81.3087,3.9644777765684,-0.148148148,202324,PA,0.2
Benton,34.6244,-89.1862,3.9644777765684,0.148148148,202324,AR,0.2
Wicomico,38.2672,-75.9021,3.9531269609807,0.146757679,202324,MD,0.2
Gage,40.0451,-96.8019,3.9523840027211,-0.146666667,202324,NE,0.2
Talladega,33.1717,-86.2713,3.9523840027211,-0.146666667,202324,AL,0.2
Boone,34.7399,-92.34,3.9428817500918,-0.145502646,202324,IA,0.2
Fayette,29.6882,-96.9106,3.9406414956728,-0.145228216,202324,KY,0.2
Moultrie,39.4796,-88.5242,3.9366302622986,0.144736842,202324,IL,0.2
Pulaski,32.2778,-83.4948,3.9327563927735,-0.144262295,202324,KY,0.2
Santa Cruz,31.377,-110.9435,3.9212857154519,0.142857143,202324,CA,0.2
Schuylkill,40.5545,-76.2038,3.9212857154519,0.142857143,202324,PA,0.2
Somerset,37.9666,-76.0235,3.9212857154519,0.142857143,202324,NJ,0.2
El Paso,31.4407,-106.0765,3.9130148966276,-0.141843972,202324,TX,0.2
Lake,28.5494,-81.7729,3.9130148966276,0.141843972,202324,IN,0.2
Miami,38.4102,-94.8718,3.910965483836,0.14159292,202324,KS,0.2
Douglas,33.6634,-84.8639,3.9063346151753,-0.141025641,202324,WI,0.2
Westmoreland,38.0181,-76.6861,3.9058735683179,-0.140969163,202324,PA,0.2
McLennan,31.2533,-97.41,3.904860559931,0.14084507,202324,TX,0.2
Knox,33.4183,-99.8137,3.8972901195935,-0.139917695,202324,IN,0.2
Fulton,33.5242,-84.679,3.8888916675737,0.138888889,202324,OH,0.2
Finney,37.906,-100.7523,3.8780936543354,-0.137566138,202324,KS,0.2
Carter,34.1364,-97.4273,3.8650223661296,-0.135964912,202324,OK,0.2
Orange,28.3774,-81.1888,3.8629764309038,0.135714286,202324,CA,0.2
Adams,31.4706,-91.4044,3.861988132826,-0.13559322,202324,IN,0.2
Kearney,40.3735,-99.1539,3.8557696655813,0.134831461,202324,NE,0.2
Ellis,32.1482,-96.9612,3.8551191485309,0.134751773,202324,KS,0.2
Bay,29.9395,-85.4096,3.8540057723705,-0.134615385,202324,FL,0.2
Van Zandt,32.4126,-95.6371,3.8526865586006,-0.134453782,202324,TX,0.2
Lee,26.3398,-81.7787,3.8523177407066,0.134408602,202324,IA,0.2
Howard,32.1105,-101.3669,3.846450270872,-0.13368984,202324,IA,0.2
Hamilton,30.3387,-82.7765,3.8435399972789,-0.133333333,202324,TN,0.2
Pulaski,32.2778,-83.4948,3.8435399972789,0.133333333,202324,AR,0.2
Hillsborough,27.6784,-82.4787,3.8406452094659,-0.132978723,202324,NH,0.2
Jasper,30.3129,-94.0731,3.8292184180451,0.131578947,202324,MO,0.2
Shelby,31.7131,-93.9698,3.8263471405361,0.131227217,202324,TN,0.2
Valley,41.4293,-99.1205,3.8226084634223,-0.130769231,202324,NE,0.2
Androscoggin,43.9684,-70.1846,3.8198782640639,-0.130434783,202324,ME,0.2
Clinton,36.6857,-85.1407,3.8198782640639,-0.130434783,202324,KY,0.2
McKinley,35.0684,-108.8336,3.8198782640639,0.130434783,202324,NM,0.2
Franklin,29.7255,-85.0063,3.8102204107733,-0.129251701,202324,TN,0.2
New Hanover,33.9927,-77.9099,3.8084290317314,0.129032258,202324,NC,0.2
Douglas,33.6634,-84.8639,3.8072023326404,-0.128881988,202324,KS,0.2
Ottawa,36.6296,-94.9432,3.8035972479311,0.128440367,202324,OK,0.2
Rio Arriba,35.9866,-106.0654,3.8016769214024,-0.128205128,202324,NM,0.2
Buffalo,40.6861,-99.0693,3.8010228125,-0.128125,202324,NE,0.2
St. Lawrence,44.1408,-74.9125,3.7992430253441,-0.127906977,202324,NY,0.2
Cloud,39.3481,-97.4579,3.7917095239391,0.126984127,202324,KS,0.2
Mower,43.5309,-92.9328,3.7872413825006,-0.126436782,202324,MN,0.2
Stephens,32.6886,-98.659,3.7843856560781,-0.126086957,202324,OK,0.2
Madison,30.3979,-83.2844,3.7799298738758,-0.125541126,202324,IA,0.2
Massac,37.1542,-88.5334,3.7755125,-0.125,202324,IL,0.2
Brazoria,28.9541,-95.3597,3.7755125,0.125,202324,TX,0.2
Harlan,36.7521,-83.4629,3.7755125,0.125,202324,NE,0.2
Wood,32.6439,-95.222,3.7615342446743,0.123287671,202324,WI,0.2
Worcester,38.0452,-75.4108,3.7576105300394,-0.122807018,202324,MD,0.2
Bartow,34.12,-84.757,3.754687758434,-0.12244898,202324,GA,0.2
Grant,31.5,-92.4005,3.754687758434,-0.12244898,202324,IN,0.2
Santa Clara,37.0095,-121.5705,3.750624394226,-0.12195122,202324,CA,0.2
Shelby,31.7131,-93.9698,3.748893039929,-0.12173913,202324,OH,0.2
Trumbull,41.1318,-80.7553,3.7434816128489,-0.121076233,202324,OH,0.2
Johnson,32.2532,-97.3678,3.7403258606615,-0.120689655,202324,IA,0.2
Boyle,37.5778,-84.9281,3.7360974263642,-0.120171674,202324,KY,0.2
Butler,31.545,-86.7356,3.7356081018356,-0.120111732,202324,KS,0.2
Iredell,35.5432,-80.8473,3.734696,-0.12,202324,NC,0.2
Steele,43.8826,-93.3195,3.7282086091634,-0.119205298,202324,NE,0.2
Mendocino,38.8251,-123.5399,3.7269214281827,-0.119047619,202324,CA,0.2
Henry,31.3534,-85.3323,3.7236271203044,0.118644068,202324,MO,0.2
Ottawa,36.6296,-94.9432,3.7154882367347,0.117647059,202324,KS,0.2
Comal,29.6643,-98.3118,3.7103797905341,-0.117021277,202324,TX,0.2
Spokane,47.2999,-117.1395,3.7080144008894,-0.116731518,202324,WA,0.2
Cheyenne,38.804,-102.8198,3.704320932131,0.11627907,202324,NE,0.2
Miami-Dade,25.2846,-80.6246,3.7035331981709,-0.116182573,202324,FL,0.2
St. Tammany,30.2726,-89.729,3.6970192276295,-0.115384615,202324,LA,0.2
Volusia,28.7676,-81.3522,3.6970192276295,0.115384615,202324,FL,0.2
Nelson,37.5473,-78.8508,3.6827477302412,-0.113636364,202324,KY,0.2
Crawford,32.7222,-84.0451,3.6827477302412,0.113636364,202324,PA,0.2
Clay,29.7683,-81.9907,3.6819375553694,0.113537118,202324,IA,0.2
Santa Barbara,34.2628,-119.8486,3.6814319124041,-0.113475177,202324,CA,0.2
Tuscarawas,40.2739,-81.594,3.6726802343933,0.112403101,202324,OH,0.2
Winchester,39.1676,-78.1686,3.6706102827389,-0.112149533,202324,VA,0.2
Clay,29.7683,-81.9907,3.6621333324263,-0.111111111,202324,FL,0.2
Deschutes,43.7091,-121.5194,3.6621333324263,-0.111111111,202324,OR,0.2
Stanislaus,37.3097,-121.0805,3.6621333324263,-0.111111111,202324,CA,0.2
Houston,31.0507,-85.3154,3.6621333324263,0.111111111,202324,GA,0.2
Cumberland,34.9536,-78.9354,3.6568598814428,-0.110465116,202324,ME,0.2
Muskegon,43.1443,-86.1388,3.6510719548034,0.109756098,202324,MI,0.2
Gallatin,37.6952,-88.2491,3.6497082183953,-0.109589041,202324,MT,0.2
Worth,31.513,-83.7385,3.6497082183953,-0.109589041,202324,IA,0.2
Falls Church,38.8842,-77.1718,3.6497082183953,0.109589041,202324,VA,0.2
Pine,45.7575,-92.9624,3.6479609375,-0.109375,202324,MN,0.2
Marquette,43.6759,-89.5803,3.6402771089255,0.108433735,202324,MI,0.2
Winneshiek,43.1339,-91.9134,3.6376189180364,0.108108108,202324,IA,0.2
Saline,34.4508,-92.6547,3.6360316541477,-0.107913669,202324,IL,0.2
Polk,26.4722,-81.8122,3.6258520027211,-0.106666667,202324,MN,0.2
Wayne,31.5168,-82.0397,3.6235361724707,-0.106382979,202324,OH,0.2
Boulder,39.9205,-105.0867,3.6143947377014,-0.105263158,202324,CO,0.2
Randolph,33.1492,-85.5513,3.6143947377014,-0.105263158,202324,IL,0.2
Poweshiek,41.5656,-92.6987,3.6143947377014,0.105263158,202324,IA,0.2
Keokuk,41.1826,-92.3097,3.6087784281179,0.104575163,202324,IA,0.2
Cumberland,34.9536,-78.9354,3.6079820900396,0.104477612,202324,PA,0.2
Champaign,39.9012,-88.0753,3.6054437527211,0.104166667,202324,OH,0.2
Haines,59.2519,-135.542,3.5995793114708,-0.103448276,202324,AK,0.2
Monroe,24.5552,-81.7816,3.5995793114708,-0.103448276,202324,FL,0.2
Montgomery,30.1199,-95.4247,3.5995793114708,-0.103448276,202324,TN,0.2
Franklin,29.7255,-85.0063,3.5988519369509,-0.103359173,202324,PA,0.2
Chesterfield,34.4606,-80.2544,3.5943177544154,-0.102803738,202324,VA,0.2
Russell,32.1468,-85.0738,3.5937952052558,-0.102739726,202324,KY,0.2
Tazewell,36.9763,-81.628,3.5923615420199,-0.102564103,202324,IL,0.2
Leon,30.3193,-84.2674,3.5874364680272,-0.101960784,202324,FL,0.2
Worcester,38.0452,-75.4108,3.5858783226296,-0.101769912,202324,MA,0.2
Adams,31.4706,-91.4044,3.5782899148688,-0.100840336,202324,OH,0.2
Etowah,33.8979,-86.0245,3.5759905010147,-0.100558659,202324,AL,0.2
City of Alexandria,38.8013,-77.0707,3.57143,-0.1,202324,VA,0.2
Mayes,36.1669,-95.3416,3.57143,-0.1,202324,OK,0.2
Rutherford,35.2247,-81.8851,3.57143,-0.1,202324,TN,0.2
Douglas,33.6634,-84.8639,3.5651984714753,-0.099236641,202324,MN,0.2
Will,41.2657,-88.2231,3.5643926721323,0.099137931,202324,IL,0.2
Stearns,45.3436,-94.3028,3.5594030345999,-0.098526703,202324,MN,0.2
Seward,37.0216,-100.938,3.5593660058711,-0.098522167,202324,NE,0.2
Phillips,34.1335,-90.9751,3.5572739888168,0.098265896,202324,AR,0.2
Logan,35.1304,-93.7116,3.5554235319728,-0.098039216,202324,OK,0.2
Mahoning,40.8957,-80.9897,3.5541531755534,-0.097883598,202324,OH,0.2
Wyandotte,39.0668,-94.6282,3.5523649720352,-0.097664544,202324,KS,0.2
Stafford,37.9433,-98.9481,3.5515195153808,-0.097560976,202324,VA,0.2
Muskingum,39.8,-81.891,3.5497575242189,-0.097345133,202324,OH,0.2
Bell,30.7991,-97.4263,3.5476534009907,0.097087379,202324,TX,0.2
Pottawattamie,41.1916,-95.4314,3.5414729339075,-0.096330275,202324,IA,0.2
Scotts Bluff,41.7469,-103.4164,3.5391457648334,-0.096045198,202324,NE,0.2
McLean,37.4177,-87.2736,3.5378821921163,0.095890411,202324,IL,0.2
Arapahoe,39.5805,-104.9011,3.536277034274,0.09569378,202324,CO,0.2
City of Richmond,37.4955,-77.471,3.5359373920142,0.095652174,202324,VA,0.2
Douglas,33.6634,-84.8639,3.528872513009,-0.09478673,202324,OR,0.2
Sherburne,45.3136,-93.5814,3.5276520506792,-0.094637224,202324,MN,0.2
Denver,39.6431,-104.8987,3.5267552223779,-0.094527363,202324,CO,0.2
Stark,40.6514,-81.3076,3.5249200390682,-0.094302554,202324,OH,0.2
Sac,42.2653,-95.0852,3.5180252342552,0.093457944,202324,IA,0.2
Burleigh,46.6757,-100.2975,3.5176060406369,0.093406593,202324,ND,0.2
Albany,41.0528,-105.4462,3.5164440438617,0.093264249,202324,NY,0.2
Rutland,43.3583,-73.0129,3.5158376331212,0.093189964,202324,VT,0.2
Plymouth,41.6618,-70.8164,3.5147761837121,-0.093059937,202324,IA,0.2
Howard,32.1105,-101.3669,3.5144767457048,-0.093023256,202324,NE,0.2
St. Mary's,38.0828,-76.3477,3.5144767457048,-0.093023256,202324,MD,0.2
Ray,39.2048,-94.0259,3.5125195863665,-0.092783505,202324,MO,0.2
Dodge,31.938,-83.1837,3.5109611144369,0.092592593,202324,MN,0.2
Saline,34.4508,-92.6547,3.5086353821036,-0.092307692,202324,MO,0.2
Holt,39.9809,-95.1234,3.5038050268808,0.091715976,202324,NE,0.2
Ottawa,36.6296,-94.9432,3.5032639551935,-0.091649695,202324,MI,0.2
Washington,30.1669,-96.3977,3.4972181825603,-0.090909091,202324,MS,0.2
La Crosse,43.7989,-91.2175,3.4972181825603,0.090909091,202324,WI,0.2
Sheridan,39.3322,-100.4758,3.4972181825603,0.090909091,202324,NE,0.2
Adams,31.4706,-91.4044,3.4903972392857,-0.090073529,202324,NE,0.2
Winona,43.9148,-91.394,3.489797,-0.09,202324,MN,0.2
Nantucket,41.2639,-69.9626,3.489797,0.09,202324,MA,0.2
Anne Arundel,38.7361,-76.5835,3.4849950612245,0.089411765,202324,MD,0.2
Mills,31.4458,-98.5744,3.4839660690962,0.089285714,202324,TX,0.2
Fayette,29.6882,-96.9106,3.4834241647523,0.089219331,202324,IA,0.2
Kenton,38.8394,-84.5069,3.4807266675737,-0.088888889,202324,KY,0.2
Trempealeau,44.0218,-91.4282,3.4784303802635,-0.088607595,202324,WI,0.2
Lake,28.5494,-81.7729,3.4753911755102,-0.088235294,202324,SD,0.2
Nacogdoches,31.3601,-94.4064,3.4753911755102,-0.088235294,202324,TX,0.2
Jasper,30.3129,-94.0731,3.4716279023735,-0.087774295,202324,IA,0.2
Champaign,39.9012,-88.0753,3.4706083633466,0.087649402,202324,IL,0.2
Howard,32.1105,-101.3669,3.4673342269826,0.087248322,202324,MD,0.2
Burlington,39.5923,-74.451,3.4649521760426,-0.086956522,202324,NJ,0.2
Cleburne,33.5616,-85.3786,3.4649521760426,-0.086956522,202324,AL,0.2
DuPage,41.7074,-87.9756,3.4649521760426,-0.086956522,202324,IL,0.2
Beaufort,32.1145,-80.8686,3.4649521760426,0.086956522,202324,SC,0.2
Greene,31.0867,-88.7977,3.4620049798436,0.086595492,202324,MO,0.2
Greenville,34.6578,-82.2441,3.4615394268446,-0.086538462,202324,SC,0.2
Murray,34.402,-97.051,3.4615394268446,0.086538462,202324,GA,0.2
Norman,47.1588,-96.1309,3.4588327622801,0.086206897,202324,MN,0.2
Richmond,33.2941,-82.203,3.4576791002342,-0.086065574,202324,NY,0.2
Phelps,37.6158,-91.9064,3.4548114309038,0.085714286,202324,MO,0.2
Rockland,41.0103,-73.925,3.4539038923529,-0.085603113,202324,NY,0.2
Cuyahoga,41.3132,-81.8285,3.4524673393088,-0.085427136,202324,OH,0.2
Bergen,40.7898,-74.1343,3.4519670759582,-0.085365854,202324,NJ,0.2
Citrus,28.7304,-82.3077,3.4504922207105,-0.085185185,202324,FL,0.2
Los Angeles,33.332,-118.3437,3.4498489363439,-0.085106383,202324,CA,0.2
Winston,32.9789,-89.1221,3.4498489363439,-0.085106383,202324,AL,0.2
Geary,39.0299,-96.8396,3.4469050870979,-0.084745763,202324,KS,0.2
Mahaska,41.2117,-92.4362,3.4449563359586,0.084507042,202324,IA,0.2
Dorchester,32.9336,-80.1026,3.4435710810917,-0.084337349,202324,SC,0.2
Wayne,31.5168,-82.0397,3.441732714095,0.08411215,202324,KY,0.2
Edgar,39.5525,-87.9352,3.4353749972789,-0.083333333,202324,IL,0.2
Charles Mix,42.9925,-98.4251,3.4353749972789,0.083333333,202324,SD,0.2
Barnes,46.6536,-98.1943,3.4306834508093,-0.082758621,202324,ND,0.2
Wagoner,35.8507,-95.3183,3.4302601510511,0.082706767,202324,OK,0.2
Pontotoc,34.1617,-89.1795,3.4252216398416,-0.082089552,202324,OK,0.2
Pocahontas,38.1109,-80.2641,3.4252216398416,0.082089552,202324,IA,0.2
Webster,31.8939,-84.5112,3.4242229498829,-0.081967213,202324,IA,0.2
Butler,31.545,-86.7356,3.4234403506385,-0.081871345,202324,PA,0.2
Fannin,33.3796,-96.2475,3.4225396202798,-0.081761006,202324,TX,0.2
El Paso,31.4407,-106.0765,3.4214918362349,-0.081632653,202324,CO,0.2
Kalamazoo,42.1209,-85.5024,3.4149510410897,-0.080831409,202324,MI,0.2
Marshall,33.9517,-96.712,3.4134306427913,0.080645161,202324,IA,0.2
Wapello,40.9261,-92.2268,3.40997053829,-0.0802213,202324,IA,0.2
Mille Lacs,45.5851,-93.5961,3.408164,-0.08,202324,MN,0.2
Harrison,30.3598,-89.1646,3.408164,0.08,202324,OH,0.2
Christian,36.6543,-87.4606,3.4061607343433,-0.079754601,202324,MO,0.2
Kanawha,38.0505,-81.4227,3.3995710491944,0.078947368,202324,WV,0.2
Rockdale,33.6111,-84.0683,3.3995710491944,0.078947368,202324,GA,0.2
Dakota,42.2852,-96.7159,3.3971573001605,0.078651685,202324,MN,0.2
Clark,33.8309,-93.1263,3.3965021463557,0.078571429,202324,NV,0.2
Anchorage,59.8666,-158.5996,3.393966960071,-0.07826087,202324,AK,0.2
Salem,37.2853,-80.0692,3.3928578125,-0.078125,202324,VA,0.2
Reno,37.7783,-97.9886,3.3809300720114,-0.076663858,202324,KS,0.2
Dickinson,38.6767,-96.8941,3.3770657127308,0.076190476,202324,IA,0.2
Barron,45.2462,-91.9742,3.3724924361516,0.075630252,202324,WI,0.2
Alachua,29.4536,-82.1065,3.3640174858475,0.074592075,202324,FL,0.2
Auglaize,40.391,-84.3729,3.3547736996228,-0.073459716,202324,OH,0.2
Marshall,33.9517,-96.712,3.3524146365356,0.073170732,202324,WV,0.2
Matanuska-Susitna Borough,61.5214,-149.9544,3.3524146365356,0.073170732,202324,AK,0.2
Linn,38.0718,-94.7008,3.3518853363269,-0.073105893,202324,IA,0.2
Leavenworth,39.0014,-95.0391,3.3487945476809,-0.072727273,202324,KS,0.2
Venango,41.2002,-79.8734,3.3487945476809,-0.072727273,202324,PA,0.2
Morrison,45.5572,-94.2242,3.3487945476809,0.072727273,202324,MN,0.2
Osage,36.1576,-96.0311,3.3466434773144,-0.072463768,202324,OK,0.2
Itasca,47.0739,-93.1964,3.3442041200084,0.072164948,202324,MN,0.2
Ida,42.3327,-95.6045,3.3423877694318,-0.071942446,202324,IA,0.2
Johnson,32.2532,-97.3678,3.3406123333148,-0.071724956,202324,KS,0.2
Montgomery,30.1199,-95.4247,3.3358881418085,-0.071146245,202324,MD,0.2
Daviess,37.6206,-87.0591,3.3246325592786,-0.069767442,202324,MO,0.2
Lincoln,31.3795,-90.2867,3.3202515365777,0.069230769,202324,SD,0.2
Barton,37.3995,-94.1027,3.3193834104392,-0.069124424,202324,KS,0.2
Butler,31.545,-86.7356,3.3180862049261,0.068965517,202324,KY,0.2
O'Brien,42.9444,-95.5515,3.3180862049261,0.068965517,202324,IA,0.2
Bennington,42.7562,-73.0679,3.3167949504587,0.068807339,202324,VT,0.2
Hunterdon,40.3731,-74.9266,3.315937403957,0.06870229,202324,NJ,0.2
Laramie,41.0428,-104.2765,3.3153264707483,-0.068627451,202324,WY,0.2
Campbell,36.3028,-84.203,3.3135016303397,0.068403909,202324,KY,0.2
Crow Wing,46.2099,-94.2527,3.3116886348794,0.068181818,202324,MN,0.2
Beaver,36.5996,-100.7103,3.3104265315563,0.068027211,202324,PA,0.2
Chase,38.1448,-96.5541,3.308544066413,-0.06779661,202324,NE,0.2
Sheridan,39.3322,-100.4758,3.308544066413,-0.06779661,202324,WY,0.2
Wood,32.6439,-95.222,3.308544066413,-0.06779661,202324,OH,0.2
Maury,35.4749,-87.0005,3.308544066413,0.06779661,202324,TN,0.2
Nicollet,44.2172,-94.0942,3.3066743278544,0.067567568,202324,MN,0.2
New Castle,39.3819,-75.6834,3.3029724835502,0.067114094,202324,DE,0.2
Giles,35.05,-87.1522,3.2993200027211,-0.066666667,202324,TN,0.2
Warren,32.3258,-90.8507,3.2959657925474,-0.066255778,202324,IA,0.2
Monmouth,40.1077,-74.0635,3.2955275294603,0.066202091,202324,NJ,0.2
New York,40.7038,-74.0098,3.2948223101366,0.066115702,202324,NY,0.2
Harvey,37.9167,-97.4225,3.290398356641,0.06557377,202324,KS,0.2
Saratoga,42.81,-73.6995,3.2874891279503,-0.065217391,202324,NY,0.2
Nassau,30.4193,-81.9724,3.2842027792895,0.064814815,202324,NY,0.2
Clay,29.7683,-81.9907,3.2833135265306,0.064705882,202324,MO,0.2
Hernando,28.4409,-82.4612,3.2793486198839,-0.064220183,202324,FL,0.2
Clay,29.7683,-81.9907,3.2783884607012,0.064102564,202324,KS,0.2
Milwaukee,42.8892,-87.9027,3.2745827302412,0.063636364,202324,WI,0.2
Duval,27.3849,-98.309,3.2730132949997,-0.063444109,202324,FL,0.2
Monona,41.9186,-95.829,3.2717645549987,-0.063291139,202324,IA,0.2
Madison,30.3979,-83.2844,3.2699027021879,0.063063063,202324,OH,0.2
McLeod,44.7259,-94.4516,3.2682217154519,0.062857143,202324,MN,0.2
Carroll,33.3343,-89.757,3.26530625,-0.0625,202324,IL,0.2
Arkansas,34.0893,-91.2437,3.26530625,0.0625,202324,AR,0.2
Eau Claire,44.5963,-90.9906,3.26530625,0.0625,202324,WI,0.2
Williamson,30.4521,-97.7688,3.2622388736984,-0.062124248,202324,TX,0.2
Oktibbeha,33.357,-89.0473,3.2621372651033,0.062111801,202324,MS,0.2
Hamilton,30.3387,-82.7765,3.2610896688143,-0.061983471,202324,IN,0.2
Custer,35.5115,-98.9795,3.2607911532599,-0.061946903,202324,OK,0.2
Columbia,29.9207,-82.6879,3.260046390911,-0.06185567,202324,PA,0.2
Franklin,29.7255,-85.0063,3.260046390911,-0.06185567,202324,VA,0.2
Scioto,38.5848,-82.8321,3.260046390911,0.06185567,202324,OH,0.2
Saline,34.4508,-92.6547,3.2580521293742,0.061611374,202324,AR,0.2
Cleveland,33.7588,-92.1939,3.2577164054984,-0.061570248,202324,OK,0.2
Medina,29.1404,-99.1428,3.2536221350366,0.061068702,202324,OH,0.2
Baltimore,39.207,-76.4456,3.2505176646998,0.060688406,202324,MD,0.2
Wasco,44.8892,-120.7914,3.2498454577613,-0.060606061,202324,OR,0.2
Winnebago,42.2166,-89.0512,3.2498454577613,-0.060606061,202324,WI,0.2
Ada,43.4599,-116.244,3.2489651274893,0.060498221,202324,WA,0.2
Washington,30.1669,-96.3977,3.241010718173,0.05952381,202324,NE,0.2
Kent,33.2518,-100.5825,3.2404854016547,-0.059459459,202324,MI,0.2
Chester,34.5705,-80.9133,3.2400485181653,-0.059405941,202324,PA,0.2
Boyd,38.3089,-82.7476,3.2393635601522,-0.059322034,202324,KY,0.2
Maricopa,32.9306,-112.7468,3.2380657995347,0.059163059,202324,AZ,0.2
Delaware,36.1662,-94.8547,3.2352941142857,-0.058823529,202324,OH,0.2
Franklin,29.7255,-85.0063,3.2297104660655,-0.058139535,202324,MO,0.2
Lake,28.5494,-81.7729,3.2297104660655,0.058139535,202324,CA,0.2
Yellow Medicine,44.631,-95.4182,3.2283347785862,-0.057971014,202324,MN,0.2
Okfuskee,35.3416,-96.1136,3.2283347785862,0.057971014,202324,OK,0.2
St. Lucie,27.2606,-80.4771,3.2269670503244,-0.057803468,202324,FL,0.2
Angelina,31.1569,-94.3871,3.2215742845481,0.057142857,202324,TX,0.2
Noble,36.2753,-97.4526,3.2215742845481,0.057142857,202324,OH,0.2
Spotsylvania,38.0641,-77.6586,3.2189238651206,0.056818182,202324,VA,0.2
Shawnee,38.9045,-95.7015,3.2171735882942,0.056603774,202324,KS,0.2
St. Louis,38.4566,-90.3282,3.2171735882942,0.056603774,202324,MO,0.2
Norfolk,36.8294,-76.2701,3.216777635591,-0.05655527,202324,MA,0.2
Franklin,29.7255,-85.0063,3.2165039119787,0.056521739,202324,WA,0.2
Becker,46.7565,-95.5212,3.2137123572575,0.056179775,202324,MN,0.2
Elko,40.3995,-115.2312,3.2137123572575,0.056179775,202324,NV,0.2
Tulare,35.805,-119.1315,3.2103026039906,0.055762082,202324,CA,0.2
Skagit,48.34,-122.3456,3.2086166702948,-0.055555556,202324,WA,0.2
Nolan,32.082,-100.3111,3.2086166702948,0.055555556,202324,TX,0.2
Osceola,27.8767,-81.05,3.2086166702948,0.055555556,202324,IA,0.2
Goodhue,44.211,-92.6613,3.2036329674815,-0.054945055,202324,MN,0.2
Otter Tail,46.153,-95.3289,3.2030859774017,0.054878049,202324,MN,0.2
McCracken,37.0368,-88.5934,3.2003709128015,-0.054545455,202324,KY,0.2
Steuben,41.5328,-85.0811,3.2003709128015,-0.054545455,202324,NY,0.2
Waukesha,42.8809,-88.4674,3.1996361423318,0.054455446,202324,WI,0.2
Rhea,35.4484,-85.179,3.1987576079858,0.054347826,202324,TN,0.2
Clermont,38.7926,-84.1382,3.1982505690962,0.054285714,202324,OH,0.2
Wright,37.0687,-92.4082,3.1963594590182,-0.054054054,202324,MN,0.2
Multnomah,45.4446,-122.5372,3.1946623089482,-0.053846154,202324,OR,0.2
Delaware,36.1662,-94.8547,3.1924196463557,-0.053571429,202324,IA,0.2
Shelby,31.7131,-93.9698,3.1924196463557,-0.053571429,202324,IA,0.2
Breckinridge,37.6194,-86.4491,3.1924196463557,0.053571429,202324,KY,0.2
Buena Vista,37.7396,-79.3523,3.1847473688507,0.052631579,202324,IA,0.2
Frederick,39.0367,-78.2815,3.1815410450198,-0.052238806,202324,MD,0.2
Centre,40.71,-77.996,3.1794917465144,-0.051987768,202324,PA,0.2
Lane,38.4742,-100.4647,3.1791675328916,0.051948052,202324,OR,0.2
St. Louis,38.4566,-90.3282,3.1769118579989,0.051671733,202324,MN,0.2
Sandoval,35.2339,-106.62,3.1758886618136,-0.051546392,202324,NM,0.2
Olmsted,43.8555,-92.4885,3.1741012419722,0.051327434,202324,MN,0.2
Summit,39.4753,-106.0225,3.1700677472789,-0.050833333,202324,OH,0.2
Lee,26.3398,-81.7787,3.1696984232603,-0.050788091,202324,FL,0.2
Hamilton,30.3387,-82.7765,3.1684316423663,-0.050632911,202324,OH,0.2
Chippewa,44.9226,-95.4845,3.1684316423663,0.050632911,202324,MN,0.2
Davidson,35.6196,-80.0959,3.1680295753514,-0.050583658,202324,TN,0.2
Hardin,30.1491,-94.3733,3.1673878828283,0.050505051,202324,KY,0.2
Mercer,37.2698,-81.2223,3.1653160781048,0.050251256,202324,KY,0.2
Philadelphia,39.8893,-75.1782,3.163265,0.05,202324,PA,0.2
Lincoln,31.3795,-90.2867,3.1607298137153,0.049689441,202324,NE,0.2
Jefferson,28.883,-81.3087,3.1585579922402,0.049423394,202324,AL,0.2
Douglas,33.6634,-84.8639,3.1565737715624,0.049180328,202324,CO,0.2
Muskogee,35.3631,-95.2607,3.1555637754332,-0.049056604,202324,OK,0.2
Tom Green,31.2346,-100.5203,3.1536233100434,0.048818898,202324,TX,0.2
Fairfax,38.6929,-77.204,3.1509416251769,-0.048490393,202324,VA,0.2
Sangamon,39.5394,-89.7621,3.1508963596784,-0.048484848,202324,IL,0.2
Dodge,31.938,-83.1837,3.1494623209307,-0.048309179,202324,WI,0.2
Cedar,37.6613,-94.0129,3.1491903442646,-0.048275862,202324,IA,0.2
Chippewa,44.9226,-95.4845,3.1491903442646,0.048275862,202324,WI,0.2
Richmond,33.2941,-82.203,3.1485120475043,-0.048192771,202324,NC,0.2
Palo Alto,42.9417,-94.6746,3.1477650647378,-0.048101266,202324,IA,0.2
Garland,34.4351,-93.242,3.1475663455259,-0.048076923,202324,AR,0.2
Chesapeake,36.6434,-76.242,3.1461562905536,-0.047904192,202324,VA,0.2
Cherokee,31.4885,-94.9399,3.145155290381,-0.04778157,202324,OK,0.2
Hardin,30.1491,-94.3733,3.1438285745384,-0.047619048,202324,IA,0.2
Wyoming,37.4909,-81.3226,3.1438285745384,-0.047619048,202324,PA,0.2
Allegheny,40.2373,-79.9506,3.1438285745384,0.047619048,202324,PA,0.2
Clayton,33.4429,-84.3136,3.1419862565045,-0.047393365,202324,IA,0.2
Bonneville,43.3861,-111.2527,3.1392552979592,0.047058824,202324,ID,0.2
Marion,28.9782,-81.8932,3.1367927568812,-0.046757164,202324,FL,0.2
Douglas,33.6634,-84.8639,3.1365626171276,0.046728972,202324,WA,0.2
Scott,32.2745,-89.5627,3.1265865747296,-0.045506912,202324,IA,0.2
Lancaster,34.5578,-80.5546,3.1261590871985,-0.045454545,202324,SC,0.2
Cherokee,31.4885,-94.9399,3.1261590871985,0.045454545,202324,KS,0.2
Kent,33.2518,-100.5825,3.1261590871985,0.045454545,202324,DE,0.2
Blue Earth,43.8903,-94.1774,3.1233691733006,-0.045112782,202324,MN,0.2
Murray,34.402,-97.051,3.1233691733006,0.045112782,202324,OK,0.2
Cass,32.8485,-94.5795,3.1214019241235,0.044871795,202324,ND,0.2
Denton,33.0033,-96.882,3.1189239544085,0.044568245,202324,TX,0.2
Sunflower,33.349,-90.6051,3.1179133297052,0.044444444,202324,MS,0.2
Accomack,37.5423,-75.7412,3.1152455877551,-0.044117647,202324,VA,0.2
Westchester,40.9002,-73.781,3.1131394726817,-0.043859649,202324,NY,0.2
Washington,30.1669,-96.3977,3.1130522559845,-0.043848965,202324,MN,0.2
Brown,31.5176,-99.1277,3.1124161634852,0.043771044,202324,WI,0.2
Payette,43.959,-116.8048,3.1113167302412,0.043636364,202324,ID,0.2
Anderson,31.648,-95.5551,3.1081075655819,-0.043243243,202324,TX,0.2
Cuming,41.845,-96.7318,3.1074726649244,0.043165468,202324,NE,0.2
Caledonia,44.1978,-72.1104,3.1069663770584,0.043103448,202324,VT,0.2
Labette,37.0418,-95.0796,3.1049557154519,0.042857143,202324,KS,0.2
Hennepin,44.8261,-93.3538,3.1030842054572,0.042627884,202324,MN,0.2
Sequoyah,35.3898,-94.4462,3.101906861678,0.04248366,202324,OK,0.2
Butler,31.545,-86.7356,3.1000281679793,-0.042253521,202324,IA,0.2
Lycoming,41.1788,-76.8839,3.0985398024701,0.042071197,202324,PA,0.2
Mecklenburg,35.0552,-80.8195,3.0968806770515,0.041867955,202324,NC,0.2
Berks,40.1552,-75.8998,3.0952375027211,-0.041666667,202324,PA,0.2
Pitt,35.3757,-77.4193,3.0952375027211,-0.041666667,202324,NC,0.2
Onondaga,42.807,-76.1394,3.0952375027211,0.041666667,202324,NY,0.2
Gwinnett,33.8178,-84.0229,3.0917309245529,0.041237113,202324,GA,0.2
Bexar,29.1733,-98.4723,3.0910382685479,0.041152263,202324,TX,0.2
Palm Beach,26.3446,-80.2109,3.090578078837,0.04109589,202324,FL,0.2
Bannock,42.3195,-111.9781,3.0900046151753,0.041025641,202324,ID,0.2
Phelps,37.6158,-91.9064,3.0882959221991,-0.040816327,202324,NE,0.2
Craighead,35.7456,-90.5507,3.0873273221642,-0.040697674,202324,AR,0.2
Carroll,33.3343,-89.757,3.0860445983453,0.040540541,202324,OH,0.2
Fayette,29.6882,-96.9106,3.081632,0.04,202324,TN,0.2
Macomb,42.4658,-82.9459,3.081632,0.04,202324,MI,0.2
Contra Costa,37.7562,-121.9522,3.079040478782,0.03968254,202324,CA,0.2
Travis,30.1204,-97.7433,3.0727381336298,-0.038910506,202324,TX,0.2
Fall River,43.1551,-103.2162,3.0725616675737,0.038888889,202324,SD,0.2
King,33.6206,-100.3229,3.0719982937508,-0.038819876,202324,WA,0.2
Chisago,45.3364,-92.9675,3.071506977377,0.03875969,202324,MN,0.2
Faribault,43.5201,-94.0984,3.0690730731554,0.038461538,202324,MN,0.2
Jones,31.4555,-89.302,3.0639816229454,-0.037837838,202324,IA,0.2
Thurston,42.0574,-96.4929,3.0631490561417,-0.037735849,202324,WA,0.2
Atlantic,39.3194,-74.5356,3.0574444441421,0.037037037,202324,NJ,0.2
Danville,36.5779,-79.4411,3.0555895709528,-0.036809816,202324,VA,0.2
San Bernardino,33.6736,-116.2951,3.0519472697588,-0.036363636,202324,CA,0.2
Brevard,27.8679,-80.5416,3.0489788,-0.036,202324,FL,0.2
Hancock,30.2391,-89.4595,3.0483922179152,-0.035928144,202324,OH,0.2
Daviess,37.6206,-87.0591,3.0466464309038,-0.035714286,202324,KY,0.2
Stevens,37.1682,-101.3346,3.0466464309038,-0.035714286,202324,MN,0.2
Washington,30.1669,-96.3977,3.0466464309038,-0.035714286,202324,MD,0.2
Delaware,36.1662,-94.8547,3.0466464309038,0.035714286,202324,PA,0.2
Roberts,35.7193,-100.7027,3.0466464309038,0.035714286,202324,SD,0.2
Cass,32.8485,-94.5795,3.045904582853,-0.03562341,202324,MO,0.2
Davison,43.5478,-97.9881,3.0437015122655,0.035353535,202324,SD,0.2
Union,29.9315,-82.4255,3.0372417052196,0.034562212,202324,SD,0.2
Kennebec,44.1634,-69.9581,3.0365931065447,-0.034482759,202324,ME,0.2
Payne,35.9768,-97.0441,3.0340616917046,0.034172662,202324,OK,0.2
New Haven,41.2175,-73.0549,3.0324936932039,-0.033980583,202324,CT,0.2
Pinellas,27.6705,-82.7119,3.0290362417751,-0.033557047,202324,FL,0.2
Henderson,32.0797,-95.5938,3.0284247779519,-0.033482143,202324,KY,0.2
Mercer,37.2698,-81.2223,3.0272099972789,0.033333333,202324,NJ,0.2
Creek,35.7551,-96.5658,3.0252091887755,-0.033088235,202324,OK,0.2
Virginia Beach,36.6224,-76.0249,3.0248125585184,0.033039648,202324,VA,0.2
Morrill,41.5825,-102.8225,3.0212945680568,-0.032608696,202324,NE,0.2
Sedgwick,37.5054,-97.3408,3.0187022060189,0.032291133,202324,KS,0.2
Ocean,39.5881,-74.3646,3.0184322620145,-0.032258065,202324,NJ,0.2
Escambia,30.3511,-87.2749,3.0184322620145,0.032258065,202324,FL,0.2
Henry,31.3534,-85.3323,3.0175855318853,-0.032154341,202324,IA,0.2
El Dorado,38.55,-120.7304,3.0170240601113,-0.032085561,202324,CA,0.2
Camp,32.9623,-94.9603,3.0142523830256,0.031746032,202324,TX,0.2
Hamilton,30.3387,-82.7765,3.0128884180451,-0.031578947,202324,NE,0.2
Platte,39.1776,-94.6321,3.0128884180451,-0.031578947,202324,MO,0.2
Morris,32.9252,-94.7049,3.0122118110879,0.031496063,202324,NJ,0.2
Madison,30.3979,-83.2844,3.010203125,0.03125,202324,IN,0.2
Henrico,37.4638,-77.398,3.0067085632094,-0.030821918,202324,VA,0.2
Riley,39.1153,-96.7101,3.0043610675183,-0.030534351,202324,KS,0.2
Wichita,33.8579,-98.8081,3.002472724799,-0.03030303,202324,TX,0.2
Bucks,40.0933,-74.8991,3,-0.029739777,202324,PA,0.2
Jefferson,28.883,-81.3087,3,0.029540481,202324,KY,0.2
Lancaster,34.5578,-80.5546,3,-0.029411765,202324,PA,0.2
Franklin,29.7255,-85.0063,3,-0.029069767,202324,IA,0.2
Canadian,35.3885,-97.7309,3,0.029032258,202324,OK,0.2
Lyon,37.0619,-88.1498,3,0.029032258,202324,KS,0.2
Dallas,32.1899,-87.0633,3,0.028625954,202324,IA,0.2
Woodbury,42.2408,-95.9486,3,0.028301887,202324,IA,0.2
Hocking,39.4174,-82.5923,3,-0.028169014,202324,OH,0.2
Major,36.2341,-98.3374,3,-0.028169014,202324,OK,0.2
Buchanan,37.1134,-82.1501,3,0.027906977,202324,IA,0.2
Cottonwood,43.8831,-95.1373,3,-0.027522936,202324,MN,0.2
Decatur,30.7493,-84.4846,3,0.02739726,202324,IA,0.2
Lyon,37.0619,-88.1498,3,0.027272727,202324,NV,0.2
Wake,35.547,-78.6717,3,0.027272727,202324,NC,0.2
Bryan,31.8962,-81.294,3,0.027027027,202324,OK,0.2
Strafford,43.1174,-70.9197,3,0.026845638,202324,NH,0.2
Pennington,43.7994,-102.5353,3,-0.026829268,202324,SD,0.2
Crawford,32.7222,-84.0451,3,0.026455026,202324,KS,0.2
Lawrence,31.4036,-90.1864,3,0.026041667,202324,PA,0.2
Shelby,31.7131,-93.9698,3,0.025974026,202324,AL,0.2
Lucas,40.9355,-93.4796,3,0.025943396,202324,OH,0.2
Fairfield,34.2717,-81.2712,3,-0.025531915,202324,OH,0.2
Yellowstone,45.6745,-108.769,3,0.025210084,202324,MT,0.2
Kingman,37.4344,-98.4171,3,0.025,202324,KS,0.2
Garvin,34.4719,-97.3879,3,-0.024793388,202324,OK,0.2
Hall,34.1819,-83.9024,3,-0.024660912,202324,NE,0.2
Jackson,28.7671,-96.6492,3,0.024390244,202324,FL,0.2
Peoria,40.5571,-89.7685,3,0.024271845,202324,IL,0.2
Richland,32.3331,-91.7976,3,0.02407932,202324,OH,0.2
Chittenden,44.3113,-73.228,3,-0.023788546,202324,VT,0.2
Ross,39.2039,-82.812,3,-0.023668639,202324,OH,0.2
Orange,28.3774,-81.1888,3,-0.023474178,202324,FL,0.2
Madison,30.3979,-83.2844,3,-0.023255814,202324,KY,0.2
Sarpy,41.0765,-96.1438,3,-0.022837568,202324,NE,0.2
Sarasota,26.92,-82.3048,3,-0.022727273,202324,FL,0.2
Ashland,40.6361,-82.2356,3,0.022624434,202324,OH,0.2
James City,37.2235,-76.7833,3,-0.022332506,202324,VA,0.2
Marion,28.9782,-81.8932,3,0.022222222,202324,IN,0.2
Allamakee,43.0036,-91.5478,3,-0.022058824,202324,IA,0.2
Saline,34.4508,-92.6547,3,-0.021798365,202324,KS,0.2
Middlesex,37.5512,-76.3844,3,-0.021551724,202324,NJ,0.2
Kenosha,42.5001,-88.08,3,0.021505376,202324,WI,0.2
Rapides,31.0066,-92.5526,3,0.021164021,202324,LA,0.2
Pickaway,39.5535,-82.7763,3,-0.020833333,202324,OH,0.2
Harris,29.5564,-95.144,3,0.020833333,202324,TX,0.2
Pottawatomie,34.9849,-96.8763,3,0.020524515,202324,OK,0.2
Jackson,28.7671,-96.6492,3,-0.020408163,202324,MO,0.2
Queen Anne's,38.9394,-76.3371,3,-0.020408163,202324,MD,0.2
Cambria,40.2799,-78.8032,3,-0.02020202,202324,PA,0.2
Black Hawk,42.3416,-92.1862,3,-0.020027624,202324,IA,0.2
Marion,28.9782,-81.8932,3,0.02,202324,KY,0.2
Erie,41.3111,-82.6126,3,-0.019908116,202324,OH,0.2
York,34.8507,-80.9342,3,0.019498607,202324,NE,0.2
Tarrant,32.5773,-97.1416,3,-0.019261637,202324,TX,0.2
Montgomery,30.1199,-95.4247,3,0.018867925,202324,KS,0.2
Anoka,45.0523,-93.2541,3,0.018737673,202324,MN,0.2
Galveston,29.2205,-94.9444,3,0.018518519,202324,TX,0.2
Des Moines,40.8087,-91.117,3,-0.018237082,202324,IA,0.2
Jackson,28.7671,-96.6492,3,-0.018181818,202324,OK,0.2
Oakland,42.4567,-83.659,3,-0.018181818,202324,MI,0.2
Hardin,30.1491,-94.3733,3,0.017910448,202324,TN,0.2
Fauquier,38.4674,-77.7044,3,0.017699115,202324,VA,0.2
Oklahoma,34.506,-97.1131,3,-0.017578446,202324,OK,0.2
Comanche,31.7629,-98.3695,3,-0.017574692,202324,OK,0.2
Boise,43.6498,-116.4306,3,-0.01754386,202324,ID,0.2
Ramsey,44.914,-93.1727,3,-0.017528484,202324,MN,0.2
Dallas,32.1899,-87.0633,3,-0.017384106,202324,TX,0.2
City of Harrisonburg,38.4409,-78.8742,3,0.017094017,202324,VA,0.2
Norfolk,36.8294,-76.2701,3,-0.016666667,202324,VA,0.2
McLean,37.4177,-87.2736,3,0.016666667,202324,KY,0.2
St. Landry,30.3884,-92.0934,3,-0.016393443,202324,LA,0.2
McClain,34.8904,-97.0997,3,0.016260163,202324,OK,0.2
Warren,32.3258,-90.8507,3,-0.016194332,202324,KY,0.2
Dunn,44.7152,-91.9822,3,-0.016129032,202324,WI,0.2
Jefferson,28.883,-81.3087,3,-0.016129032,202324,NE,0.2
Orange,28.3774,-81.1888,3,0.015625,202324,IN,0.2
Wood,32.6439,-95.222,3,-0.015544041,202324,TX,0.2
Hanover,37.6281,-77.3395,3,-0.015151515,202324,VA,0.2
McPherson,38.206,-97.5088,3,-0.015151515,202324,KS,0.2
Saint Johns,29.7051,-81.4909,3,-0.015151515,202324,FL,0.2
Erie,41.3111,-82.6126,3,0.015015015,202324,PA,0.2
Rogers,36.1503,-95.5205,3,-0.014880952,202324,OK,0.2
Collin,33.0139,-96.4377,3,0.014869888,202324,TX,0.2
Portage,41.0328,-81.2484,3,0.014814815,202324,OH,0.2
Kosciusko,41.0743,-85.8792,3,0.014705882,202324,IN,0.2
Madison,30.3979,-83.2844,3,0.014705882,202324,MS,0.2
Tulsa,35.9183,-95.7988,3,-0.014124294,202324,OK,0.2
Washington,30.1669,-96.3977,3,0.014084507,202324,PA,0.2
Avoyelles,30.8641,-92.1466,3,-0.013888889,202324,LA,0.2
Grady,30.7462,-84.3125,3,-0.013333333,202324,OK,0.2
Story,41.8765,-93.6812,3,-0.013133208,202324,IA,0.2
Cherokee,31.4885,-94.9399,3,0.012958963,202324,IA,0.2
Lincoln,31.3795,-90.2867,3,0.012658228,202324,MS,0.2
Sioux,42.6872,-103.8827,3,-0.012605042,202324,IA,0.2
Defiance,41.2799,-84.3626,3,-0.0125,202324,OH,0.2
Forsyth,34.2037,-84.1031,3,0.012096774,202324,NC,0.2
Anderson,31.648,-95.5551,3,-0.011764706,202324,SC,0.2
Williams,41.4425,-84.7349,3,-0.011627907,202324,OH,0.2
Lancaster,34.5578,-80.5546,3,0.011603376,202324,NE,0.2
Montgomery,30.1199,-95.4247,3,-0.011594203,202324,PA,0.2
Greene,31.0867,-88.7977,3,-0.011235955,202324,IA,0.2
Boone,34.7399,-92.34,3,-0.010510511,202324,KY,0.2
Berrien,31.0825,-83.2143,3,0.01,202324,MI,0.2
Racine,42.666,-88.2749,3,0.009861933,202324,WI,0.2
Muscatine,41.3486,-91.1237,3,-0.009153318,202324,IA,0.2
Baxter,36.0068,-92.3917,3,0.008988764,202324,AR,0.2
Sheboygan,43.5672,-87.9816,3,-0.00887574,202324,WI,0.2
Whatcom,48.6752,-122.1914,3,0.008810573,202324,WA,0.2
Tate,34.6323,-89.8855,3,-0.008695652,202324,MS,0.2
Essex,37.7681,-76.7117,3,0.008426966,202324,MA,0.2
Tuolumne,37.8108,-120.2988,3,0.008298755,202324,CA,0.2
Northampton,36.2773,-77.2969,3,0.008130081,202324,PA,0.2
Jackson,28.7671,-96.6492,3,-0.008032129,202324,KS,0.2
Twin Falls,42.218,-114.5942,3,0.007705987,202324,ID,0.2
Prince George's,38.5825,-76.7149,3,-0.006802721,202324,MD,0.2
Montgomery,30.1199,-95.4247,3,-0.006535948,202324,IL,0.2
Monroe,24.5552,-81.7816,3,0.006410256,202324,IA,0.2
Union,29.9315,-82.4255,3,-0.006097561,202324,NC,0.2
Codington,44.8858,-97.4442,3,0.005988024,202324,SD,0.2
Marshall,33.9517,-96.712,3,0.005952381,202324,KY,0.2
Loudoun,38.8976,-77.5092,3,-0.005300353,202324,VA,0.2
Douglas,33.6634,-84.8639,3,-0.004431315,202324,NE,0.2
Cameron,25.9017,-97.4975,3,0.004237288,202324,TX,0.2
Kane,37.0475,-112.5263,3,-0.004192872,202324,IL,0.2
Broward,25.9812,-80.1484,3,-0.003571429,202324,FL,0.2
Hancock,30.2391,-89.4595,3,0.003472222,202324,IA,0.2
Franklin,29.7255,-85.0063,3,-0.003418154,202324,OH,0.2
Wayne,31.5168,-82.0397,3,-0.002898551,202324,NE,0.2
Madison,30.3979,-83.2844,3,-0.00233827,202324,NE,0.2
Montgomery,30.1199,-95.4247,3,-0.001838235,202324,OH,0.2
Cook,31.0403,-83.3915,3,0.001577287,202324,IL,0.2
Polk,26.4722,-81.8122,3,-0.001150969,202324,IA,0.2
Queens,40.5594,-73.9067,3,0.001114827,202324,NY,0.2
Minnehaha,43.4775,-96.7041,3,0.000784314,202324,SD,0.2
Adair,35.6826,-94.7611,3,0,202324,IA,0.2
Anderson,31.648,-95.5551,3,0,202324,KS,0.2
Berkeley,32.9185,-80.022,3,0,202324,SC,0.2
Butler,31.545,-86.7356,3,0,202324,OH,0.2
Colfax,36.35,-104.7931,3,0,202324,NE,0.2
Columbia,29.9207,-82.6879,3,0,202324,NY,0.2
Covington,31.0105,-86.3497,3,0,202324,AL,0.2
Dawson,32.5273,-101.716,3,0,202324,NE,0.2
DeSoto,27.0675,-81.9855,3,0,202324,MS,0.2
Elkhart,41.4493,-85.9945,3,0,202324,IN,0.2
Essex,37.7681,-76.7117,3,0,202324,ME,0.2
Fayette,29.6882,-96.9106,3,0,202324,OH,0.2
Granville,35.6555,-78.4611,3,0,202324,NC,0.2
Hardin,30.1491,-94.3733,3,0,202324,OH,0.2
Harford,39.3982,-76.2743,3,0,202324,MD,0.2
Jasper,30.3129,-94.0731,3,0,202324,TX,0.2
Johnson,32.2532,-97.3678,3,0,202324,NE,0.2
Keith,41.1002,-101.9099,3,0,202324,NE,0.2
Kings,35.9877,-120.1227,3,0,202324,NY,0.2
Kleberg,27.3217,-97.7787,3,0,202324,TX,0.2
Knox,33.4183,-99.8137,3,0,202324,ME,0.2
Lawrence,31.4036,-90.1864,3,0,202324,SD,0.2
Lawrence,31.4036,-90.1864,3,0,202324,OH,0.2
Lincoln,31.3795,-90.2867,3,0,202324,ME,0.2
Lincoln,31.3795,-90.2867,3,0,202324,OK,0.2
Linn,38.0718,-94.7008,3,0,202324,OR,0.2
Marion,28.9782,-81.8932,3,0,202324,MD,0.2
Mercer,37.2698,-81.2223,3,0,202324,OH,0.2
Oklahoma,34.506,-97.1131,3,0,202324,KS,0.2
Ouachita,33.4169,-92.777,3,0,202324,AR,0.2
Platte,39.1776,-94.6321,3,0,202324,NE,0.2
Providence,41.7312,-71.5468,3,0,202324,RI,0.2
Rowan,35.5435,-80.6129,3,0,202324,NC,0.2
Suffolk,40.6443,-73.1613,3,0,202324,NY,0.2
Sullivan,36.4195,-82.304,3,0,202324,NY,0.2
Tillman,34.2282,-98.6867,3,0,202324,OK,0.2
Tipton,35.4143,-89.8188,3,0,202324,TN,0.2
Tuscaloosa,33.0618,-87.4422,3,0,202324,AL,0.2
White,34.5839,-83.75,3,0,202324,AR,0.2
