county,lat,lon,bubble,change,week,state,telemed
Will,41.2657,-88.2231,16,7.965517241,202302,IL,42.1
Anderson,31.648,-95.5551,16,7.333333333,202302,SC,42.1
Rockingham,36.3432,-79.6642,16,6,202302,NH,42.1
Santa Cruz,31.377,-110.9435,16,5,202302,CA,42.1
Wayne,31.5168,-82.0397,16,5,202302,KY,42.1
Madison,30.3979,-83.2844,16,4.2,202302,LA,42.1
Madison,30.3979,-83.2844,16,3.611111111,202302,KY,42.1
Spotsylvania,38.0641,-77.6586,16,3.05,202302,VA,42.1
Breckinridge,37.6194,-86.4491,16,3,202302,KY,42.1
Manitowoc,43.9217,-87.7673,16,20,202302,WI,42.1
Charles Mix,42.9925,-98.4251,16,2.75,202302,SD,42.1
Fredericksburg,38.2995,-77.4772,16,2.685714286,202302,VA,42.1
Brevard,27.8679,-80.5416,16,2.322033898,202302,FL,42.1
Haines,59.2519,-135.542,16,2,202302,AK,42.1
Jefferson,28.883,-81.3087,16,2,202302,OK,42.1
Westchester,40.9002,-73.781,16,2,202302,CT,42.1
Dixon,42.2733,-96.8776,16,14,202302,NE,42.1
Washington,30.1669,-96.3977,16,1.814285714,202302,RI,42.1
Sheridan,39.3322,-100.4758,16,1.638888889,202302,WY,42.1
Massac,37.1542,-88.5334,16,1.6,202302,IL,42.1
Elkhart,41.4493,-85.9945,15.00005,1.5,202302,IN,42.1
Kidder,46.8336,-99.6019,15.00005,1.5,202302,ND,42.1
Hanover,37.6281,-77.3395,14.2797588244898,1.411764706,202302,VA,42.1
Contra Costa,37.7562,-121.9522,14.2579318174397,1.409090909,202302,CA,42.1
Benton,34.6244,-89.1862,13.9796375,1.375,202302,WA,42.1
Stafford,37.9433,-98.9481,13.6394999972789,1.333333333,202302,VA,42.1
Rapides,31.0066,-92.5526,13.5557738455259,1.323076923,202302,LA,42.1
Gloucester,37.2585,-76.4959,12.0845857154519,1.142857143,202302,VA,42.1
Doï¿½a Ana,31.8186,-106.5997,11.5986749972789,1.083333333,202302,NM,42.1
Rutherford,35.2247,-81.8851,11.3071285745384,1.047619048,202302,TN,42.1
Bartow,34.12,-84.757,10.9184,1,202302,GA,42.1
Fort Bend,29.3327,-95.7702,10.9184,1,202302,TX,42.1
Utah,39.953,-111.9008,10.9184,1,202302,UT,42.1
Wichita,33.8579,-98.8081,10.9184,1,202302,KS,42.1
Anderson,31.648,-95.5551,10.6462900027211,0.966666667,202302,KS,42.1
New Haven,41.2175,-73.0549,10.6462900027211,0.966666667,202302,CT,42.1
Hopkins,33.0107,-95.4734,10.5050683576337,0.949367089,202302,KY,42.1
Sussex,36.8191,-77.4832,10.4747423920142,0.945652174,202302,DE,42.1
City of Alexandria,38.8013,-77.0707,10.4648833297052,-0.944444444,202302,VA,42.1
Ouachita,33.4169,-92.777,10.4648833297052,-0.944444444,202302,AR,42.1
Washington,30.1669,-96.3977,10.4382058857143,0.941176471,202302,KS,42.1
Ottawa,36.6296,-94.9432,10.3951115392988,-0.935897436,202302,OH,42.1
Cloud,39.3481,-97.4579,10.3353071463557,-0.928571429,202302,KS,42.1
Santa Clara,37.0095,-121.5705,10.3353071463557,-0.928571429,202302,CA,42.1
Shelby,31.7131,-93.9698,10.3061525,-0.925,202302,AL,42.1
Charleston,32.6529,-80.1829,10.2904538455259,-0.923076923,202302,SC,42.1
Otter Tail,46.153,-95.3289,9.969179067869,0.88372093,202302,MN,42.1
Sullivan,36.4195,-82.304,9.7846083324263,-0.861111111,202302,TN,42.1
La Crosse,43.7989,-91.2175,9.7522142845481,-0.857142857,202302,WI,42.1
Snyder,40.6991,-77.3758,9.7522142845481,-0.857142857,202302,PA,42.1
Westchester,40.9002,-73.781,9.7522142845481,-0.857142857,202302,NY,42.1
White Pine,38.8641,-115.0069,9.7522142845481,0.857142857,202302,NV,42.1
Champaign,39.9012,-88.0753,9.6731508464891,-0.847457627,202302,IL,42.1
Calhoun,28.4101,-96.7023,9.5578499972789,-0.833333333,202302,IA,42.1
Red Willow,40.0377,-100.4242,9.5578499972789,-0.833333333,202302,NE,42.1
Lake,28.5494,-81.7729,9.5578499972789,0.833333333,202302,OH,42.1
Humboldt,40.0231,-124.0139,9.5109344836031,0.827586207,202302,CA,42.1
Maury,35.4749,-87.0005,9.4531923116693,0.820512821,202302,TN,42.1
San Luis Obispo,35.0298,-120.4894,9.38778125,0.8125,202302,CA,42.1
Osage,36.1576,-96.0311,9.3485346178964,-0.807692308,202302,OK,42.1
Boise,43.6498,-116.4306,9.2438769241235,-0.794871795,202302,ID,42.1
Benton,34.6244,-89.1862,9.1043333351474,-0.777777778,202302,MN,42.1
Stanislaus,37.3097,-121.0805,9.0345615365777,0.769230769,202302,CA,42.1
Butler,31.545,-86.7356,9.0078404270951,-0.765957447,202302,NE,42.1
Morris,32.9252,-94.7049,8.877575,0.75,202302,NJ,42.1
Russell,32.1468,-85.0738,8.6508166648526,0.722222222,202302,KY,42.1
Montgomery,30.1199,-95.4247,8.6361871006364,0.720430108,202302,KS,42.1
Hillsborough,27.6784,-82.4787,8.5744821771671,0.712871287,202302,NH,42.1
Putnam,25.7964,-80.3849,8.4426450780863,0.696721311,202302,OH,42.1
McIntosh,31.3826,-81.4312,8.4066153821036,-0.692307692,202302,OK,42.1
Sacramento,38.157,-121.6066,8.4066153821036,-0.692307692,202302,CA,42.1
Crawford,32.7222,-84.0451,8.3889267599885,0.690140845,202302,PA,42.1
Anne Arundel,38.7361,-76.5835,8.3069665014548,0.680100756,202302,MD,42.1
Delaware,36.1662,-94.8547,8.2850774206715,0.677419355,202302,IA,42.1
Osage,36.1576,-96.0311,8.2605813981965,-0.674418605,202302,KS,42.1
Mercer,37.2698,-81.2223,8.1973000027211,-0.666666667,202302,OH,42.1
Onondaga,42.807,-76.1394,8.1973000027211,-0.666666667,202302,NY,42.1
Clinton,36.6857,-85.1407,8.112265625,0.65625,202302,KY,42.1
Cheyenne,38.804,-102.8198,8.0707372117703,0.651162791,202302,NE,42.1
Mills,31.4458,-98.5744,8.0372352979592,-0.647058824,202302,TX,42.1
Stevens,37.1682,-101.3346,8.0029357154519,0.642857143,202302,MN,42.1
Jackson,28.7671,-96.6492,7.9879846151753,0.641025641,202302,FL,42.1
Washington,30.1669,-96.3977,7.979612,0.64,202302,IA,42.1
Wayne,31.5168,-82.0397,7.9657170184976,0.638297872,202302,MI,42.1
Adams,31.4706,-91.4044,7.8571625,0.625,202302,IA,42.1
Atlantic,39.3194,-74.5356,7.8085714281827,0.619047619,202302,NJ,42.1
Clark,33.8309,-93.1263,7.8085714281827,0.619047619,202302,IN,42.1
Mille Lacs,45.5851,-93.5961,7.8085714281827,0.619047619,202302,MN,42.1
Pitt,35.3757,-77.4193,7.7786692276295,0.615384615,202302,NC,42.1
Henry,31.3534,-85.3323,7.7696985690962,0.614285714,202302,IN,42.1
Vernon,30.9243,-93.2749,7.7437833324263,0.611111111,202302,MO,42.1
Carlton,46.4472,-92.7466,7.7025545449598,0.606060606,202302,MN,42.1
Bryan,31.8962,-81.294,7.65308,-0.6,202302,OK,42.1
Ness,38.4388,-99.9029,7.65308,-0.6,202302,KS,42.1
Manassas,38.7447,-77.4872,7.65308,0.6,202302,VA,42.1
Salt Lake,40.4954,-111.9444,7.65308,0.6,202302,UT,42.1
Boyle,37.5778,-84.9281,7.6126008238826,0.595041322,202302,KY,42.1
Middlesex,37.5512,-76.3844,7.5656160690962,0.589285714,202302,NJ,42.1
Worth,31.513,-83.7385,7.5570411755102,0.588235294,202302,IA,42.1
Seward,37.0216,-100.938,7.5170249972789,-0.583333333,202302,KS,42.1
Butler,31.545,-86.7356,7.4812210491944,0.578947368,202302,KY,42.1
Wichita,33.8579,-98.8081,7.4369926489796,-0.573529412,202302,TX,42.1
Cuyahoga,41.3132,-81.8285,7.4198428536443,0.571428571,202302,OH,42.1
DeKalb,33.6823,-84.161,7.4198428536443,0.571428571,202302,GA,42.1
Holmes,30.7041,-85.9546,7.4198428536443,0.571428571,202302,FL,42.1
Pike,31.0217,-90.479,7.4062825592786,0.569767442,202302,KY,42.1
Winnebago,42.2166,-89.0512,7.3809700027211,-0.566666667,202302,IA,42.1
Ottawa,36.6296,-94.9432,7.2902666702948,0.555555556,202302,OK,42.1
Perkins,40.8073,-101.9839,7.2902666702948,0.555555556,202302,NE,42.1
Pulaski,32.2778,-83.4948,7.244915,0.55,202302,KY,42.1
Escambia,30.3511,-87.2749,7.2404296666517,-0.549450549,202302,FL,42.1
Oldham,35.1916,-102.2118,7.2369117659864,0.549019608,202302,KY,42.1
Cheshire,42.7544,-72.019,7.2078090871985,0.545454545,202302,NH,42.1
Berrien,31.0825,-83.2143,7.1390944441421,0.537037037,202302,MI,42.1
Providence,41.7312,-71.5468,7.091853125,-0.53125,202302,RI,42.1
Okfuskee,35.3416,-96.1136,7.0768470612245,-0.529411765,202302,OK,42.1
Bennington,42.7562,-73.0679,7.002222295091,0.52027027,202302,VT,42.1
Richardson,40.0536,-95.4292,6.9728050027211,-0.516666667,202302,NE,42.1
McLean,37.4177,-87.2736,6.908357896169,-0.50877193,202302,IL,42.1
Elmore,32.4995,-86.3641,6.83675,-0.5,202302,ID,42.1
Hubbard,46.9319,-94.846,6.83675,-0.5,202302,MN,42.1
Lincoln,31.3795,-90.2867,6.83675,-0.5,202302,ME,42.1
Giles,35.05,-87.1522,6.83675,0.5,202302,TN,42.1
Oxford,43.8262,-70.9243,6.83675,0.5,202302,ME,42.1
Lackawanna,41.3432,-75.5301,6.7823279972789,-0.493333333,202302,PA,42.1
Rio Arriba,35.9866,-106.0654,6.73470875,-0.4875,202302,NM,42.1
Fannin,33.3796,-96.2475,6.7167014734694,-0.485294118,202302,TX,42.1
Carroll,33.3343,-89.757,6.6960034508093,0.482758621,202302,IL,42.1
Windsor,43.2831,-72.6031,6.673484,-0.48,202302,VT,42.1
Falls Church,38.8842,-77.1718,6.6423857127308,0.476190476,202302,VA,42.1
Marion,28.9782,-81.8932,6.6423857127308,0.476190476,202302,KY,42.1
Jessamine,37.8602,-84.6714,6.6099916648526,0.472222222,202302,KY,42.1
Union,29.9315,-82.4255,6.6099916648526,0.472222222,202302,IA,42.1
Stanly,35.2106,-80.4407,6.5966529387755,-0.470588235,202302,NC,42.1
Delaware,36.1662,-94.8547,6.581646875,-0.46875,202302,PA,42.1
Waller,29.8072,-95.9755,6.5646400027211,0.466666667,202302,TX,42.1
San Diego,32.5626,-117.043,6.5571849343025,0.465753425,202302,CA,42.1
McKinley,35.0684,-108.8336,6.5452035690962,-0.464285714,202302,NM,42.1
Galveston,29.2205,-94.9444,6.510218,-0.46,202302,TX,42.1
Edgar,39.5525,-87.9352,6.4966124972789,-0.458333333,202302,IL,42.1
Davidson,35.6196,-80.0959,6.4840148110859,0.456790123,202302,TN,42.1
Blue Earth,43.8903,-94.1774,6.4656909128015,-0.454545455,202302,MN,42.1
Jefferson,28.883,-81.3087,6.4656909128015,-0.454545455,202302,PA,42.1
Logan,35.1304,-93.7116,6.4656909128015,-0.454545455,202302,OK,42.1
Schuylkill,40.5545,-76.2038,6.4656909128015,-0.454545455,202302,PA,42.1
Kanawha,38.0505,-81.4227,6.4656909128015,0.454545455,202302,WV,42.1
Licking,39.9337,-82.4724,6.4540953125,0.453125,202302,OH,42.1
Dawson,32.5273,-101.716,6.4530051282749,-0.452991453,202302,NE,42.1
Denver,39.6431,-104.8987,6.4248403636772,0.449541284,202302,CO,42.1
Marion,28.9782,-81.8932,6.4226695626146,0.449275362,202302,OH,42.1
Fairfax,38.6929,-77.204,6.4186297576904,0.448780488,202302,VA,42.1
Morrill,41.5825,-102.8225,6.4103089549802,0.447761194,202302,NE,42.1
Houston,31.0507,-85.3154,6.3832333297052,0.444444444,202302,GA,42.1
Madison,30.3979,-83.2844,6.3738824736377,0.443298969,202302,IN,42.1
Codington,44.8858,-97.4442,6.3683639358983,-0.442622951,202302,SD,42.1
Danville,36.5779,-79.4411,6.346952,0.44,202302,VA,42.1
Bell,30.7991,-97.4263,6.2737637950739,0.431034483,202302,KY,42.1
Coshocton,40.1804,-81.8951,6.2661967751591,-0.430107527,202302,OH,42.1
Fauquier,38.4674,-77.7044,6.2381080027211,0.426666667,202302,VA,42.1
Horry,33.6211,-78.9632,6.2183181798392,-0.424242424,202302,SC,42.1
Elko,40.3995,-115.2312,6.2156293439219,-0.423913043,202302,NV,42.1
Hardin,30.1491,-94.3733,6.2074207049537,0.422907489,202302,TN,42.1
Carroll,33.3343,-89.757,6.180260842586,0.41958042,202302,IA,42.1
Allegany,39.4774,-79.0594,6.1784193572087,0.419354839,202302,MD,42.1
Saline,34.4508,-92.6547,6.1510328,0.416,202302,AR,42.1
Marion,28.9782,-81.8932,6.12246125,0.4125,202302,MD,42.1
Cherokee,31.4885,-94.9399,6.1149948182678,0.411585366,202302,IA,42.1
Lehigh,40.4734,-75.5261,6.102053,0.41,202302,PA,42.1
Morrison,45.5572,-94.2242,6.0946318174397,-0.409090909,202302,MN,42.1
Berks,40.1552,-75.8998,6.0914052159716,-0.408695652,202302,PA,42.1
Mesa,38.6784,-108.9719,6.0467532221198,-0.403225806,202302,CO,42.1
McCracken,37.0368,-88.5934,6.02042,-0.4,202302,KY,42.1
Winneshiek,43.1339,-91.9134,6.02042,0.4,202302,IA,42.1
Litchfield,41.5287,-73.3609,5.9987953611569,0.397350993,202302,CT,42.1
Clark,33.8309,-93.1263,5.9447337762941,-0.390728477,202302,NV,42.1
Fond du Lac,43.6042,-88.2729,5.9297166675737,-0.388888889,202302,WI,42.1
Augusta,37.9705,-79.2233,5.9150870951942,0.387096774,202302,VA,42.1
Bergen,40.7898,-74.1343,5.8948307723705,-0.384615385,202302,NJ,42.1
City of Richmond,37.4955,-77.471,5.869422541937,0.38150289,202302,VA,42.1
Cleburne,33.5616,-85.3786,5.8439162131274,-0.378378378,202302,AL,42.1
Stephens,32.6886,-98.659,5.833065571094,0.37704918,202302,OK,42.1
Clay,29.7683,-81.9907,5.8283423510204,0.376470588,202302,MN,42.1
Pontotoc,34.1617,-89.1795,5.7871828536443,-0.371428571,202302,OK,42.1
Lucas,40.9355,-93.4796,5.7847783536293,-0.371134021,202302,IA,42.1
Calvert,38.3293,-76.4651,5.778544441421,0.37037037,202302,MD,42.1
Guilford,35.9345,-79.7019,5.7602708780444,-0.368131868,202302,NC,42.1
Clarke,31.4258,-87.6822,5.7483100027211,0.366666667,202302,IA,42.1
Montgomery,30.1199,-95.4247,5.7369041909813,-0.365269461,202302,PA,42.1
Clay,29.7683,-81.9907,5.7128173947353,0.362318841,202302,KS,42.1
Shasta,40.3691,-122.3375,5.6910236857859,-0.359649123,202302,CA,42.1
Lawrence,31.4036,-90.1864,5.686989440069,0.35915493,202302,OH,42.1
Ventura,34.0324,-119.1343,5.6839175576258,-0.358778626,202302,CA,42.1
Queen Anne's,38.9394,-76.3371,5.6839175576258,0.358778626,202302,MD,42.1
Delaware,36.1662,-94.8547,5.6705642845481,0.357142857,202302,NY,42.1
Saline,34.4508,-92.6547,5.6295014079908,-0.352112676,202302,MO,42.1
Muskingum,39.8,-81.891,5.612255,-0.35,202302,OH,42.1
Wicomico,38.2672,-75.9021,5.5907726311493,0.347368421,202302,MD,42.1
Monmouth,40.1077,-74.0635,5.5793696684012,0.345971564,202302,NJ,42.1
Nelson,37.5473,-78.8508,5.5751490871985,0.345454545,202302,KY,42.1
Pittsburg,34.6695,-96.0258,5.5517861144369,-0.342592593,202302,OK,42.1
Midland,31.8693,-102.0317,5.5380431825603,-0.340909091,202302,TX,42.1
Franklin,29.7255,-85.0063,5.5247910690962,-0.339285714,202302,VT,42.1
Norfolk,36.8294,-76.2701,5.5085940451571,0.337301587,202302,MA,42.1
Chatham,31.9268,-81.0381,5.4979688,-0.336,202302,GA,42.1
Warren,32.3258,-90.8507,5.4941019754028,0.335526316,202302,KY,42.1
St. Lucie,27.2606,-80.4771,5.4927920759582,-0.335365854,202302,FL,42.1
Wood,32.6439,-95.222,5.4761999972789,-0.333333333,202302,WV,42.1
Chautauqua,37.0262,-96.1783,5.4761999972789,0.333333333,202302,KS,42.1
Forsyth,34.2037,-84.1031,5.4761999972789,0.333333333,202302,GA,42.1
Labette,37.0418,-95.0796,5.4761999972789,0.333333333,202302,KS,42.1
Marshall,33.9517,-96.712,5.4761999972789,0.333333333,202302,KS,42.1
Oscoda,44.6001,-84.2931,5.4761999972789,0.333333333,202302,MI,42.1
Washington,30.1669,-96.3977,5.4761999972789,0.333333333,202302,AR,42.1
Rockland,41.0103,-73.925,5.4600988186451,-0.331360947,202302,NY,42.1
Kent,33.2518,-100.5825,5.4452784128015,-0.329545455,202302,MI,42.1
Hunterdon,40.3731,-74.9266,5.4098317070516,-0.325203252,202302,NJ,42.1
Hardin,30.1491,-94.3733,5.4094245379742,0.325153374,202302,KY,42.1
Mercer,37.2698,-81.2223,5.4081725,0.325,202302,KY,42.1
Knox,33.4183,-99.8137,5.4011351721323,-0.324137931,202302,IN,42.1
Cherokee,31.4885,-94.9399,5.3961676489796,-0.323529412,202302,KS,42.1
Columbia,29.9207,-82.6879,5.3754185158982,-0.320987654,202302,PA,42.1
Harrison,30.3598,-89.1646,5.3604085092488,-0.319148936,202302,MO,42.1
Johnson,32.2532,-97.3678,5.3329842131042,-0.315789474,202302,NE,42.1
Pike,31.0217,-90.479,5.3329842131042,-0.315789474,202302,MS,42.1
Essex,37.7681,-76.7117,5.3207085690962,-0.314285714,202302,ME,42.1
Franklin,29.7255,-85.0063,5.3173036485029,0.313868613,202302,WA,42.1
Goshen,41.6423,-104.1974,5.30613125,-0.3125,202302,WY,42.1
Hughes,34.878,-96.271,5.30613125,-0.3125,202302,OK,42.1
Jefferson,28.883,-81.3087,5.3052152624336,-0.312387792,202302,AL,42.1
Scioto,38.5848,-82.8321,5.3006451613781,-0.311827957,202302,OH,42.1
Rogers,36.1503,-95.5205,5.2896729841343,-0.310483871,202302,OK,42.1
Erie,41.3111,-82.6126,5.2885379344124,-0.310344828,202302,NY,42.1
Phillips,34.1335,-90.9751,5.2885379344124,-0.310344828,202302,AR,42.1
Garland,34.4351,-93.242,5.281835718173,-0.30952381,202302,AR,42.1
Broomfield,39.9619,-105.0148,5.2727532714095,0.308411215,202302,CO,42.1
Anderson,31.648,-95.5551,5.2668846178964,-0.307692308,202302,TX,42.1
Monona,41.9186,-95.829,5.2668846178964,-0.307692308,202302,IA,42.1
Roberts,35.7193,-100.7027,5.2668846178964,-0.307692308,202302,SD,42.1
Washington,30.1669,-96.3977,5.2567564524029,-0.306451613,202302,UT,42.1
Payette,43.959,-116.8048,5.2504318785848,-0.305676856,202302,ID,42.1
Wood,32.6439,-95.222,5.2494416702948,-0.305555556,202302,OH,42.1
Grant,31.5,-92.4005,5.2395826079858,-0.304347826,202302,IN,42.1
Prince George's,38.5825,-76.7149,5.2367432,0.304,202302,MD,42.1
Winchester,39.1676,-78.1686,5.2288272724799,0.303030303,202302,VA,42.1
Kit Carson,39.3087,-102.5979,5.20409,0.3,202302,CO,42.1
Lawrence,31.4036,-90.1864,5.20409,0.3,202302,SD,42.1
Mayes,36.1669,-95.3416,5.1934883141267,-0.298701299,202302,OK,42.1
Baltimore,39.207,-76.4456,5.1910192179188,0.298398836,202302,MD,42.1
Butler,31.545,-86.7356,5.1738555531368,0.296296296,202302,OH,42.1
Logan,35.1304,-93.7116,5.1639426212111,0.295081967,202302,KY,42.1
Cottonwood,43.8831,-95.1373,5.1560705877551,-0.294117647,202302,MN,42.1
Douglas,33.6634,-84.8639,5.1516651404606,-0.293577982,202302,GA,42.1
Harrison,30.3598,-89.1646,5.1298781825603,-0.290909091,202302,OH,42.1
Medina,29.1404,-99.1428,5.1273410289203,-0.290598291,202302,OH,42.1
Cass,32.8485,-94.5795,5.1250903254773,-0.290322581,202302,NE,42.1
Washington,30.1669,-96.3977,5.1181605245972,-0.289473684,202302,MD,42.1
Ada,43.4599,-116.244,5.1057884801795,0.287958115,202302,WA,42.1
Philadelphia,39.8893,-75.1782,5.0965116244265,-0.286821705,202302,PA,42.1
Ottawa,36.6296,-94.9432,5.0874714309038,0.285714286,202302,KS,42.1
Whatcom,48.6752,-122.1914,5.0804036376005,0.284848485,202302,WA,42.1
Henderson,32.0797,-95.5938,5.0607648847484,-0.282442748,202302,KY,42.1
Clayton,33.4429,-84.3136,5.051028125,-0.28125,202302,IA,42.1
St. Landry,30.3884,-92.0934,5.051028125,-0.28125,202302,LA,42.1
Trempealeau,44.0218,-91.4282,5.0465526284282,-0.280701754,202302,WI,42.1
Anderson,31.648,-95.5551,5.0332302289511,0.279069767,202302,KY,42.1
Elmore,32.4995,-86.3641,5.0070448278677,-0.275862069,202302,AL,42.1
Volusia,28.7676,-81.3522,5.0052403875458,0.275641026,202302,FL,42.1
Walton,30.2835,-86.0305,5.0000075,-0.275,202302,FL,42.1
Hall,34.1819,-83.9024,4.9814545476809,0.272727273,202302,GA,42.1
Montgomery,30.1199,-95.4247,4.9814545476809,0.272727273,202302,IA,42.1
Montgomery,30.1199,-95.4247,4.9814545476809,0.272727273,202302,AL,42.1
Carver,44.7169,-93.6879,4.973388039929,0.27173913,202302,MN,42.1
Lawrence,31.4036,-90.1864,4.961397295091,-0.27027027,202302,AL,42.1
Monroe,24.5552,-81.7816,4.961397295091,-0.27027027,202302,FL,42.1
Moultrie,39.4796,-88.5242,4.957895239391,-0.26984127,202302,IL,42.1
Kennebec,44.1634,-69.9581,4.9570427622986,0.269736842,202302,ME,42.1
Franklin,29.7255,-85.0063,4.9529115365777,0.269230769,202302,TN,42.1
Grant,31.5,-92.4005,4.9319800027211,0.266666667,202302,WA,42.1
Talladega,33.1717,-86.2713,4.9208734657226,0.265306122,202302,AL,42.1
Jasper,30.3129,-94.0731,4.9119585298751,-0.264214047,202302,IA,42.1
Mower,43.5309,-92.9328,4.9114433929919,-0.264150943,202302,MN,42.1
Clay,29.7683,-81.9907,4.9062398688362,0.263513514,202302,IA,42.1
Christian,36.6543,-87.4606,4.8946745951942,0.262096774,202302,MO,42.1
Graves,36.5603,-88.5692,4.8542342845481,-0.257142857,202302,KY,42.1
Adams,31.4706,-91.4044,4.8433860425249,0.255813953,202302,CO,42.1
Boone,34.7399,-92.34,4.8367415,0.255,202302,KY,42.1
Adams,31.4706,-91.4044,4.8317289480845,-0.254385965,202302,OH,42.1
Woods,36.5858,-98.8487,4.8305152531304,0.254237288,202302,OK,42.1
Boyd,38.3089,-82.7476,4.8290194590182,-0.254054054,202302,KY,42.1
Howard,32.1105,-101.3669,4.8183516504149,0.252747253,202302,MD,42.1
Nantucket,41.2639,-69.9626,4.8165393978149,0.252525253,202302,MA,42.1
Bucks,40.0933,-74.8991,4.8003712393046,0.250544662,202302,PA,42.1
Dundy,40.0642,-101.9371,4.795925,-0.25,202302,NE,42.1
Jasper,30.3129,-94.0731,4.795925,-0.25,202302,TX,42.1
Rock,42.5083,-89.0318,4.795925,-0.25,202302,MN,42.1
Terrebonne,29.3695,-90.697,4.795925,-0.25,202302,LA,42.1
Christian,36.6543,-87.4606,4.795925,0.25,202302,KY,42.1
Deschutes,43.7091,-121.5194,4.795925,0.25,202302,OR,42.1
Outagamie,44.2425,-88.3564,4.795925,0.25,202302,WI,42.1
St. Tammany,30.2726,-89.729,4.795925,0.25,202302,LA,42.1
Lucas,40.9355,-93.4796,4.7830896230009,-0.248427673,202302,OH,42.1
Holt,39.9809,-95.1234,4.774592337908,-0.24738676,202302,NE,42.1
Walworth,42.5136,-88.4843,4.770729627614,-0.24691358,202302,WI,42.1
Orange,28.3774,-81.1888,4.7671809839609,-0.246478873,202302,CA,42.1
Chippewa,44.9226,-95.4845,4.7663478293996,0.246376812,202302,MN,42.1
Albemarle,37.7511,-78.6313,4.7645276910518,0.246153846,202302,VA,42.1
Jackson,28.7671,-96.6492,4.7461487802887,-0.243902439,202302,GA,42.1
St. Mary's,38.0828,-76.3477,4.7413043760266,0.243309002,202302,MD,42.1
Washington,30.1669,-96.3977,4.7376157154519,0.242857143,202302,PA,42.1
Wasco,44.8892,-120.7914,4.7340818147186,0.242424242,202302,OR,42.1
Waseca,43.8937,-93.4995,4.725551721323,0.24137931,202302,MN,42.1
Sumner,36.3047,-86.6211,4.7177052226694,-0.240418118,202302,KS,42.1
Comal,29.6643,-98.3118,4.7082822111932,-0.239263804,202302,TX,42.1
Brazoria,28.9541,-95.3597,4.6987428563654,-0.238095238,202302,TX,42.1
Henrico,37.4638,-77.398,4.6912673062271,0.237179487,202302,VA,42.1
Saunders,41.0541,-96.3904,4.6846072697588,-0.236363636,202302,NE,42.1
Wright,37.0687,-92.4082,4.6804066070081,-0.235849057,202302,MN,42.1
Craighead,35.7456,-90.5507,4.6758764734694,0.235294118,202302,AR,42.1
Bernalillo,34.9073,-106.6892,4.6683734375,-0.234375,202302,NM,42.1
Worcester,38.0452,-75.4108,4.6572281574797,0.233009709,202302,MD,42.1
Carter,34.1364,-97.4273,4.6480391306714,-0.231884058,202302,OK,42.1
Potter,35.1751,-101.7976,4.6389384634223,-0.230769231,202302,PA,42.1
Cherry,42.2403,-100.2595,4.6389384634223,0.230769231,202302,NE,42.1
Kent,33.2518,-100.5825,4.6274165124134,0.229357798,202302,RI,42.1
Shelby,31.7131,-93.9698,4.6140693046676,-0.227722772,202302,OH,42.1
Pima,31.4887,-111.5421,4.6033943368502,-0.226415094,202302,AZ,42.1
Ray,39.2048,-94.0259,4.5947169040529,0.225352113,202302,MO,42.1
Butler,31.545,-86.7356,4.5876775516868,0.224489796,202302,PA,42.1
Jefferson,28.883,-81.3087,4.5734654014895,0.222748815,202302,CO,42.1
Indian River,27.5885,-80.3923,4.5691666648526,-0.222222222,202302,FL,42.1
Madison,30.3979,-83.2844,4.5691666648526,-0.222222222,202302,IL,42.1
Lincoln,31.3795,-90.2867,4.5691666648526,0.222222222,202302,NE,42.1
Richland,32.3331,-91.7976,4.5518071788302,0.220095694,202302,OH,42.1
Howard,32.1105,-101.3669,4.5470439014435,-0.219512195,202302,IA,42.1
Miami-Dade,25.2846,-80.6246,4.5452973715718,0.219298246,202302,FL,42.1
Cass,32.8485,-94.5795,4.5391324474118,0.218543046,202302,IA,42.1
Franklin,29.7255,-85.0063,4.5361836348794,0.218181818,202302,MA,42.1
Harlan,36.7521,-83.4629,4.5297304319432,-0.217391304,202302,NE,42.1
Owen,38.4986,-84.8086,4.5297304319432,-0.217391304,202302,KY,42.1
McLennan,31.2533,-97.41,4.5133492276295,0.215384615,202302,TX,42.1
Rock Island,41.3277,-90.6384,4.5124770851474,-0.215277778,202302,IL,42.1
Berkeley,32.9185,-80.022,4.5043785690962,-0.214285714,202302,SC,42.1
Kenosha,42.5001,-88.08,4.5043785690962,-0.214285714,202302,WI,42.1
Chesterfield,34.4606,-80.2544,4.5043785690962,0.214285714,202302,VA,42.1
Keith,41.1002,-101.9099,4.4919723367781,0.212765957,202302,NE,42.1
Angelina,31.1569,-94.3871,4.4867090899196,-0.212121212,202302,TX,42.1
Martin,27.0595,-80.1364,4.4736894754028,-0.210526316,202302,MN,42.1
Washington,30.1669,-96.3977,4.4736894754028,-0.210526316,202302,ID,42.1
Franklin,29.7255,-85.0063,4.4578742326781,-0.208588957,202302,IA,42.1
Cedar,37.6613,-94.0129,4.449369812861,0.20754717,202302,NE,42.1
Fall River,43.1551,-103.2162,4.449369812861,0.20754717,202302,SD,42.1
Okaloosa,30.3935,-86.4958,4.4263267679897,-0.204724409,202302,FL,42.1
Roanoke,37.1549,-80.1215,4.4222528159816,0.204225352,202302,VA,42.1
Highland,38.2946,-79.4353,4.4154322074023,-0.203389831,202302,OH,42.1
Eau Claire,44.5963,-90.9906,4.4077926402404,-0.202453988,202302,WI,42.1
Dodge,31.938,-83.1837,4.38776,-0.2,202302,MN,42.1
Jefferson,28.883,-81.3087,4.38776,-0.2,202302,IA,42.1
O'Brien,42.9444,-95.5515,4.38776,-0.2,202302,IA,42.1
Sharp,35.9517,-91.5444,4.38776,-0.2,202302,AR,42.1
Washington,30.1669,-96.3977,4.38776,-0.2,202302,OR,42.1
Bannock,42.3195,-111.9781,4.38776,0.2,202302,ID,42.1
Clayton,33.4429,-84.3136,4.38776,0.2,202302,GA,42.1
Jefferson,28.883,-81.3087,4.38776,0.2,202302,KS,42.1
Pierce,31.2931,-82.2617,4.38776,0.2,202302,NE,42.1
Ashland,40.6361,-82.2356,4.3831085434967,-0.199430199,202302,OH,42.1
Sandoval,35.2339,-106.62,4.3776192548612,-0.198757764,202302,NM,42.1
Wapello,40.9261,-92.2268,4.3738847002139,-0.198300283,202302,IA,42.1
Lee,26.3398,-81.7787,4.3730513497334,0.198198198,202302,IL,42.1
Scotts Bluff,41.7469,-103.4164,4.372761813809,0.19816273,202302,NE,42.1
Columbiana,40.6171,-80.6621,4.3698186829334,0.197802198,202302,OH,42.1
Cook,31.0403,-83.3915,4.3686165798653,0.197654941,202302,IL,42.1
Steele,43.8826,-93.3195,4.3579397263256,-0.196347032,202302,MN,42.1
Hamilton,30.3387,-82.7765,4.3538471783201,0.195845697,202302,OH,42.1
Steuben,41.5328,-85.0811,4.3522673920142,-0.195652174,202302,NY,42.1
Los Angeles,33.332,-118.3437,4.3424083297052,0.194444444,202302,CA,42.1
Fayette,29.6882,-96.9106,4.3333379972789,-0.193333333,202302,KY,42.1
Houston,31.0507,-85.3154,4.3304736830648,-0.192982456,202302,AL,42.1
Hays,29.8754,-97.9404,4.3249653821036,0.192307692,202302,TX,42.1
Phelps,37.6158,-91.9064,4.3249653821036,0.192307692,202302,MO,42.1
Valdez-Cordova,60.5362,-145.7534,4.3249653821036,0.192307692,202302,AK,42.1
Loudoun,38.8976,-77.5092,4.3128311591048,0.190821256,202302,VA,42.1
Weld,40.0597,-105.0686,4.310014281827,0.19047619,202302,CO,42.1
Lincoln,31.3795,-90.2867,4.3018305245972,-0.189473684,202302,MS,42.1
Chester,34.5705,-80.9133,4.2995081065637,0.189189189,202302,SC,42.1
Milwaukee,42.8892,-87.9027,4.2938690132099,0.188498403,202302,WI,42.1
Kosciusko,41.0743,-85.8792,4.2895548887525,-0.187969925,202302,IN,42.1
Bronx,40.8085,-73.9198,4.28571875,-0.1875,202302,NY,42.1
Accomack,37.5423,-75.7412,4.28571875,0.1875,202302,VA,42.1
Suffolk,40.6443,-73.1613,4.2789160027211,0.186666667,202302,NY,42.1
Polk,26.4722,-81.8122,4.2738534914096,0.186046512,202302,MN,42.1
Clay,29.7683,-81.9907,4.269939172733,0.18556701,202302,NE,42.1
Penobscot,44.6991,-69.1025,4.2688245067712,-0.185430464,202302,ME,42.1
Winona,43.9148,-91.394,4.264281516035,0.18487395,202302,MN,42.1
Hamilton,30.3387,-82.7765,4.2571472,0.184,202302,IA,42.1
Manatee,27.3648,-82.1849,4.2464721178964,-0.182692308,202302,FL,42.1
Mecklenburg,35.0552,-80.8195,4.2411870342104,-0.182044888,202302,NC,42.1
Union,29.9315,-82.4255,4.2393363651206,-0.181818182,202302,MS,42.1
Los Alamos,35.8275,-106.2039,4.2393363651206,0.181818182,202302,NM,42.1
Lamoille,44.442,-72.7188,4.2171835852574,-0.179104478,202302,VT,42.1
Champaign,39.9012,-88.0753,4.2171835852574,0.179104478,202302,OH,42.1
Miami,38.4102,-94.8718,4.2152024421437,-0.178861789,202302,KS,42.1
Garvin,34.4719,-97.3879,4.2099455463326,0.178217822,202302,OK,42.1
Baxter,36.0068,-92.3917,4.205313755219,-0.17765043,202302,AR,42.1
Forsyth,34.2037,-84.1031,4.1989489771484,-0.176870748,202302,NC,42.1
Pennington,43.7994,-102.5353,4.1984660853002,-0.176811594,202302,SD,42.1
Fulton,33.5242,-84.679,4.1956823510204,-0.176470588,202302,GA,42.1
Butler,31.545,-86.7356,4.1891932458908,-0.175675676,202302,IA,42.1
Jones,31.4555,-89.302,4.1872578907268,-0.175438596,202302,IA,42.1
Tulare,35.805,-119.1315,4.181401490327,-0.17472119,202302,CA,42.1
Greene,31.0867,-88.7977,4.1812186732235,-0.174698795,202302,IA,42.1
Marshall,33.9517,-96.712,4.1748043439219,-0.173913043,202302,KY,42.1
Middlesex,37.5512,-76.3844,4.1748043439219,0.173913043,202302,MA,42.1
Thurston,42.0574,-96.4929,4.1625655163969,-0.172413793,202302,NE,42.1
Canyon,43.3784,-116.5489,4.1595387116963,0.172043011,202302,ID,42.1
Lake,28.5494,-81.7729,4.1568787901876,-0.171717172,202302,IN,42.1
El Paso,31.4407,-106.0765,4.1545228536443,-0.171428571,202302,CO,42.1
San Mateo,37.2065,-122.3649,4.1545228536443,-0.171428571,202302,CA,42.1
Delaware,36.1662,-94.8547,4.1348126800805,0.169014085,202302,OH,42.1
Cass,32.8485,-94.5795,4.1291207946656,0.168316832,202302,ND,42.1
Cherokee,31.4885,-94.9399,4.1210705155541,-0.167330677,202302,OK,42.1
Story,41.8765,-93.6812,4.120200332264,-0.16722408,202302,IA,42.1
Benton,34.6244,-89.1862,4.1156500027211,-0.166666667,202302,IA,42.1
Powhatan,37.5421,-77.9189,4.1156500027211,-0.166666667,202302,VA,42.1
Tompkins,42.3621,-76.592,4.1156500027211,-0.166666667,202302,NY,42.1
DuPage,41.7074,-87.9756,4.1156500027211,0.166666667,202302,IL,42.1
Graham,32.797,-109.7522,4.1156500027211,0.166666667,202302,KS,42.1
Major,36.2341,-98.3374,4.1156500027211,0.166666667,202302,OK,42.1
Hancock,30.2391,-89.4595,4.1078754309038,-0.165714286,202302,MS,42.1
Nassau,30.4193,-81.9724,4.1066397358562,-0.165562914,202302,FL,42.1
San Juan,36.142,-108.7064,4.1064570983453,-0.165540541,202302,NM,42.1
Franklin,29.7255,-85.0063,4.1049370102523,0.165354331,202302,VA,42.1
Becker,46.7565,-95.5212,4.0970123316746,0.164383562,202302,MN,42.1
Dallas,32.1899,-87.0633,4.0936167988763,-0.163967611,202302,TX,42.1
Reno,37.7783,-97.9886,4.0928656691534,-0.163875598,202302,KS,42.1
Kalamazoo,42.1209,-85.5024,4.084627691285,-0.16286645,202302,MI,42.1
Cabarrus,35.2477,-80.5319,4.0840093049834,0.162790698,202302,NC,42.1
Iredell,35.5432,-80.8473,4.0840093049834,0.162790698,202302,NC,42.1
Cochise,31.3373,-109.9413,4.08163625,0.1625,202302,AZ,42.1
Seminole,28.6133,-81.2581,4.0763277458063,-0.161849711,202302,FL,42.1
Plymouth,41.6618,-70.8164,4.0760703651206,-0.161818182,202302,IA,42.1
Montgomery,30.1199,-95.4247,4.0727980328459,0.161417323,202302,MD,42.1
Androscoggin,43.9684,-70.1846,4.0652592579491,-0.160493827,202302,ME,42.1
Larimer,40.2993,-105.1055,4.0476224972789,-0.158333333,202302,CO,42.1
Henry,31.3534,-85.3323,4.0440421065521,-0.157894737,202302,IA,42.1
Rankin,32.0627,-89.9929,4.0440421065521,-0.157894737,202302,MS,42.1
Rhea,35.4484,-85.179,4.0440421065521,0.157894737,202302,TN,42.1
Fayette,29.6882,-96.9106,4.0392146084843,-0.157303371,202302,OH,42.1
Greenville,34.6578,-82.2441,4.0331924277881,-0.156565657,202302,SC,42.1
Saline,34.4508,-92.6547,4.0282752313799,0.155963303,202302,IL,42.1
Audubon,41.5524,-94.974,4.0198366159241,-0.154929577,202302,IA,42.1
Portage,41.0328,-81.2484,4.0174659772775,0.154639175,202302,OH,42.1
Hancock,30.2391,-89.4595,4.0160975632985,-0.154471545,202302,OH,42.1
Woodbury,42.2408,-95.9486,4.0153989480845,-0.154385965,202302,IA,42.1
Arapahoe,39.5805,-104.9011,4.0145805690962,0.154285714,202302,CO,42.1
Richmond,33.2941,-82.203,4.0109923089482,-0.153846154,202302,NC,42.1
Bay,29.9395,-85.4096,4.0109923089482,0.153846154,202302,FL,42.1
Grundy,35.2402,-85.8228,4.0109923089482,0.153846154,202302,MO,42.1
Knox,33.4183,-99.8137,4.0109923089482,0.153846154,202302,TN,42.1
Allegheny,40.2373,-79.9506,4.0088491488194,-0.153583618,202302,PA,42.1
Douglas,33.6634,-84.8639,4.0003491535109,0.152542373,202302,CO,42.1
Richmond,33.2941,-82.203,3.9860738112083,0.150793651,202302,NY,42.1
Arlington,38.8415,-77.0905,3.979595,0.15,202302,VA,42.1
Neosho,37.4527,-95.4671,3.979595,0.15,202302,KS,42.1
El Dorado,38.55,-120.7304,3.9768183677912,0.149659864,202302,CA,42.1
Pottawatomie,34.9849,-96.8763,3.970910636561,0.14893617,202302,KS,42.1
Harvey,37.9167,-97.4225,3.9701027882297,-0.148837209,202302,KS,42.1
Adams,31.4706,-91.4044,3.9693208257227,-0.148741419,202302,NE,42.1
Union,29.9315,-82.4255,3.96683984375,0.1484375,202302,NC,42.1
Noble,36.2753,-97.4526,3.9644777765684,-0.148148148,202302,OH,42.1
Clark,33.8309,-93.1263,3.9644777765684,0.148148148,202302,KY,42.1
Ohio,37.3418,-86.77,3.9595213146872,0.147540984,202302,KY,42.1
Bristol,36.595,-82.1819,3.9566246738051,0.147186147,202302,VA,42.1
Daviess,37.6206,-87.0591,3.9536797633301,0.146825397,202302,KY,42.1
Lane,38.4742,-100.4647,3.9439300974044,-0.145631068,202302,OR,42.1
Koochiching,47.844,-94.2043,3.9424890871985,-0.145454545,202302,MN,42.1
Creek,35.7551,-96.5658,3.9416261610821,0.145348837,202302,OK,42.1
Campbell,36.3028,-84.203,3.940095158657,0.14516129,202302,KY,42.1
Greenup,38.4322,-82.8094,3.9366302622986,-0.144736842,202302,KY,42.1
Kenton,38.8394,-84.5069,3.9301204550402,0.143939394,202302,KY,42.1
Montgomery,30.1199,-95.4247,3.928574375,-0.14375,202302,IL,42.1
Union,29.9315,-82.4255,3.928574375,0.14375,202302,NJ,42.1
Lyon,37.0619,-88.1498,3.9247668649406,-0.143283582,202302,MN,42.1
Dauphin,40.2041,-76.7331,3.9212857154519,-0.142857143,202302,PA,42.1
Goodhue,44.211,-92.6613,3.9212857154519,-0.142857143,202302,MN,42.1
Neshoba,32.6439,-89.112,3.9212857154519,-0.142857143,202302,MS,42.1
Sarpy,41.0765,-96.1438,3.9186191326904,-0.142530488,202302,NE,42.1
Palo Alto,42.9417,-94.6746,3.9140870399597,-0.141975309,202302,IA,42.1
New Castle,39.3819,-75.6834,3.904860559931,0.14084507,202302,DE,42.1
Mobile,30.2521,-88.1096,3.897962,-0.14,202302,AL,42.1
Howard,32.1105,-101.3669,3.897962,0.14,202302,NE,42.1
Fayette,29.6882,-96.9106,3.8962064496818,0.139784946,202302,IA,42.1
Shelby,31.7131,-93.9698,3.8941651185572,0.139534884,202302,IN,42.1
Rutland,43.3583,-73.0129,3.8912293836314,0.139175258,202302,VT,42.1
Humboldt,40.0231,-124.0139,3.8810724098522,-0.137931034,202302,NV,42.1
Titus,33.1568,-94.9683,3.8810724098522,0.137931034,202302,TX,42.1
Ida,42.3327,-95.6045,3.87755375,-0.1375,202302,IA,42.1
Allen,30.4607,-92.8693,3.87755375,0.1375,202302,IN,42.1
Harris,29.5564,-95.144,3.8774338392863,-0.137485311,202302,TX,42.1
Cambria,40.2799,-78.8032,3.8755529414966,0.137254902,202302,PA,42.1
Hamilton,30.3387,-82.7765,3.8714487199721,0.136752137,202302,NE,42.1
Poweshiek,41.5656,-92.6987,3.8682772697588,-0.136363636,202302,IA,42.1
Erie,41.3111,-82.6126,3.8682772697588,0.136363636,202302,PA,42.1
Clermont,38.7926,-84.1382,3.8662158324263,-0.136111111,202302,OH,42.1
Kitsap,47.4179,-122.631,3.8605468777211,-0.135416667,202302,WA,42.1
Adair,35.6826,-94.7611,3.8540057723705,-0.134615385,202302,IA,42.1
York,34.8507,-80.9342,3.8540057723705,0.134615385,202302,SC,42.1
Marquette,43.6759,-89.5803,3.8435399972789,-0.133333333,202302,MI,42.1
Nolan,32.082,-100.3111,3.8435399972789,-0.133333333,202302,TX,42.1
Strafford,43.1174,-70.9197,3.8435399972789,-0.133333333,202302,ME,42.1
Barry,36.5276,-93.9359,3.8435399972789,0.133333333,202302,MO,42.1
Monroe,24.5552,-81.7816,3.8435399972789,0.133333333,202302,IN,42.1
Collin,33.0139,-96.4377,3.8419648314008,-0.133140376,202302,TX,42.1
Valley,41.4293,-99.1205,3.8355367632653,-0.132352941,202302,NE,42.1
Beaver,36.5996,-100.7103,3.8345446284365,-0.132231405,202302,PA,42.1
Pottawattamie,41.1916,-95.4314,3.8243483646944,0.130982368,202302,IA,42.1
Wayne,31.5168,-82.0397,3.8198782640639,-0.130434783,202302,OH,42.1
Williams,41.4425,-84.7349,3.8161124684675,-0.129973475,202302,OH,42.1
Martin,27.0595,-80.1364,3.8084290317314,-0.129032258,202302,FL,42.1
Seneca,41.0182,-82.9899,3.8026030967672,0.128318584,202302,OH,42.1
Gray,35.2273,-100.7592,3.8016769214024,0.128205128,202302,KS,42.1
Mahaska,41.2117,-92.4362,3.7972234004342,0.127659574,202302,IA,42.1
Saline,34.4508,-92.6547,3.7884291099974,-0.126582278,202302,NE,42.1
Travis,30.1204,-97.7433,3.7771717070516,-0.125203252,202302,TX,42.1
Clay,29.7683,-81.9907,3.7755125,-0.125,202302,FL,42.1
Forrest,31.0591,-89.0796,3.7755125,-0.125,202302,MS,42.1
Douglas,33.6634,-84.8639,3.7755125,0.125,202302,WI,42.1
Granville,35.6555,-78.4611,3.7755125,0.125,202302,NC,42.1
Gregory,43.0351,-98.8308,3.7755125,0.125,202302,SD,42.1
Pulaski,32.2778,-83.4948,3.7755125,0.125,202302,AR,42.1
Dodge,31.938,-83.1837,3.7688431410431,0.124183007,202302,WI,42.1
Auglaize,40.391,-84.3729,3.7608934092977,0.123209169,202302,OH,42.1
Dane,42.8669,-89.5377,3.7576105300394,0.122807018,202302,WI,42.1
Chickasaw,33.8066,-89.0256,3.754687758434,0.12244898,202302,IA,42.1
Blair,40.2711,-78.4588,3.7539848085077,-0.122362869,202302,PA,42.1
Jefferson,28.883,-81.3087,3.7472549268446,0.121538462,202302,KY,42.1
Madison,30.3979,-83.2844,3.7455003642857,-0.121323529,202302,MS,42.1
St. Croix,44.9408,-92.2848,3.7418725284593,0.120879121,202302,WI,42.1
Livingston,30.2716,-90.7043,3.7154882367347,-0.117647059,202302,NY,42.1
Marion,28.9782,-81.8932,3.7144981427309,0.117525773,202302,FL,42.1
Ada,43.4599,-116.244,3.7138768421312,-0.117449664,202302,ID,42.1
Sangamon,39.5394,-89.7621,3.7121765491907,-0.117241379,202302,IL,42.1
Dutchess,41.5097,-73.9634,3.7074850027211,-0.116666667,202302,NY,42.1
Baker,30.2041,-82.4287,3.7074850027211,0.116666667,202302,FL,42.1
Jasper,30.3129,-94.0731,3.7056212315348,-0.116438356,202302,MO,42.1
Lincoln,31.3795,-90.2867,3.704320932131,-0.11627907,202302,OK,42.1
Kane,37.0475,-112.5263,3.704320932131,0.11627907,202302,IL,42.1
Pottawatomie,34.9849,-96.8763,3.6998142435899,-0.115727003,202302,OK,42.1
Peoria,40.5571,-89.7685,3.6988341006488,-0.115606936,202302,IL,42.1
Maricopa,32.9306,-112.7468,3.6985969812737,-0.115577889,202302,AZ,42.1
Sherburne,45.3136,-93.5814,3.6979036640414,-0.115492958,202302,MN,42.1
Fayette,29.6882,-96.9106,3.6880485690962,0.114285714,202302,TN,42.1
Faribault,43.5201,-94.0984,3.6827477302412,-0.113636364,202302,MN,42.1
McLean,37.4177,-87.2736,3.6827477302412,0.113636364,202302,KY,42.1
Tate,34.6323,-89.8855,3.6814319124041,0.113475177,202302,MS,42.1
Carroll,33.3343,-89.757,3.6749084479448,-0.112676056,202302,MD,42.1
Passaic,40.8344,-74.1377,3.6723247226783,0.112359551,202302,NJ,42.1
Franklin,29.7255,-85.0063,3.6621333324263,-0.111111111,202302,MO,42.1
Madison,30.3979,-83.2844,3.6621333324263,-0.111111111,202302,OH,42.1
Winston,32.9789,-89.1221,3.6621333324263,-0.111111111,202302,AL,42.1
Gwinnett,33.8178,-84.0229,3.6621333324263,0.111111111,202302,GA,42.1
Sunflower,33.349,-90.6051,3.6621333324263,0.111111111,202302,MS,42.1
Hudson,40.6664,-74.1192,3.6587863467731,0.110701107,202302,NJ,42.1
Marion,28.9782,-81.8932,3.6565687128584,-0.110429448,202302,IA,42.1
Woodward,36.214,-99.1145,3.6534535894151,0.110047847,202302,OK,42.1
McClain,34.8904,-97.0997,3.652165934963,-0.10989011,202302,OK,42.1
Finney,37.906,-100.7523,3.6510719548034,-0.109756098,202302,KS,42.1
Taylor,29.6739,-83.3723,3.6510719548034,-0.109756098,202302,WI,42.1
Nicollet,44.2172,-94.0942,3.6479609375,-0.109375,202302,MN,42.1
Johnson,32.2532,-97.3678,3.6342246178964,-0.107692308,202302,MO,42.1
Dubuque,42.2775,-90.7507,3.6336008274902,-0.107615894,202302,IA,42.1
Erie,41.3111,-82.6126,3.6273056742053,-0.106844741,202302,OH,42.1
El Paso,31.4407,-106.0765,3.6272474372231,-0.106837607,202302,TX,42.1
Brown,31.5176,-99.1277,3.622450625,0.10625,202302,WI,42.1
Delaware,36.1662,-94.8547,3.6170633531246,-0.105590062,202302,OK,42.1
Boone,34.7399,-92.34,3.6054437527211,-0.104166667,202302,NE,42.1
Seward,37.0216,-100.938,3.6015581688605,-0.103690685,202302,NE,42.1
Pierce,31.2931,-82.2617,3.5995793114708,-0.103448276,202302,WI,42.1
Simpson,31.8277,-90.0088,3.5995793114708,0.103448276,202302,KY,42.1
Centre,40.71,-77.996,3.5931574147901,-0.102661597,202302,PA,42.1
Hillsborough,27.6784,-82.4787,3.5913404846192,-0.102439024,202302,FL,42.1
Guthrie,41.5033,-94.3186,3.5852660996195,0.101694915,202302,IA,42.1
Norfolk,36.8294,-76.2701,3.5852660996195,0.101694915,202302,VA,42.1
Jefferson,28.883,-81.3087,3.5832608666075,-0.101449275,202302,TX,42.1
Custer,35.5115,-98.9795,3.5806022512268,0.101123596,202302,NE,42.1
Lyon,37.0619,-88.1498,3.5799630648368,0.101045296,202302,KS,42.1
Lebanon,40.2236,-76.538,3.57143,-0.1,202302,PA,42.1
Sarasota,26.92,-82.3048,3.5633475248333,0.099009901,202302,FL,42.1
Madison,30.3979,-83.2844,3.5609193104318,0.098712446,202302,IA,42.1
Madison,30.3979,-83.2844,3.5585744106701,0.098425197,202302,NE,42.1
Washington,30.1669,-96.3977,3.5554235319728,0.098039216,202302,MN,42.1
Ramsey,44.914,-93.1727,3.5544735932417,0.097922849,202302,MN,42.1
Buchanan,37.1134,-82.1501,3.5504984579801,-0.097435897,202302,IA,42.1
Polk,26.4722,-81.8122,3.5466927275201,-0.096969697,202302,FL,42.1
Merrick,40.9856,-98.2217,3.5450967778802,-0.096774194,202302,NE,42.1
Jefferson,28.883,-81.3087,3.5436005674397,-0.096590909,202302,OH,42.1
Allamakee,43.0036,-91.5478,3.5427868415324,-0.096491228,202302,IA,42.1
Harrison,30.3598,-89.1646,3.5419240950086,-0.096385542,202302,IA,42.1
Wyoming,37.4909,-81.3226,3.5419240950086,0.096385542,202302,PA,42.1
Crawford,32.7222,-84.0451,3.5400326910518,-0.096153846,202302,IA,42.1
Sheboygan,43.5672,-87.9816,3.5369745147893,-0.095779221,202302,WI,42.1
Saint Johns,29.7051,-81.4909,3.5359373920142,-0.095652174,202302,FL,42.1
Essex,37.7681,-76.7117,3.5330940574811,-0.095303867,202302,MA,42.1
Steele,43.8826,-93.3195,3.5303854745411,0.094972067,202302,NE,42.1
Custer,35.5115,-98.9795,3.520409375,-0.09375,202302,OK,42.1
Worcester,38.0452,-75.4108,3.520409375,-0.09375,202302,RI,42.1
Furnas,40.1063,-99.9715,3.520409375,0.09375,202302,NE,42.1
Barton,37.3995,-94.1027,3.5133012386681,0.092879257,202302,KS,42.1
Crawford,32.7222,-84.0451,3.5109611144369,0.092592593,202302,KS,42.1
Halifax,36.0594,-77.4061,3.5077446844406,-0.092198582,202302,VA,42.1
Shelby,31.7131,-93.9698,3.5054508706103,0.091917591,202302,TN,42.1
Garfield,36.1962,-97.8805,3.4972181825603,-0.090909091,202302,NE,42.1
Monroe,24.5552,-81.7816,3.4972181825603,-0.090909091,202302,PA,42.1
Chittenden,44.3113,-73.228,3.4922541777899,-0.090301003,202302,VT,42.1
Hancock,30.2391,-89.4595,3.4911352424222,-0.090163934,202302,IA,42.1
Worcester,38.0452,-75.4108,3.4909467599885,0.090140845,202302,MA,42.1
Linn,38.0718,-94.7008,3.4892621814005,0.089934485,202302,IA,42.1
Santa Barbara,34.2628,-119.8486,3.488879771612,-0.08988764,202302,CA,42.1
Kimball,41.2139,-103.9075,3.4861417926287,0.089552239,202302,NE,42.1
Grand Isle,44.6031,-72.9527,3.4807266675737,-0.088888889,202302,VT,42.1
Jefferson,28.883,-81.3087,3.4753911755102,0.088235294,202302,NE,42.1
Teton,43.4528,-110.7393,3.4753911755102,0.088235294,202302,ID,42.1
Hennepin,44.8261,-93.3538,3.4704407218178,-0.087628866,202302,MN,42.1
Lee,26.3398,-81.7787,3.4655578520861,-0.087030717,202302,FL,42.1
Laramie,41.0428,-104.2765,3.4649521760426,-0.086956522,202302,WY,42.1
Bonneville,43.3861,-111.2527,3.4649521760426,0.086956522,202302,ID,42.1
Multnomah,45.4446,-122.5372,3.4519670759582,-0.085365854,202302,OR,42.1
Shawnee,38.9045,-95.7015,3.4498489363439,-0.085106383,202302,KS,42.1
Rosebud,45.2862,-106.5095,3.4498489363439,0.085106383,202302,MT,42.1
Yellowstone,45.6745,-108.769,3.4469050870979,-0.084745763,202302,MT,42.1
Oklahoma,34.506,-97.1131,3.4382409604796,-0.083684412,202302,OK,42.1
Humboldt,40.0231,-124.0139,3.4353749972789,-0.083333333,202302,IA,42.1
Plumas,39.5645,-121.5751,3.4353749972789,-0.083333333,202302,CA,42.1
Santa Rosa,30.3571,-87.1639,3.4353749972789,-0.083333333,202302,FL,42.1
Island,47.9508,-122.3916,3.4353749972789,0.083333333,202302,WA,42.1
Kearny,37.9382,-101.2713,3.4353749972789,0.083333333,202302,KS,42.1
Sequoyah,35.3898,-94.4462,3.4304809356629,-0.082733813,202302,OK,42.1
Lowndes,30.6906,-83.1753,3.4283618572691,-0.082474227,202302,MS,42.1
Knox,33.4183,-99.8137,3.4260561658373,-0.082191781,202302,NE,42.1
Pike,31.0217,-90.479,3.4242229498829,0.081967213,202302,OH,42.1
White,34.5839,-83.75,3.418368125,-0.08125,202302,AR,42.1
Sedgwick,37.5054,-97.3408,3.4177836000668,-0.081178396,202302,KS,42.1
Muskegon,43.1443,-86.1388,3.4134306427913,0.080645161,202302,MI,42.1
Hardin,30.1491,-94.3733,3.411917240441,-0.08045977,202302,TX,42.1
Douglas,33.6634,-84.8639,3.4096404062747,-0.080180859,202302,NE,42.1
Muskogee,35.3631,-95.2607,3.4090077505247,-0.080103359,202302,OK,42.1
Plymouth,41.6618,-70.8164,3.408164,-0.08,202302,MA,42.1
St. Lawrence,44.1408,-74.9125,3.3995710491944,-0.078947368,202302,NY,42.1
Lyon,37.0619,-88.1498,3.393966960071,-0.07826087,202302,NV,42.1
Albany,41.0528,-105.4462,3.392235605774,-0.07804878,202302,NY,42.1
Bexar,29.1733,-98.4723,3.3912012993374,-0.077922078,202302,TX,42.1
Caldwell,29.6826,-97.6499,3.3912012993374,-0.077922078,202302,KY,42.1
St. Louis,38.4566,-90.3282,3.3912012993374,-0.077922078,202302,MN,42.1
Noble,36.2753,-97.4526,3.3905664639863,-0.077844311,202302,IN,42.1
Clark,33.8309,-93.1263,3.3891427191599,-0.077669903,202302,WA,42.1
Lake,28.5494,-81.7729,3.3876804435575,-0.077490775,202302,CA,42.1
Cherokee,31.4885,-94.9399,3.3830461544741,0.076923077,202302,TX,42.1
Greene,31.0867,-88.7977,3.3830461544741,0.076923077,202302,OH,42.1
Keokuk,41.1826,-92.3097,3.3830461544741,0.076923077,202302,IA,42.1
Tulsa,35.9183,-95.7988,3.3753062603552,-0.075974944,202302,OK,42.1
Jackson,28.7671,-96.6492,3.3658067261048,-0.074811256,202302,MO,42.1
Murray,34.402,-97.051,3.3622876009445,-0.074380165,202302,OK,42.1
Arkansas,34.0893,-91.2437,3.3566063196563,-0.073684211,202302,AR,42.1
Chase,38.1448,-96.5541,3.3524146365356,0.073170732,202302,NE,42.1
Monterey,35.8093,-120.9728,3.3524146365356,0.073170732,202302,CA,42.1
Oklahoma,34.506,-97.1131,3.3524146365356,0.073170732,202302,KS,42.1
Stark,40.6514,-81.3076,3.3524146365356,0.073170732,202302,OH,42.1
Allen,30.4607,-92.8693,3.3381928536443,-0.071428571,202302,KS,42.1
Matanuska-Susitna Borough,61.5214,-149.9544,3.3381928536443,-0.071428571,202302,AK,42.1
Marshall,33.9517,-96.712,3.3381928536443,0.071428571,202302,IA,42.1
Pinellas,27.6705,-82.7119,3.3348798273191,0.071022727,202302,FL,42.1
Douglas,33.6634,-84.8639,3.3320116600274,0.070671378,202302,OR,42.1
Addison,43.7837,-73.2949,3.3279631611887,0.070175439,202302,VT,42.1
Saline,34.4508,-92.6547,3.3275265225983,-0.070121951,202302,KS,42.1
Tippecanoe,40.247,-86.725,3.326531,0.07,202302,IN,42.1
Kings,35.9877,-120.1227,3.3246325592786,0.069767442,202302,NY,42.1
Mitchell,31.1272,-84.1564,3.3219958297052,-0.069444444,202302,KS,42.1
Lake,28.5494,-81.7729,3.3187131382028,0.069042316,202302,IL,42.1
Vermilion,29.9466,-92.2416,3.3180862049261,0.068965517,202302,LA,42.1
Leon,30.3193,-84.2674,3.3169465592663,-0.068825911,202302,FL,42.1
Twin Falls,42.218,-114.5942,3.3133151397512,0.068381064,202302,ID,42.1
Cumberland,34.9536,-78.9354,3.3098873782445,-0.067961165,202302,ME,42.1
Venango,41.2002,-79.8734,3.308544066413,-0.06779661,202302,PA,42.1
Buffalo,40.6861,-99.0693,3.3076207808564,0.067683508,202302,NE,42.1
City of Harrisonburg,38.4409,-78.8742,3.305434828709,0.06741573,202302,VA,42.1
Grundy,35.2402,-85.8228,3.3029724835502,-0.067114094,202302,IA,42.1
Defiance,41.2799,-84.3626,3.3006670778339,-0.066831683,202302,OH,42.1
Jackson,28.7671,-96.6492,3.2993200027211,-0.066666667,202302,OK,42.1
Adams,31.4706,-91.4044,3.2993200027211,0.066666667,202302,IN,42.1
Allen,30.4607,-92.8693,3.2993200027211,0.066666667,202302,OH,42.1
Cass,32.8485,-94.5795,3.2974171293278,0.066433566,202302,MO,42.1
Etowah,33.8979,-86.0245,3.2957158976078,0.066225166,202302,AL,42.1
Butler,31.545,-86.7356,3.2948223101366,-0.066115702,202302,KS,42.1
Macomb,42.4658,-82.9459,3.2948223101366,0.066115702,202302,MI,42.1
Bell,30.7991,-97.4263,3.2941858502888,0.066037736,202302,TX,42.1
Salem,37.2853,-80.0692,3.2933395609778,0.065934066,202302,VA,42.1
Pasco,27.8633,-82.3499,3.2913751852823,-0.065693431,202302,FL,42.1
Dakota,42.2852,-96.7159,3.2898616278293,0.065508021,202302,MN,42.1
Fillmore,40.4065,-97.4427,3.2851844161145,-0.064935065,202302,NE,42.1
Daviess,37.6206,-87.0591,3.2851844161145,0.064935065,202302,MO,42.1
Curry,34.3841,-103.3154,3.2817645158657,0.064516129,202302,OR,42.1
San Bernardino,33.6736,-116.2951,3.2761617002171,-0.063829787,202302,CA,42.1
Northampton,36.2773,-77.2969,3.2745827302412,-0.063636364,202302,PA,42.1
Marion,28.9782,-81.8932,3.2693236221758,-0.062992126,202302,IN,42.1
Waukesha,42.8809,-88.4674,3.2677710114956,-0.062801932,202302,WI,42.1
Somerset,37.9666,-76.0235,3.26530625,0.0625,202302,NJ,42.1
Webster,31.8939,-84.5112,3.254893879217,0.06122449,202302,IA,42.1
Roseau,48.5459,-96.0879,3.2498454577613,0.060606061,202302,MN,42.1
Boone,34.7399,-92.34,3.2491325649356,-0.060518732,202302,IA,42.1
Ford,37.553,-99.6325,3.2441456212922,-0.059907834,202302,KS,42.1
Chisago,45.3364,-92.9675,3.2352941142857,0.058823529,202302,MN,42.1
Barnes,46.6536,-98.1943,3.2312924972789,-0.058333333,202302,ND,42.1
Lycoming,41.1788,-76.8839,3.2306320373291,0.058252427,202302,PA,42.1
McHenry,42.1641,-88.3064,3.2297104660655,-0.058139535,202302,IL,42.1
Pine,45.7575,-92.9624,3.2283347785862,0.057971014,202302,MN,42.1
Portsmouth,36.8035,-76.327,3.2260596178964,-0.057692308,202302,VA,42.1
Tazewell,36.9763,-81.628,3.2260596178964,-0.057692308,202302,IL,42.1
Van Zandt,32.4126,-95.6371,3.2242551694112,-0.057471264,202302,TX,42.1
Kay,36.6806,-97.3063,3.2086166702948,0.055555556,202302,OK,42.1
Phelps,37.6158,-91.9064,3.2086166702948,0.055555556,202302,NE,42.1
Hall,34.1819,-83.9024,3.2061110514827,0.055248619,202302,NE,42.1
Ottawa,36.6296,-94.9432,3.2016700203635,-0.054704595,202302,MI,42.1
Yellow Medicine,44.631,-95.4182,3.2003709128015,0.054545455,202302,MN,42.1
Nassau,30.4193,-81.9724,3.1993612268777,0.054421769,202302,NY,42.1
Meade,37.2701,-100.5732,3.1939870979153,0.053763441,202302,KY,42.1
Nacogdoches,31.3601,-94.4064,3.1880022724799,0.053030303,202302,TX,42.1
Hamilton,30.3387,-82.7765,3.1847473688507,-0.052631579,202302,TN,42.1
Stearns,45.3436,-94.3028,3.1812583499408,0.052204176,202302,MN,42.1
Beaufort,32.1145,-80.8686,3.1797803436593,-0.052023121,202302,SC,42.1
Crow Wing,46.2099,-94.2527,3.1764316110599,-0.051612903,202302,MN,42.1
Smith,31.8394,-89.4049,3.1756336403216,-0.051515152,202302,TX,42.1
Chester,34.5705,-80.9133,3.1737307669283,-0.051282051,202302,PA,42.1
Pickaway,39.5535,-82.7763,3.1737307669283,-0.051282051,202302,OH,42.1
Avoyelles,30.8641,-92.1466,3.1737307669283,0.051282051,202302,LA,42.1
Kingman,37.4344,-98.4171,3.1737307669283,0.051282051,202302,KS,42.1
York,34.8507,-80.9342,3.1737307669283,0.051282051,202302,ME,42.1
Monroe,24.5552,-81.7816,3.1722029237003,-0.051094891,202302,IA,42.1
Wake,35.547,-78.6717,3.1715948966264,-0.051020408,202302,NC,42.1
Dunn,44.7152,-91.9822,3.1701830538914,0.050847458,202302,WI,42.1
Ada,43.4599,-116.244,3.1691804373854,-0.050724638,202302,UT,42.1
Wagoner,35.8507,-95.3183,3.165545254589,0.05027933,202302,OK,42.1
Prince William,38.5223,-77.2936,3.164840925065,0.05019305,202302,VA,42.1
New York,40.7038,-74.0098,3.163265,0.05,202302,NY,42.1
Douglas,33.6634,-84.8639,3.1615713683123,-0.049792531,202302,MN,42.1
Kenai Peninsula,59.4495,-151.7009,3.1533097576904,-0.048780488,202302,AK,42.1
Blount,33.8168,-86.6008,3.1500983889401,0.048387097,202302,TN,42.1
Caddo Parish,32.3161,-93.8881,3.1438285745384,0.047619048,202302,LA,42.1
Fulton,33.5242,-84.679,3.1438285745384,0.047619048,202302,OH,42.1
Dickinson,38.6767,-96.8941,3.1410014523191,-0.047272727,202302,IA,42.1
Cobb,33.7838,-84.5952,3.1392552979592,-0.047058824,202302,GA,42.1
Queens,40.5594,-73.9067,3.1384593925358,0.046961326,202302,NY,42.1
Big Horn,44.2507,-107.6053,3.1347883728524,0.046511628,202302,WY,42.1
Boulder,39.9205,-105.0867,3.1261590871985,-0.045454545,202302,CO,42.1
Sac,42.2653,-95.0852,3.1261590871985,0.045454545,202302,IA,42.1
Washington,30.1669,-96.3977,3.1261590871985,0.045454545,202302,MS,42.1
Norman,47.1588,-96.1309,3.1206208922327,-0.044776119,202302,MN,42.1
Essex,37.7681,-76.7117,3.1179133297052,0.044444444,202302,NJ,42.1
Johnson,32.2532,-97.3678,3.1164960910289,-0.044270833,202302,IA,42.1
Montgomery,30.1199,-95.4247,3.1100260880213,-0.043478261,202302,TN,42.1
Benton,34.6244,-89.1862,3.1100260880213,0.043478261,202302,AR,42.1
Strafford,43.1174,-70.9197,3.1069663770584,-0.043103448,202302,NH,42.1
Itasca,47.0739,-93.1964,3.1062096799649,0.043010753,202302,MN,42.1
Franklin,29.7255,-85.0063,3.1061293694195,-0.043000915,202302,OH,42.1
Decatur,30.7493,-84.4846,3.1000281679793,-0.042253521,202302,IA,42.1
Burleigh,46.6757,-100.2975,3.0984163570475,-0.042056075,202302,ND,42.1
Tuscarawas,40.2739,-81.594,3.096735900926,0.04185022,202302,OH,42.1
Tom Green,31.2346,-100.5203,3.0965307980135,-0.041825095,202302,TX,42.1
Tuolumne,37.8108,-120.2988,3.0893730614708,0.040948276,202302,CA,42.1
Osceola,27.8767,-81.05,3.0882959221991,0.040816327,202302,IA,42.1
Box Butte,42.1149,-102.888,3.0873273221642,0.040697674,202302,NE,42.1
Wyandotte,39.0668,-94.6282,3.0832728641165,-0.040201005,202302,KS,42.1
Lake,28.5494,-81.7729,3.081632,-0.04,202302,SD,42.1
St. Louis,38.4566,-90.3282,3.081632,-0.04,202302,MO,42.1
Comanche,31.7629,-98.3695,3.0809079805964,0.039911308,202302,OK,42.1
Greene,31.0867,-88.7977,3.0806303712533,-0.039877301,202302,MO,42.1
Lancaster,34.5578,-80.5546,3.0794695336667,0.039735099,202302,PA,42.1
Davis,40.6941,-92.258,3.0752294095238,0.039215686,202302,IA,42.1
Ross,39.2039,-82.812,3.0717464559458,-0.038789026,202302,OH,42.1
Santa Fe,35.0776,-106.1872,3.0705898551119,0.038647343,202302,NM,42.1
Shelby,31.7131,-93.9698,3.0702853313687,-0.038610039,202302,IA,42.1
Olmsted,43.8555,-92.4885,3.0700047505844,0.038575668,202302,MN,42.1
Haskell,33.0771,-99.959,3.0690730731554,-0.038461538,202302,OK,42.1
Covington,31.0105,-86.3497,3.0690730731554,0.038461538,202302,AL,42.1
Lancaster,34.5578,-80.5546,3.0681836326406,-0.038352582,202302,NE,42.1
Denton,33.0033,-96.882,3.0675058256783,-0.038269551,202302,TX,42.1
King,33.6206,-100.3229,3.0643159100804,0.037878788,202302,WA,42.1
Burlington,39.5923,-74.451,3.0631490561417,-0.037735849,202302,NJ,42.1
Payne,35.9768,-97.0441,3.0599535241934,-0.037344398,202302,OK,42.1
Chippewa,44.9226,-95.4845,3.0590526632219,-0.037234043,202302,WI,42.1
Franklin,29.7255,-85.0063,3.0586938045539,0.037190083,202302,PA,42.1
Hockley,33.4482,-102.4898,3.0574444441421,-0.037037037,202302,TX,42.1
Sheridan,39.3322,-100.4758,3.0574444441421,-0.037037037,202302,NE,42.1
Washington,30.1669,-96.3977,3.0574444441421,0.037037037,202302,OH,42.1
Washington,30.1669,-96.3977,3.0574444441421,0.037037037,202302,OK,42.1
Dodge,31.938,-83.1837,3.0556633263683,0.036818851,202302,NE,42.1
Westmoreland,38.0181,-76.6861,3.0546706445984,0.036697248,202302,PA,42.1
Randolph,33.1492,-85.5513,3.0519472697588,0.036363636,202302,IL,42.1
Racine,42.666,-88.2749,3.0515326802417,0.036312849,202302,WI,42.1
Jackson,28.7671,-96.6492,3.051178237919,0.03626943,202302,KS,42.1
Clay,29.7683,-81.9907,3.0509978698055,0.036247335,202302,MO,42.1
Kossuth,42.9868,-94.0959,3.0492729726788,0.036036036,202302,IA,42.1
Ellis,32.1482,-96.9612,3.0466464309038,-0.035714286,202302,KS,42.1
James City,37.2235,-76.7833,3.0466464309038,-0.035714286,202302,VA,42.1
Oktibbeha,33.357,-89.0473,3.044066370959,0.03539823,202302,MS,42.1
Trumbull,41.1318,-80.7553,3.0398662796393,-0.034883721,202302,OH,42.1
Carroll,33.3343,-89.757,3.0390408720497,0.034782609,202302,OH,42.1
Morgan,33.5368,-83.3435,3.0385479148526,0.034722222,202302,AL,42.1
Cache,41.56,-111.8297,3.0365931065447,-0.034482759,202302,UT,42.1
Murray,34.402,-97.051,3.0365931065447,0.034482759,202302,GA,42.1
Warren,32.3258,-90.8507,3.0290362417751,-0.033557047,202302,VA,42.1
Franklin,29.7255,-85.0063,3.0272099972789,0.033333333,202302,KY,42.1
Cerro Gordo,42.9137,-93.4773,3.0239511997556,-0.032934132,202302,IA,42.1
Frederick,39.0367,-78.2815,3.0212945680568,0.032608696,202302,MD,42.1
Orange,28.3774,-81.1888,3.0210721834382,-0.032581454,202302,FL,42.1
Dakota,42.2852,-96.7159,3.0194983808312,-0.032388664,202302,NE,42.1
Muscatine,41.3486,-91.1237,3.0191420446229,0.032345013,202302,IA,42.1
Union,29.9315,-82.4255,3.0191420446229,0.032345013,202302,SD,42.1
Washington,30.1669,-96.3977,3.0184322620145,-0.032258065,202302,WI,42.1
Taylor,29.6739,-83.3723,3.0184322620145,0.032258065,202302,TX,42.1
Chesapeake,36.6434,-76.242,3.0150777089822,0.031847134,202302,VA,42.1
Cecil,39.3662,-75.8845,3.0142523830256,0.031746032,202302,MD,42.1
Winnebago,42.2166,-89.0512,3.0142523830256,0.031746032,202302,WI,42.1
Tuscaloosa,33.0618,-87.4422,3.0093204192077,-0.031141869,202302,AL,42.1
Warren,32.3258,-90.8507,3.0087618617318,0.031073446,202302,OH,42.1
Kingfisher,35.7502,-97.93,3.0062784634223,0.030769231,202302,OK,42.1
Broward,25.9812,-80.1484,3.002472724799,-0.03030303,202302,FL,42.1
Buena Vista,37.7396,-79.3523,3,0.02955665,202302,IA,42.1
Gallatin,37.6952,-88.2491,3,-0.029411765,202302,MT,42.1
Des Moines,40.8087,-91.117,3,-0.028753994,202302,IA,42.1
Mills,31.4458,-98.5744,3,0.028037383,202302,IA,42.1
Stanton,37.5451,-101.9109,3,0.027777778,202302,NE,42.1
Palm Beach,26.3446,-80.2109,3,0.02764977,202302,FL,42.1
Lee,26.3398,-81.7787,3,0.027173913,202302,IA,42.1
Douglas,33.6634,-84.8639,3,-0.027027027,202302,WA,42.1
Washington,30.1669,-96.3977,3,0.027027027,202302,VT,42.1
Hocking,39.4174,-82.5923,3,0.026548673,202302,OH,42.1
Minnehaha,43.4775,-96.7041,3,-0.026315789,202302,SD,42.1
Thurston,42.0574,-96.4929,3,-0.026315789,202302,WA,42.1
Gage,40.0451,-96.8019,3,-0.026168224,202302,NE,42.1
Camden,30.7305,-81.5465,3,0.025641026,202302,NJ,42.1
Rio Grande,37.5731,-106.1408,3,-0.025454545,202302,CO,42.1
Fairfield,34.2717,-81.2712,3,-0.025356577,202302,OH,42.1
Spokane,47.2999,-117.1395,3,-0.025252525,202302,WA,42.1
Montgomery,30.1199,-95.4247,3,0.025229358,202302,OH,42.1
Cumberland,34.9536,-78.9354,3,-0.024793388,202302,PA,42.1
New Hanover,33.9927,-77.9099,3,0.024390244,202302,NC,42.1
Geary,39.0299,-96.8396,3,-0.024193548,202302,KS,42.1
Tillman,34.2282,-98.6867,3,0.024096386,202302,OK,42.1
Preble,39.5897,-84.5581,3,0.023529412,202302,OH,42.1
Camp,32.9623,-94.9603,3,-0.022727273,202302,TX,42.1
Tipton,35.4143,-89.8188,3,-0.022727273,202302,TN,42.1
Virginia Beach,36.6224,-76.0249,3,0.022421525,202302,VA,42.1
Canadian,35.3885,-97.7309,3,0.022099448,202302,OK,42.1
Sioux,42.6872,-103.8827,3,0.02173913,202302,IA,42.1
Citrus,28.7304,-82.3077,3,-0.021459227,202302,FL,42.1
Kent,33.2518,-100.5825,3,-0.020833333,202302,DE,42.1
Washington,30.1669,-96.3977,3,0.02,202302,NE,42.1
Douglas,33.6634,-84.8639,3,0.019646365,202302,KS,42.1
Garfield,36.1962,-97.8805,3,-0.019469027,202302,OK,42.1
Platte,39.1776,-94.6321,3,0.019455253,202302,NE,42.1
Luzerne,40.9448,-76.1452,3,0.019230769,202302,PA,42.1
Dawes,42.4439,-103.2985,3,-0.018867925,202302,NE,42.1
Anoka,45.0523,-93.2541,3,0.018226002,202302,MN,42.1
Cameron,25.9017,-97.4975,3,0.018099548,202302,TX,42.1
Otoe,40.5586,-96.0138,3,0.017751479,202302,NE,42.1
Cleveland,33.7588,-92.1939,3,0.017266187,202302,OK,42.1
Cowley,37.0676,-97.0357,3,0.017241379,202302,KS,42.1
Davison,43.5478,-97.9881,3,-0.016666667,202302,SD,42.1
Warren,32.3258,-90.8507,3,0.01618705,202302,IA,42.1
Hardin,30.1491,-94.3733,3,-0.016129032,202302,IA,42.1
Kleberg,27.3217,-97.7787,3,0.016129032,202302,TX,42.1
Mahoning,40.8957,-80.9897,3,-0.015673981,202302,OH,42.1
Platte,39.1776,-94.6321,3,0.015384615,202302,MO,42.1
Tolland,41.629,-72.3646,3,0.015384615,202302,CT,42.1
Caledonia,44.1978,-72.1104,3,-0.015228426,202302,VT,42.1
Kearney,40.3735,-99.1539,3,0.014705882,202302,NE,42.1
Lincoln,31.3795,-90.2867,3,-0.014084507,202302,SD,42.1
Hernando,28.4409,-82.4612,3,-0.01369863,202302,FL,42.1
Riley,39.1153,-96.7101,3,0.011857708,202302,KS,42.1
Dallas,32.1899,-87.0633,3,0.011764706,202302,IA,42.1
York,34.8507,-80.9342,3,-0.011594203,202302,NE,42.1
Wood,32.6439,-95.222,3,-0.011049724,202302,WI,42.1
Hamilton,30.3387,-82.7765,3,-0.010928962,202302,IN,42.1
Alachua,29.4536,-82.1065,3,0.010810811,202302,FL,42.1
Cedar,37.6613,-94.0129,3,-0.01038961,202302,IA,42.1
McPherson,38.206,-97.5088,3,0.009375,202302,KS,42.1
Tarrant,32.5773,-97.1416,3,0.009269988,202302,TX,42.1
Cuming,41.845,-96.7318,3,0.008928571,202302,NE,42.1
Saratoga,42.81,-73.6995,3,0.008474576,202302,NY,42.1
Nemaha,39.6428,-95.8231,3,0.008196721,202302,NE,42.1
Polk,26.4722,-81.8122,3,-0.007994004,202302,IA,42.1
Duval,27.3849,-98.309,3,0.006666667,202302,FL,42.1
Lawrence,31.4036,-90.1864,3,0.00625,202302,PA,42.1
Summit,39.4753,-106.0225,3,-0.005876592,202302,OH,42.1
Williamson,30.4521,-97.7688,3,0.005277045,202302,TX,42.1
Guernsey,39.852,-81.6576,3,-0.004739336,202302,OH,42.1
Leavenworth,39.0014,-95.0391,3,-0.003787879,202302,KS,42.1
Wayne,31.5168,-82.0397,3,0.003436426,202302,NE,42.1
Black Hawk,42.3416,-92.1862,3,0.001627339,202302,IA,42.1
Scott,32.2745,-89.5627,3,0.000856164,202302,IA,42.1
Johnson,32.2532,-97.3678,3,0.000770713,202302,KS,42.1
Adair,35.6826,-94.7611,3,0,202302,KY,42.1
Anchorage,59.8666,-158.5996,3,0,202302,AK,42.1
Barron,45.2462,-91.9742,3,0,202302,WI,42.1
Clinton,36.6857,-85.1407,3,0,202302,IA,42.1
Columbia,29.9207,-82.6879,3,0,202302,NY,42.1
Craig,36.534,-95.2246,3,0,202302,OK,42.1
DeSoto,27.0675,-81.9855,3,0,202302,MS,42.1
Essex,37.7681,-76.7117,3,0,202302,NH,42.1
Fayette,29.6882,-96.9106,3,0,202302,PA,42.1
Gibson,35.8081,-88.7627,3,0,202302,TN,42.1
Grady,30.7462,-84.3125,3,0,202302,OK,42.1
Gregg,32.3836,-94.8653,3,0,202302,TX,42.1
Hancock,30.2391,-89.4595,3,0,202302,IL,42.1
Iron,37.2955,-90.6279,3,0,202302,UT,42.1
La Salle,28.0405,-99.3563,3,0,202302,LA,42.1
Lincoln,31.3795,-90.2867,3,0,202302,WI,42.1
Marshall,33.9517,-96.712,3,0,202302,WV,42.1
McLeod,44.7259,-94.4516,3,0,202302,MN,42.1
Oakland,42.4567,-83.659,3,0,202302,MI,42.1
Okmulgee,35.4551,-95.9498,3,0,202302,OK,42.1
Orange,28.3774,-81.1888,3,0,202302,IN,42.1
Rockdale,33.6111,-84.0683,3,0,202302,GA,42.1
Scott,32.2745,-89.5627,3,0,202302,MN,42.1
